     2.11           OBSERVATION DATA    G (GPS)             RINEX VERSION / TYPE
teqc  2014Jan16     NOAA/NOS/NGS/CORS   20140305 00:20:19UTCPGM / RUN BY / DATE
Solaris x86 5.10|AMD64|cc SC5.8 -xarch=amd64|=+|=+          COMMENT
   0.000      (antenna height)                              COMMENT
 +39.99147598 (latitude)                                    COMMENT
-105.26107939 (longitude)                                   COMMENT
1655.057      (elevation)                                   COMMENT
BIT 2 OF LLI FLAGS DATA COLLECTED UNDER A/S CONDITION       COMMENT
DSRC (COGO code)                                            COMMENT
DSRC                                                        MARKER NAME
DSRC                                                        MARKER NUMBER
Seth I. Gutman      ESRL                                    OBSERVER / AGENCY
5051K72749          TRIMBLE NETR9       4.60                REC # / TYPE / VERS
1441107284          TRM57971.00     NONE                    ANT # / TYPE
 -1288338.0320 -4721989.8640  4078321.1770                  APPROX POSITION XYZ
        0.0000        0.0000        0.0000                  ANTENNA: DELTA H/E/N
     1     1                                                WAVELENGTH FACT L1/2
    11    L1    L2    L5    C1    P1    C2    P2    C5    S1# / TYPES OF OBSERV
          S2    S5                                          # / TYPES OF OBSERV
    30.0000                                                 INTERVAL
    16                                                      LEAP SECONDS
 SNR is mapped to RINEX snr flag value [0-9]                COMMENT
  L1 & L2: min(max(int(snr_dBHz/6), 0), 9)                  COMMENT
teqc windowed: start @ 2014 Mar  4 00:00:00.000             COMMENT
teqc windowed: delta = 86400.000 sec                        COMMENT
teqc edited: all SBAS satellites excluded                   COMMENT
teqc edited: all Galileo satellites excluded                COMMENT
teqc edited: all Compass satellites excluded                COMMENT
teqc edited: all QZSS satellites excluded                   COMMENT
  2014     3     4     0     0    0.0000000     GPS         TIME OF FIRST OBS
                                                            END OF HEADER
 14  3  4  0  0  0.0000000  0 11G20G16G23G30G13G19G08G07G27G03G10
 128606633.369 7 100213060.54544                  24473032.438
                  24473050.023                          42.100          25.300

 111399703.377 8  86805140.14246                  21198619.789
                  21198628.750                          49.800          39.500

 106718413.918 8  83157356.81747                  20307811.469
                  20307819.355                          50.100          42.100

 116148147.570 7  90505163.521 7  86734113.140 8  22102226.461
  22102238.762    22102239.063    22102238.871          46.600          47.800
        52.000
 106671129.555 8  83120499.66346                  20298809.969
                  20298818.414                          50.300          41.600

 124319171.266 6  96872099.81044                  23657123.156
                  23657136.762                          41.900          28.600

 131068129.788 6 102131111.38843                  24941440.102
                  24941459.266                          41.100          20.100

 116835817.321 7  91041086.730 7                  22233108.500
  22233119.004    22233119.133                          47.600          43.100

 117916470.587 7  91882953.440 7  88054525.168 8  22438699.883
  22438712.637    22438713.145    22438712.949          46.200          46.300
        50.700
 114740302.957 7  89408188.90345                  21834337.102
                  21834348.883                          46.800          33.300

 120431694.748 7  93842999.37844                  22917378.523
                  22917391.637                          45.300          29.200

 14  3  4  0  0 30.0000000  0 11G20G16G23G30G13G19G08G07G27G03G10
 128709640.495 7 100293325.61743                  24492634.648
                  24492651.313                          42.500          23.900

 111466420.488 8  86857127.49046                  21211315.773
                  21211324.441                          49.900          38.600

 106749897.895 8  83181889.78546                  20313802.555
                  20313809.934                          49.800          41.500

 116206888.753 7  90550935.856 7  86777978.282 8  22113404.430
  22113416.793    22113416.887    22113416.988          46.400          47.000
        51.700
 106635758.130 8  83092937.57746                  20292078.742
                  20292087.285                          50.000          41.500

 124220224.002 6  96794998.36544                  23638293.375
                  23638307.137                          40.900          27.000

 130991006.569 6 102071015.58643                  24926763.797
                  24926782.523                          41.000          19.300

 116772525.192 7  90991768.325 7                  22221064.109
  22221074.227    22221074.180                          47.600          43.500

 117868327.511 7  91845439.481 7  88018574.321 8  22429539.289
  22429551.539    22429552.168    22429552.320          46.900          46.600
        51.200
 114665255.087 7  89349710.18645                  21820056.023
                  21820067.113                          47.100          32.700

 120418738.212 7  93832903.41944                  22914913.422
                  22914926.344                          45.000          29.300

 14  3  4  0  1  0.0000000  0 11G20G16G23G30G13G19G08G07G27G03G10
 128812604.413 6 100373557.05443                  24512227.320
                  24512246.273                          38.600          21.100

 111533551.506 8  86909437.37046                  21224090.383
                  21224099.168                          50.000          37.900

 106781891.569 8  83206819.92546                  20319890.516
                  20319897.848                          49.500          41.300

 116265775.727 7  90596821.809 7  86821952.311 8  22124610.086
  22124622.879    22124623.117    22124623.512          46.300          47.800
        51.400
 106600837.256 8  83065726.56646                  20285433.477
                  20285441.996                          49.500          41.700

 124121420.275 6  96718008.78444                  23619490.961
                  23619505.199                          41.400          26.400

 130913915.194 6 102010944.62843                  24912092.016
                  24912112.734                          39.900          19.300

 116709363.530 7  90942551.609 7                  22209044.469
  22209055.258    22209055.055                          46.500          43.500

 117820666.561 7  91808301.209 7  87982983.512 8  22420469.242
  22420481.504    22420481.586    22420482.559          47.500          45.700
        50.800
 114590643.185 7  89291571.17245                  21805857.563
                  21805868.410                          47.100          32.000

 120406365.434 7  93823262.35544                  22912558.750
                  22912571.379                          44.500          29.500

 14  3  4  0  1 30.0000000  0 11G20G16G23G30G13G19G08G07G27G03G10
 128915522.373 6 100453752.76643                  24531812.781
                  24531831.090                          40.600          22.900

 111601093.619 8  86962067.58846                  21236943.250
                  21236951.898                          50.100          38.800

 106814394.861 8  83232147.17446                  20326075.828
                  20326082.824                          50.200          41.000

 116324807.838 7  90642820.846 7  86866034.716 8  22135844.031
  22135855.785    22135855.965    22135856.480          46.600          47.100
        51.500
 106566368.567 8  83038867.90346                  20278874.477
                  20278883.023                          50.100          41.400

 124022763.394 6  96641133.60944                  23600717.711
                  23600730.852                          40.800          26.700

 130836855.448 6 101950898.27843                  24897429.203
                  24897449.066                          39.900          20.900

 116646332.673 7  90893436.794 7                  22197050.102
  22197060.707    22197060.633                          46.300          44.300

 117773489.802 7  91771540.235 7  87947754.275 8  22411491.617
  22411504.023    22411503.805    22411504.426          47.200          46.100
        50.500
 114516470.182 7  89233774.16445                  21791742.820
                  21791753.684                          46.500          33.200

 120394576.290 7  93814076.04344                  22910315.664
                  22910328.383                          44.700          29.100

 14  3  4  0  2  0.0000000  0 11G20G16G23G30G13G19G08G07G27G03G10
 129018392.060 6 100533910.71343                  24551388.602
                  24551407.016                          41.300          22.500

 111669044.354 8  87015016.19946                  21249873.781
                  21249882.770                          49.700          38.700

 106847407.846 8  83257871.58346                  20332358.461
                  20332365.414                          49.900          41.600

 116383984.588 7  90688932.591 7  86910225.139 8  22147105.188
  22147117.211    22147117.281    22147117.266          46.800          47.200
        51.400
 106532354.112 8  83012363.18646                  20272400.992
                  20272409.844                          48.700          41.800

 123924256.749 6  96564375.47544                  23581972.102
                  23581985.602                          41.100          28.000

 130759827.146 6 101890876.53943                  24882771.078
                  24882791.219                          39.500          21.700

 116583432.775 7  90844424.049 7                  22185080.227
  22185090.883    22185091.320                          45.100          43.400

 117726799.547 7  91735158.364 7  87912888.335 8  22402606.742
  22402618.820    22402619.285    22402618.910          47.600          46.900
        49.800
 114442739.178 7  89176321.56945                  21777711.977
                  21777722.875                          47.000          33.200

 120383370.938 7  93805344.66244                  22908183.297
                  22908196.102                          44.700          28.500

 14  3  4  0  2 30.0000000  0 11G20G16G23G30G13G19G08G07G27G03G10
 129121210.052 6 100614028.55442                  24570952.711
                  24570970.598                          36.000          17.800

 111737400.809 8  87068280.96646                  21262881.797
                  21262890.535                          49.200          38.700

 106880929.937 8  83283992.68846                  20338737.375
                  20338744.336                          50.700          41.600

 116443305.306 7  90735156.506 7  86954523.067 8  22158393.555
  22158405.535    22158405.414    22158405.398          47.500          47.000
        51.000
 106498795.181 8  82986213.42346                  20266015.219
                  20266024.086                          49.300          41.300

 123825903.680 6  96487737.01344                  23563255.594
                  23563269.137                          41.300          28.200

 130682830.014 6 101830879.07243                  24868119.234
                  24868137.754                          41.000          22.300

 116520663.719 7  90795513.253 7                  22173135.953
  22173146.605    22173147.094                          46.500          44.500

 117680597.785 7  91699157.119 7  87878387.185 8  22393815.008
  22393827.141    22393827.664    22393826.527          47.000          46.600
        49.600
 114369452.707 7  89119215.36145                  21763766.109
                  21763777.629                          47.300          33.000

 120372749.215 7  93797068.03644                  22906161.328
                  22906174.953                          44.200          29.000

 14  3  4  0  3  0.0000000  0 11G20G16G23G30G13G19G08G07G27G03G10
 129223974.414 6 100694104.41042                  24590508.961
                  24590526.152                          38.300          17.400

 111806160.742 8  87121860.12346                  21275966.047
                  21275975.141                          48.200          38.300

 106914961.570 8  83310510.85546                  20345213.172
                  20345220.891                          51.200          41.100

 116502769.735 7  90781492.416 7  86998928.311 8  22169709.078
  22169720.750    22169720.496    22169720.773          47.700          47.200
        50.900
 106465694.016 8  82960420.37446                  20259715.961
                  20259724.902                          48.200          41.400

 123727707.707 7  96411220.94144                  23544570.500
                  23544583.047                          42.600          29.600

 130605864.313 6 101770906.09143                  24853472.422
                  24853491.332                          40.200          21.700

 116458025.982 7  90746704.777 7                  22161215.711
  22161226.938    22161227.492                          46.000          44.300

 117634886.914 7  91663538.388 7  87844252.585 8  22385115.953
  22385128.746    22385128.961    22385128.121          47.000          46.700
        49.500
 114296614.008 7  89062458.08045                  21749904.836
                  21749916.465                          47.500          33.600

 120362711.150 7  93789246.20244                  22904251.648
                  22904265.230                          44.800          29.400

 14  3  4  0  3 30.0000000  0 11G20G16G23G30G13G19G08G07G27G03G10
 129326682.404 5 100774136.36742                  24610053.109
                  24610070.125                          34.200          15.600

 111875321.199 8  87175751.37446                  21289127.008
                  21289135.832                          48.600          38.300

 106949502.203 8  83337425.63646                  20351785.867
                  20351793.539                          50.800          41.300

 116562377.377 8  90827939.915 7  87043440.499 8  22181052.141
  22181063.813    22181063.707    22181063.867          48.100          47.000
        50.800
 106433052.582 8  82934985.54046                  20253504.711
                  20253513.656                          49.200          41.300

 123629671.909 7  96334829.69044                  23525914.477
                  23525926.676                          43.800          29.200

 130528929.935 6 101710957.47243                  24838833.328
                  24838850.426                          40.900          23.000

 116395519.824 7  90697998.838 7                  22149320.898
  22149332.215    22149332.773                          45.900          45.000

 117589669.171 7  91628303.909 7  87810486.234 8  22376511.422
  22376523.859    22376524.008    22376523.871          46.000          46.600
        49.800
 114224226.086 7  89006052.04445                  21736130.305
                  21736142.063                          47.000          34.700

 120353256.765 7  93781879.18144                  22902451.969
                  22902465.645                          43.900          28.500

 14  3  4  0  4  0.0000000  0 11G20G16G23G30G13G19G08G07G27G03G10
 129429331.856 6 100854122.91242                  24629587.695
                  24629602.117                          38.700          16.900

 111944879.731 8  87229952.82346                  21302363.492
                  21302373.059                          49.600          38.400

 106984552.748 8  83364737.74847                  20358455.898
                  20358462.680                          50.900          42.200

 116622128.257 7  90874499.021 7  87088059.653 8  22192422.516
  22192434.305    22192434.391    22192434.668          47.300          46.800
        50.800
 106400873.109 8  82909910.67546                  20247380.789
                  20247390.113                          49.200          41.100

 123531800.270 7  96258566.33944                  23507290.102
                  23507302.539                          44.400          28.900

 130452027.124 7 101651033.54843                  24824198.328
                  24824216.348                          42.300          22.300

 116333146.134 7  90649396.113 7                  22137452.016
  22137462.730    22137463.324                          46.800          44.600

 117544947.172 7  91593455.707 7  87777090.065 8  22368000.273
  22368013.004    22368013.004    22368013.160          45.900          46.000
        50.000
 114152292.398 7  88949999.95145                  21722442.273
                  21722453.188                          47.600          34.400

 120344386.616 7  93774967.40244                  22900763.508
                  22900777.328                          43.800          27.200

 14  3  4  0  4 30.0000000  0 11G20G16G23G30G13G19G08G07G27G03G10
 129531919.441 6 100934061.09642                  24649109.383
                  24649123.523                          39.200          15.600

 112014833.230 8  87284462.03546                  21315675.227
                  21315684.637                          49.100          38.100

 107020111.818 8  83392446.12346                  20365222.578
                  20365229.406                          51.200          41.600

 116682021.053 7  90921168.720 7  87132784.790 8  22203819.750
  22203831.527    22203831.551    22203831.535          47.300          46.800
        51.500
 106369156.511 7  82885196.50946                  20241345.852
                  20241354.750                          47.600          41.300

 123434095.476 7  96182432.99044                  23488696.922
                  23488709.699                          44.200          28.400

 130375155.250 6 101591133.66044                  24809570.008
                  24809588.207                          40.900          25.000

 116270904.062 7  90600895.949 7                  22125606.953
  22125618.066    22125618.367                          46.200          43.900

 117500722.173 7  91558994.792 7  87744065.062 8  22359584.734
  22359596.805    22359597.234    22359597.156          45.300          46.300
        49.700
 114080815.468 7  88894303.77445                  21708839.555
                  21708850.703                          46.600          33.800

 120336099.661 7  93768510.05944                  22899187.367
                  22899200.195                          43.700          28.300

 14  3  4  0  5  0.0000000  0 11G20G16G23G30G13G19G08G07G27G03G10
 129634442.566 6 101013949.19743                  24668620.781
                  24668635.070                          40.200          20.600

 112085179.336 8  87339277.17446                  21329061.695
                  21329071.086                          49.700          38.100

 107056179.381 8  83420550.71246                  20372086.031
                  20372093.391                          51.600          41.100

 116742055.486 7  90967948.785 7  87177615.682 8  22215243.453
  22215255.809    22215255.930    22215255.918          47.200          47.400
        51.200
 106337904.696 8  82860844.50246                  20235398.539
                  20235407.578                          48.800          41.000

 123336561.076 7  96106432.43044                  23470137.195
                  23470149.535                          44.500          26.600

 130298314.168 6 101531257.80544                  24794947.086
                  24794965.180                          41.100          25.300

 116208794.320 7  90552498.906 7                  22113788.563
  22113798.211    22113798.754                          46.500          43.200

 117456996.582 7  91524923.024 7  87711412.984 8  22351264.570
  22351276.305    22351276.723    22351276.641          46.600          46.300
        49.600
 114009798.243 7  88838965.82045                  21695325.484
                  21695336.625                          46.800          33.900

 120328395.923 7  93762507.18244                  22897721.297
                  22897734.223                          44.600          27.900

 14  3  4  0  5 30.0000000  0 11G20G16G23G30G13G19G08G07G27G03G10
 129736898.837 6 101093785.13542                  24688116.609
                  24688132.039                          38.600          17.800

 112155915.365 8  87394396.15446                  21342522.516
                  21342531.621                          49.300          38.100

 107092755.715 8  83449051.74846                  20379046.297
                  20379053.117                          51.700          41.300

 116802231.551 7  91014839.207 7  87222552.327 8  22226694.438
  22226706.684    22226707.242    22226707.051          47.000          47.200
        52.000
 106307119.966 8  82836856.46046                  20229540.266
                  20229549.059                          49.300          40.900

 123239200.820 7  96030567.53544                  23451609.734
                  23451622.020                          44.600          27.300

 130221504.272 7 101471406.25244                  24780331.172
                  24780347.734                          42.700          24.700

 116146817.357 7  90504205.314 7                  22101994.102
  22102004.492    22102004.496                          46.900          43.600

 117413772.869 7  91491242.337 7  87679135.681 8  22343038.688
  22343051.133    22343051.082    22343050.941          47.100          45.900
        49.000
 113939244.295 7  88783988.85545                  21681899.344
                  21681910.582                          47.500          34.500

 120321275.279 7  93756958.66244                  22896366.242
                  22896379.578                          45.400          28.900

 14  3  4  0  6  0.0000000  0 11G20G16G23G30G13G19G08G07G27G03G10
 129839286.193 6 101173567.38543                  24707600.242
                  24707617.902                          39.200          19.300

 112227039.126 8  87449817.25546                  21356056.891
                  21356065.730                          49.300          38.000

 107129841.103 8  83477949.45146                  20386103.203
                  20386110.926                          50.900          41.300

 116862548.939 7  91061839.750 7  87267594.508 8  22238172.789
  22238184.895    22238184.906    22238185.359          46.800          46.500
        51.400
 106276804.206 8  82813233.84446                  20223771.461
                  20223780.012                          48.900          41.800

 123142018.380 7  95954841.18944                  23433116.227
                  23433128.727                          44.200          27.100

 130144725.756 7 101411579.09843                  24765719.875
                  24765736.215                          42.600          22.500

 116084973.542 7  90456015.472 7                  22090225.734
  22090236.047    22090235.840                          45.600          43.600

 117371053.332 7  91457954.510 7  87647234.878 8  22334909.445
  22334921.285    22334921.035    22334921.309          46.200          46.200
        49.100
 113869156.451 7  88729375.09845                  21668562.086
                  21668573.586                          46.900          34.700

 120314738.059 7  93751864.76944                  22895122.602
                  22895135.355                          44.600          28.800

 14  3  4  0  6 30.0000000  0 11G20G16G23G30G13G19G08G07G27G03G10
 129941601.642 6 101253293.50743                  24727070.227
                  24727088.211                          41.100          18.600

 112298547.667 8  87505538.19546                  21369664.336
                  21369673.055                          49.700          38.100

 107167434.838 8  83507243.28246                  20393257.094
                  20393264.578                          50.600          41.100

 116923006.961 8  91108949.886 7  87312741.712 8  22249677.625
  22249689.406    22249689.039    22249689.906          48.100          46.400
        51.500
 106246959.267 8  82789978.10646                  20218092.047
                  20218100.707                          49.100          41.400

 123045016.725 7  95879255.72444                  23414657.500
                  23414669.871                          43.800          27.400

 130067978.297 6 101351776.22943                  24751114.867
                  24751131.617                          41.000          20.600

 116023263.037 7  90407929.511 7                  22078482.523
  22078492.777    22078492.996                          45.800          44.500

 117328839.837 7  91425060.995 7  87615711.955 8  22326876.453
  22326888.418    22326888.637    22326888.379          47.300          46.400
        49.700
 113799537.513 8  88675126.70145                  21655314.375
                  21655325.629                          48.200          35.400

 120308784.034 7  93747225.32244                  22893989.516
                  22894002.363                          45.300          29.300

 14  3  4  0  7  0.0000000  0 11G20G16G23G30G13G19G08G07G27G03G10
 130043843.042 6 101332961.99843                  24746525.336
                  24746544.004                          38.400          20.100

 112370438.427 8  87561556.96546                  21383344.859
                  21383354.039                          49.600          37.700

 107205537.027 8  83536933.29846                  20400508.203
                  20400515.500                          50.400          41.200

 116983605.401 7  91156169.418 7  87357993.769 8  22261209.188
  22261221.063    22261220.844    22261221.945          47.600          46.300
        51.300
 106217586.683 7  82767090.43346                  20212502.789
                  20212511.336                          47.000          41.900

 122948199.620 7  95803814.06344                  23396233.336
                  23396246.441                          44.300          27.700

 129991262.067 6 101291997.59743                  24736515.859
                  24736533.523                          41.700          21.800

 115961686.406 7  90359947.874 7                  22066764.977
  22066774.980    22066775.336                          45.000          44.100

 117287134.568 7  91392563.508 7  87584568.535 8  22318939.828
  22318952.270    22318952.371    22318951.938          45.300          47.600
        49.400
 113730390.396 7  88621245.96845                  21642155.742
                  21642167.316                          46.900          35.800

 120303412.609 7  93743039.84344                  22892967.219
                  22892980.176                          44.500          29.100

 14  3  4  0  7 30.0000000  0 11G20G16G23G30G13G19G08G07G27G03G10
 130146007.117 6 101412570.24843                  24765966.813
                  24765985.844                          39.400          22.200

 112442708.665 8  87617871.41746                  21397097.391
                  21397106.277                          48.600          37.000

 107244146.611 8  83567018.67646                  20407854.961
                  20407862.434                          51.100          41.000

 117044343.329 7  91203497.637 7  87403349.984 8  22272766.727
  22272779.578    22272779.238    22272779.691          46.600          47.000
        50.900
 106188687.969 7  82744572.01146                  20207002.938
                  20207011.871                          47.800          40.600

 122851569.861 7  95728518.40944                  23377845.031
                  23377857.262                          42.100          26.900

 129914576.634 6 101232243.02643                  24721923.523
                  24721941.758                          41.400          22.200

 115900243.283 7  90312070.253 7                  22055072.523
  22055082.938    22055083.332                          45.900          44.700

 117245939.074 7  91360463.243 7  87553805.812 8  22311100.758
  22311113.082    22311113.238    22311112.336          46.900          47.800
        49.400
 113661717.861 8  88567735.03545                  21629087.242
                  21629098.219                          48.600          34.600

 120298623.459 7  93739308.08944                  22892055.648
                  22892069.293                          43.100          29.600

 14  3  4  0  8  0.0000000  0 11G20G16G23G30G13G19G08G07G27G03G10
 130248091.772 6 101492116.59443                  24785393.516
                  24785410.992                          38.700          21.700

 112515355.410 8  87674479.26146                  21410921.453
                  21410930.340                          49.300          36.700

 107283263.926 8  83597499.70246                  20415298.492
                  20415305.820                          50.000          40.800

 117105220.543 7  91250934.410 7  87448810.221 8  22284351.672
  22284363.570    22284363.746    22284363.848          45.900          46.500
        51.400
 106160264.612 7  82722424.00146                  20201594.070
                  20201602.781                          47.500          40.100

 122755131.072 6  95653371.55744                  23359492.539
                  23359504.598                          40.500          26.700

 129837922.154 7 101172512.52043                  24707336.922
                  24707352.957                          42.000          22.200

 115838934.488 7  90264297.287 7                  22043405.664
  22043416.398    22043416.813                          46.300          44.700

 117205255.732 7  91328762.042 7  87523425.530 8  22303359.453
  22303371.676    22303371.973    22303371.309          46.800          47.300
        49.900
 113593522.659 7  88514596.05645                  21616110.609
                  21616121.109                          46.800          35.100

 120294416.507 7  93736029.99244                  22891254.844
                  22891268.188                          44.500          29.400

 14  3  4  0  8 30.0000000  0 11G20G16G23G30G13G19G08G07G27G03G10
 130350094.529 6 101571599.09743                  24804803.711
                  24804821.230                          37.000          21.100

 112588376.500 8  87731378.80746                  21424817.047
                  21424825.316                          48.000          36.700

 107322888.971 8  83628376.36246                  20422839.273
                  20422845.992                          49.500          40.900

 117166236.930 7  91298479.639 7  87494374.390 8  22295962.859
  22295975.090    22295974.797    22295974.957          46.400          46.500
        51.400
 106132319.319 7  82700648.50046                  20196276.750
                  20196285.168                          47.800          41.300

 122658886.997 6  95578376.45444                  23341178.063
                  23341188.977                          40.000          27.500

 129761298.946 6 101112806.43743                  24692754.938
                  24692773.816                          40.900          23.500

 115777760.358 7  90216629.265 7                  22031764.086
  22031774.844    22031775.602                          46.200          45.100

 117165086.763 7  91297461.653 7  87493429.342 8  22295715.367
  22295726.988    22295727.141    22295726.707          47.900          46.600
        50.200
 113525808.162 7  88461831.66045                  21603224.617
                  21603235.551                          47.000          34.800

 120290791.688 7  93733205.50444                  22890564.688
                  22890577.840                          43.900          29.300

 14  3  4  0  9  0.0000000  0 11G20G16G23G30G13G19G08G07G27G03G10
 130452012.377 6 101651015.51343                  24824199.578
                  24824215.418                          38.100          20.900

 112661768.665 8  87788567.50246                  21438783.250
                  21438791.656                          48.900          36.500

 107363020.689 8  83659647.82746                  20430476.203
                  20430483.039                          50.600          40.800

 117227391.566 7  91346132.593 7  87540041.790 8  22307600.227
  22307612.492    22307612.406    22307612.273          47.300          47.500
        51.600
 106104852.788 8  82679246.06346                  20191049.430
                  20191058.500                          48.500          41.200

 122562840.706 7  95503535.46544                  23322901.023
                  23322911.266                          42.000          26.400

 129684706.496 6 101053124.31443                  24678180.359
                  24678196.988                          41.700          20.600

 115716720.611 7  90169065.942 7                  22020148.859
  22020159.828    22020160.230                          46.700          46.000

 117125433.565 7  91266563.179 7  87463818.327 8  22288169.445
  22288181.660    22288182.023    22288181.297          47.300          47.100
        50.700
 113458576.828 8  88409443.74745                  21590430.875
                  21590442.172                          48.000          34.200

 120287748.085 7  93730833.91144                  22889986.180
                  22889998.828                          45.100          29.400

 14  3  4  0  9 30.0000000  0 11G20G16G23G30G13G19G08G07G27G03G10
 130553843.245 5 101730364.03643                  24843573.945
                  24843593.902                          33.100          18.300

 112735529.619 8  87846043.55446                  21452818.883
                  21452827.570                          49.000          36.500

 107403659.141 8  83691314.15546                  20438209.625
                  20438216.527                          51.300          41.300

 117288684.271 7  91393893.123 7  87585812.298 8  22319263.766
  22319276.363    22319276.371    22319276.004          45.400          47.500
        51.300
 106077867.050 8  82658218.27046                  20185914.508
                  20185923.402                          48.400          41.900

 122466995.686 7  95428851.29844                  23304661.922
                  23304672.074                          42.600          28.300

 129608144.472 6 100993465.83843                  24663610.711
                  24663627.977                          40.500          20.600

 115655815.930 7  90121607.885 7                  22008558.914
  22008569.781    22008570.391                          47.300          45.800

 117086298.428 7  91236068.364 7  87434594.153 8  22280722.227
  22280734.539    22280734.422    22280734.574          46.800          47.300
        50.800
 113391831.672 7  88357434.67145                  21577729.414
                  21577740.664                          47.300          34.300

 120285285.728 7  93728915.23045                  22889517.383
                  22889530.566                          43.400          30.300

 14  3  4  0 10  0.0000000  0 11G20G16G23G30G13G19G08G07G27G03G10
 130655584.354 6 101809642.74443                  24862936.922
                  24862955.051                          37.600          20.100

 112809656.634 7  87903804.84646                  21466925.297
                  21466933.875                          47.600          36.500

 107444804.093 8  83723375.16346                  20446038.977
                  20446046.547                          50.800          41.200

 117350114.841 7  91441761.078 7  87631685.756 8  22330953.477
  22330965.797    22330965.684    22330965.961          46.100          46.000
        50.500
 106051364.181 8  82637566.74746                  20180871.297
                  20180879.547                          48.400          41.400

 122371355.503 7  95354326.75044                  23286462.477
                  23286472.191                          43.200          29.100

 129531613.507 6 100933831.60143                  24649045.461
                  24649063.750                          39.000          19.900

 115595046.708 8  90074255.385 7                  21996995.109
  21997005.188    21997005.570                          48.400          45.500

 117047683.483 7  91205978.889 7  87405758.430 8  22273373.578
  22273385.934    22273386.160    22273386.371          47.000          47.300
        50.900
 113325575.503 7  88305806.62845                  21565120.992
                  21565132.148                          47.900          34.800

 120283404.233 7  93727449.18045                  22889160.086
                  22889173.445                          42.700          30.400

 14  3  4  0 10 30.0000000  0 11G20G16G23G30G13G19G08G07G27G03G10
 130757233.353 6 101888849.58143                  24882280.031
                  24882299.168                          36.400          19.900

 112884146.701 8  87961849.03946                  21481099.945
                  21481109.184                          48.600          37.100

 107486454.860 8  83755830.30446                  20453964.852
                  20453972.324                          51.100          40.900

 117411682.564 7  91489735.926 7  87677661.636 8  22342669.281
  22342681.711    22342681.250    22342681.703          45.500          45.700
        50.800
 106025345.593 8  82617292.56246                  20175920.375
                  20175928.289                          48.300          40.900

 122275923.275 7  95279964.24244                  23268302.367
                  23268312.164                          43.300          29.700

 129455113.396 6 100874221.37743                  24634488.063
                  24634504.730                          37.500          18.600

 115534412.995 7  90027008.475 7                  21985456.492
  21985466.797    21985467.102                          47.600          45.700

 117009590.394 7  91176296.046 7  87377312.397 8  22266124.828
  22266137.223    22266137.625    22266137.543          46.800          47.700
        50.700
 113259811.389 7  88254562.00545                  21552606.570
                  21552618.082                          46.200          34.900

 120282103.003 7  93726435.29645                  22888912.141
                  22888925.082                          44.500          30.600

 14  3  4  0 11  0.0000000  0 11G20G16G23G30G13G19G08G07G27G03G10
 130858787.852 6 101967982.86743                  24901605.438
                  24901624.902                          37.100          20.600

 112958997.767 7  88020174.52046                  21495343.734
                  21495353.285                          46.100          37.700

 107528611.659 8  83788679.75046                  20461986.648
                  20461993.625                          49.200          40.400

 117473387.424 7  91537817.619 7  87723739.928 8  22354411.891
  22354424.078    22354423.070    22354423.465          45.700          45.800
        51.200
 105999813.281 8  82597397.30746                  20171061.563
                  20171069.559                          49.800          41.500

 122180702.737 7  95205766.65945                  23250181.563
                  23250192.840                          42.800          31.000

 129378644.190 6 100814635.25043                  24619937.164
                  24619952.906                          40.300          21.300

 115473915.568 8  89979867.760 7                  21973944.469
  21973954.684    21973955.172                          48.400          45.300

 116972021.338 7  91147021.549 7  87349257.702 8  22258975.641
  22258987.270    22258987.773    22258987.285          46.300          47.600
        50.500
 113194541.912 7  88203702.81745                  21540186.078
                  21540197.586                          46.100          34.800

 120281382.132 7  93725873.62045                  22888774.352
                  22888787.902                          45.000          30.000

 14  3  4  0 11 30.0000000  0 11G20G16G23G30G13G19G08G07G27G03G10
 130960244.846 6 102047040.17443                  24920912.930
                  24920931.016                          37.300          20.900

 113034206.849 7  88078778.97446                  21509655.477
                  21509665.125                          47.800          36.900

 107571273.570 8  83821922.79446                  20470104.914
                  20470111.891                          49.800          40.800

 117535228.604 7  91586005.535 7  87769920.018 8  22366179.516
  22366191.840    22366191.867    22366191.621          45.900          45.600
        50.800
 105974768.454 8  82577881.91246                  20166295.883
                  20166303.859                          50.100          41.600

 122085697.032 7  95131736.49545                  23232102.516
                  23232114.656                          43.800          30.900

 129302205.646 6 100755073.01143                  24605390.633
                  24605407.598                          38.000          18.600

 115413554.395 8  89932833.203 7                  21962457.695
  21962468.148    21962468.328                          48.100          46.100

 116934977.901 7  91118156.646 7  87321595.506 8  22251926.578
  22251938.238    22251938.207    22251938.188          47.000          46.700
        50.300
 113129769.565 8  88153231.00345                  21527860.609
                  21527870.980                          48.500          35.000

 120281240.392 7  93725763.22945                  22888747.578
                  22888760.141                          45.000          30.200

 14  3  4  0 12  0.0000000  0 11G20G16G23G30G13G19G08G07G27G03G10
 131061602.504 6 102126020.00543                  24940199.391
                  24940219.020                          40.500          19.300

 113109771.215 8  88137660.27546                  21524035.195
                  21524044.473                          48.300          37.100

 107614440.385 8  83855559.26746                  20478319.406
                  20478326.617                          49.800          40.200

 117597206.041 7  91634299.630 7  87816201.859 8  22377973.367
  22377985.168    22377985.563    22377985.781          45.600          46.900
        51.500
 105950212.944 8  82558747.80046                  20161623.047
                  20161631.031                          49.600          41.400

 121990909.769 7  95057876.53845                  23214065.242
                  23214078.066                          43.700          32.000

 129225798.055 6 100695534.88943                  24590850.711
                  24590867.613                          39.800          20.900

 115353329.882 7  89885905.154 7                  21950997.391
  21951007.535    21951007.965                          47.000          45.000

 116898462.194 7  91089702.940 7  87294327.396 8  22244977.594
  22244989.863    22244989.875    22244989.797          46.900          47.500
        50.300
 113065497.210 7  88103148.78145                  21515629.391
                  21515640.027                          46.700          34.900

 120281677.482 7  93726103.86344                  22888830.609
                  22888842.898                          44.700          29.500

 14  3  4  0 12 30.0000000  0 11G20G16G23G30G13G19G08G07G27G03G10
 131162858.103 6 102204920.33343                  24959468.281
                  24959487.051                          40.300          20.100

 113185687.932 8  88196816.14246                  21538481.445
                  21538490.758                          48.000          36.500

 107658111.307 8  83889588.56046                  20486629.641
                  20486636.949                          50.800          40.500

 117659319.062 7  91682699.377 7  87862584.950 8  22389793.453
  22389805.102    22389805.402    22389805.797          46.000          46.200
        51.400
 105926147.997 8  82539995.94446                  20157043.297
                  20157051.512                          49.300          41.600

 121896344.118 7  94984189.25445                  23196069.891
                  23196082.617                          44.500          32.300

 129149421.124 6 100636020.69143                  24576315.852
                  24576332.922                          41.100          21.300

 115293242.072 7  89839083.635 7                  21939563.023
  21939573.063    21939573.652                          45.800          45.700

 116862475.817 7  91061661.688 7  87267454.557 8  22238129.633
  22238141.770    22238141.516    22238141.438          47.500          47.500
        50.500
 113001727.804 7  88053458.48545                  21503494.852
                  21503505.051                          44.600          34.100

 120282692.886 7  93726895.14845                  22889024.031
                  22889036.840                          44.700          30.000

 14  3  4  0 13  0.0000000  0 11G20G16G23G30G13G19G08G07G27G03G10
 131264008.799 6 102283738.97143                  24978716.797
                  24978735.309                          41.200          20.400

 113261954.284 7  88256244.43946                  21552994.453
                  21553003.570                          47.100          36.900

 107702285.912 8  83924010.32146                  20495035.617
                  20495043.086                          50.100          40.400

 117721567.144 7  91731204.375 7  87909068.893 8  22401638.492
  22401650.438    22401650.875    22401651.152          46.100          46.000
        51.600
 105902575.185 8  82521627.56446                  20152557.117
                  20152565.500                          49.800          41.500

 121802003.381 7  94910677.21045                  23178116.984
                  23178129.164                          44.400          31.400

 129073074.651 7 100576530.22344                  24561789.547
                  24561806.285                          42.800          24.200

 115233291.197 8  89792368.810 7                  21928154.297
  21928164.574    21928165.066                          48.100          45.500

 116827020.468 7  91034034.235 7  87240978.261 8  22231382.359
  22231394.688    22231394.855    22231394.246          46.700          47.800
        49.600
 112938463.934 7  88004162.11045                  21491455.805
                  21491466.340                          46.900          34.500

 120284286.074 7  93728136.64545                  22889327.156
                  22889340.738                          43.200          30.100

 14  3  4  0 13 30.0000000  0 11G20G16G23G30G13G19G08G07G27G03G10
 131365052.241 6 102362473.99843                  24997945.000
                  24997963.555                          40.000          18.600

 113338568.173 7  88315943.54446                  21567573.852
                  21567582.715                          47.700          37.000

 107746964.138 8  83958824.51746                  20503537.766
                  20503545.188                          50.000          40.400

 117783950.191 7  91779814.529 7  87955653.621 8  22413509.883
  22413521.957    22413522.398    22413522.324          46.700          46.300
        51.200
 105879496.576 8  82503644.29046                  20148165.984
                  20148173.859                          49.500          40.900

 121707891.321 7  94837343.33345                  23160208.141
                  23160219.418                          44.100          31.200

 128996758.529 7 100517063.37344                  24547267.445
                  24547282.879                          43.700          24.900

 115173478.320 7  89745761.505 7                  21916772.297
  21916782.773    21916782.898                          47.800          45.500

 116792098.225 7  91006822.203 7  87214900.068 8  22224737.336
  22224748.699    22224749.004    22224748.863          47.400          47.600
        49.800
 112875708.439 7  87955261.86045                  21479513.438
                  21479525.105                          46.000          34.600

 120286456.722 7  93729828.11744                  22889740.242
                  22889753.816                          42.300          29.400

 14  3  4  0 14  0.0000000  0 11G20G16G23G30G13G19G08G07G27G03G10
 131465986.233 6 102441123.79742                  25017152.766
                  25017170.008                          36.000          17.800

 113415526.444 8  88375911.00946                  21582218.938
                  21582227.211                          49.300          37.200

 107792145.074 8  83994030.44946                  20512135.813
                  20512142.609                          50.800          40.500

 117846467.727 7  91828529.494 7  88002338.787 8  22425406.539
  22425419.023    22425418.613    22425418.484          45.800          45.900
        51.200
 105856913.565 8  82486047.18746                  20143868.539
                  20143876.668                          50.800          41.900

 121614011.200 7  94764190.21144                  23142342.938
                  23142353.516                          43.600          29.400

 128920473.003 7 100457620.41144                  24532749.422
                  24532766.531                          42.700          24.300

 115113803.190 7  89699261.549 7                  21905416.641
  21905426.371    21905427.004                          47.700          45.700

 116757710.716 7  90980026.834 7  87189221.189 8  22218193.422
  22218204.711    22218204.930    22218204.555          47.800          46.700
        50.200
 112813464.018 7  87906759.84445                  21467668.953
                  21467679.340                          47.500          34.500

 120289204.060 7  93731968.96645                  22890262.211
                  22890275.984                          44.400          30.300

 14  3  4  0 14 30.0000000  0 11G20G16G23G30G13G19G08G07G27G03G10
 131566808.269 5 102519686.34742                  25036338.820
                  25036356.168                          35.500          17.800

 113492826.415 8  88436144.73146                  21596928.344
                  21596937.488                          49.600          37.700

 107837828.463 8  84029627.89546                  20520829.094
                  20520836.063                          51.000          40.800

 117909119.455 7  91877349.026 7  88049124.157 8  22437328.477
  22437340.969    22437341.051    22437340.684          45.900          46.600
        51.100
 105834828.016 8  82468837.73046                  20139665.648
                  20139673.680                          50.100          41.700

 121520366.532 7  94691220.54544                  23124522.844
                  23124532.410                          43.500          29.100

 128844218.195 7 100398201.36044                  24518238.117
                  24518255.094                          42.500          24.700

 115054266.171 7  89652869.213 7                  21894087.016
  21894096.688    21894096.926                          47.500          45.100

 116723859.876 7  90953649.652 7  87163943.084 8  22211751.969
  22211763.313    22211763.723    22211762.996          46.800          47.400
        50.000
 112751733.657 7  87858658.39545                  21455922.211
                  21455932.281                          46.300          35.000

 120292527.785 7  93734558.94344                  22890894.172
                  22890907.914                          44.300          29.300

 14  3  4  0 15  0.0000000  0 11G20G16G23G30G13G19G08G07G27G03G10
 131667515.979 6 102598159.82342                  25055501.867
                  25055519.957                          37.100          17.400

 113570465.687 7  88496642.84646                  21611702.563
                  21611711.512                          47.500          36.900

 107884013.862 8  84065616.50246                  20529617.906
                  20529624.535                          50.000          41.100

 117971905.111 7  91926272.903 7  88096009.546 8  22449276.055
  22449288.680    22449288.527    22449288.512          45.400          45.500
        51.000
 105813241.362 8  82452017.00646                  20135557.570
                  20135565.863                          49.300          41.000

 121426960.588 7  94618436.89944                  23106748.828
                  23106757.383                          43.300          28.600

 128767994.228 6 100338806.33644                  24503732.383
                  24503748.945                          40.300          24.400

 114994867.807 7  89606584.911 7                  21882783.680
  21882793.121    21882794.082                          46.500          44.600

 116690547.418 7  90927692.000 7  87139067.021 8  22205412.164
  22205423.816    22205424.023    22205423.238          45.900          47.500
        49.700
 112690519.835 7  87810959.44445                  21444272.484
                  21444283.285                          45.500          34.900

 120296427.090 7  93737597.40544                  22891637.211
                  22891649.434                          45.200          28.500

 14  3  4  0 15 30.0000000  0 11G20G16G23G30G13G19G08G07G27G03G10
 131768106.850 6 102676542.22442                  25074643.547
                  25074663.102                          39.000          16.900

 113648441.562 8  88557403.24446                  21626541.133
                  21626549.938                          49.100          36.900

 107930700.794 8  84101995.91946                  20538501.438
                  20538508.512                          50.300          41.000

 118034824.282 7  91975300.820 7  88142994.619 8  22461249.516
  22461261.730    22461261.914    22461261.605          45.800          46.700
        50.300
 105792155.103 8  82435586.21346                  20131544.945
                  20131552.891                          50.300          41.700

 121333796.865 7  94545842.03044                  23089019.125
                  23089028.516                          42.800          27.300

 128691800.852 6 100279435.23243                  24489232.867
                  24489249.094                          40.800          23.400

 114935608.599 7  89560409.055 7                  21871507.117
  21871516.695    21871517.117                          47.300          45.300

 116657775.081 7  90902155.224 8  87114594.296 8  22199175.539
  22199187.543    22199187.789    22199187.297          45.700          48.000
        50.300
 112629825.140 7  87763665.00345                  21432722.930
                  21432733.402                          47.200          34.700

 120300901.164 7  93741083.75245                  22892488.789
                  22892501.039                          44.600          30.200

 14  3  4  0 16  0.0000000  0 11G09G16G23G30G13G19G08G07G27G03G10
 130424117.67116 101629299.36353                  24818892.719
                  24818913.359                          36.500          19.300

 113726751.575 8  88618424.01146                  21641442.992
                  21641451.578                          49.100          36.100

 107977888.642 8  84138765.66946                  20547481.602
                  20547488.430                          51.100          40.700

 118097876.703 7  92024432.566 7  88190079.212 8  22473248.055
  22473260.430    22473260.809    22473259.914          45.800          46.400
        49.900
 105771570.921 8  82419546.64246                  20127628.289
                  20127635.965                          49.700          41.400

 121240878.967 7  94473438.70644                  23071337.547
                  23071347.730                          42.900          28.300

 128615638.168 6 100220088.00043                  24474739.914
                  24474755.289                          40.700          22.800

 114876489.103 7  89514342.058 7                  21860256.781
  21860266.691    21860267.023                          47.200          45.200

 116625544.585 7  90877040.664 7  87090526.203 8  22193042.141
  22193054.621    22193055.406    22193054.445          47.000          47.300
        50.300
 112569652.580 7  87716777.41945                  21421272.578
                  21421283.238                          47.900          34.800

 120305949.623 7  93745017.68145                  22893449.922
                  22893462.309                          45.200          30.500

 14  3  4  0 16 30.0000000  0 11G09G16G23G30G13G19G08G07G27G03G10
 130330035.794 5 101555989.14742                  24800989.195
                  24801010.641                          34.200          16.300

 113805393.064 8  88679703.07746                  21656407.789
                  21656416.207                          48.200          36.400

 108025577.038 8  84175925.44446                  20556556.531
                  20556563.496                          51.000          40.900

 118161062.288 7  92073668.092 7  88237263.248 8  22485271.734
  22485283.902    22485284.285    22485283.039          45.000          47.000
        49.500
 105751490.808 8  82403899.85446                  20123806.836
                  20123814.832                          49.800          41.500

 121148210.544 7  94401229.78744                  23053703.273
                  23053714.359                          42.200          29.700

 128539506.232 6 100160764.76943                  24460252.398
                  24460267.023                          40.800          23.300

 114817509.460 7  89468384.039 7                  21849032.758
  21849042.879    21849043.391                          46.400          45.600

 116593857.948 7  90852349.885 7  87066864.236 8  22187012.836
  22187024.172    22187024.320    22187024.238          45.700          46.900
        50.600
 112510004.729 7  87670298.69645                  21409921.711
                  21409932.707                          47.000          35.700

 120311572.028 7  93749398.81545                  22894519.414
                  22894532.895                          45.800          30.900

 14  3  4  0 17  0.0000000  0 11G09G16G23G30G13G19G08G07G27G03G10
 130235960.163 6 101482683.77743                  24783087.820
                  24783107.609                          38.900          18.300

 113884363.175 8  88741238.21745                  21671435.648
                  21671443.977                          48.700          35.700

 108073765.302 8  84213474.73346                  20565726.664
                  20565733.809                          52.000          40.800

 118224380.285 7  92123006.781 7  88284546.157 8  22497321.164
  22497333.785    22497333.563    22497332.844          45.600          47.000
        49.900
 105731915.501 8  82388646.42346                  20120081.641
                  20120090.156                          49.200          41.300

 121055794.976 7  94329217.88645                  23036116.875
                  23036128.801                          42.100          30.200

 128463404.719 6 100101465.17643                  24445769.750
                  24445785.469                          39.100          22.600

 114758669.997 7  89422535.242 7                  21837835.688
  21837846.156    21837846.566                          45.600          45.400

 116562716.364 7  90828083.836 7  87043609.284 8  22181086.492
  22181097.977    22181097.582    22181098.496          46.500          46.000
        50.600
 112450883.862 8  87624230.60245                  21398671.648
                  21398681.734                          48.000          35.900

 120317767.160 7  93754226.24944                  22895697.586
                  22895711.422                          45.200          29.000

 14  3  4  0 17 30.0000000  0 11G09G16G23G30G13G19G08G07G27G03G10
 130141890.533 6 101409383.03843                  24765186.391
                  24765206.617                          38.100          19.000

 113963658.707 8  88803026.92545                  21686524.438
                  21686533.484                          48.500          35.500

 108122451.900 8  84251412.33746                  20574991.031
                  20574997.938                          51.000          40.600

 118287829.947 7  92172448.057 7  88331927.394 8  22509394.883
  22509407.133    22509407.289    22509407.512          46.200          46.700
        49.900
 105712846.084 8  82373787.18646                  20116452.844
                  20116461.383                          48.700          41.800

 120963635.019 7  94257405.18245                  23018579.906
                  23018591.438                          42.600          31.200

 128387333.341 6 100042189.03243                  24431293.703
                  24431309.789                          39.500          22.300

 114699970.381 7  89376795.437 7                  21826665.594
  21826675.605    21826676.176                          46.700          45.200

 116532121.104 7  90804243.493 7  87020762.318 8  22175264.180
  22175275.879    22175275.742    22175276.598          46.200          46.600
        51.500
 112392292.293 8  87578574.95545                  21387522.133
                  21387532.738                          48.000          35.800

 120324534.204 7  93759499.31344                  22896985.563
                  22896998.586                          46.000          29.400

 14  3  4  0 18  0.0000000  0 11G09G16G23G30G13G19G08G07G27G03G10
 130047828.056 6 101336087.99542                  24747286.211
                  24747305.875                          38.700          17.800

 114043277.679 8  88865067.67845                  21701675.758
                  21701684.242                          48.100          35.900

 108171637.032 8  84289738.41546                  20584350.750
                  20584357.656                          51.100          41.400

 118351411.628 7  92221992.212 7  88379407.219 8  22521494.734
  22521506.258    22521506.535    22521506.813          47.200          46.900
        50.500
 105694285.074 8  82359324.11446                  20112920.844
                  20112929.023                          50.100          40.800

 120871734.230 7  94185794.43845                  23001090.852
                  23001103.535                          43.400          31.600

 128311292.894 6  99982937.04043                  24416824.945
                  24416841.195                          39.900          22.300

 114641411.978 7  89331165.659 7                  21815522.539
  21815532.371    21815532.938                          47.900          45.400

 116502074.417 7  90780830.582 7  86998324.989 8  22169546.359
  22169558.113    22169558.703    22169558.328          46.000          47.500
        51.500
 112334233.110 7  87533334.15545                  21376473.297
                  21376483.559                          47.300          35.600

 120331872.562 7  93765217.56144                  22898381.875
                  22898394.875                          44.900          28.500

 14  3  4  0 18 30.0000000  0 11G09G16G23G30G13G19G08G07G27G03G10
 129953772.964 6 101262798.55942                  24729388.383
                  24729406.355                          37.700          16.300

 114123217.429 8  88927358.38245                  21716887.977
                  21716896.961                          49.300          35.600

 108221320.321 8  84328452.66746                  20593805.266
                  20593811.984                          51.700          40.500

 118415124.976 7  92271638.960 7  88426985.367 8  22533618.508
  22533630.430    22533630.594    22533630.227          46.200          46.200
        50.200
 105676233.882 8  82345258.29846                  20109485.828
                  20109494.031                          50.200          41.100

 120780096.437 7  94114388.64645                  22983652.422
                  22983664.449                          44.600          31.800

 128235283.094 6  99923708.85643                  24402359.250
                  24402376.172                          39.700          21.800

 114582995.065 8  89285646.130 7                  21804406.430
  21804415.828    21804416.438                          48.000          45.400

 116472577.895 7  90757846.381 7  86976298.496 8  22163933.641
  22163944.922    22163945.527    22163944.508          46.000          47.300
        51.000
 112276708.975 7  87488510.26845                  21365526.977
                  21365537.184                          46.800          35.900

 120339781.487 7  93771380.40044                  22899886.820
                  22899900.117                          45.100          29.700

 14  3  4  0 19  0.0000000  0 11G09G16G23G30G13G19G08G07G27G03G10
 129859725.428 6 101189515.00943                  24711491.648
                  24711508.809                          40.000          20.100

 114203475.014 8  88989896.74545                  21732160.188
                  21732169.219                          49.100          35.800

 108271500.529 8  84367554.13246                  20603354.492
                  20603360.941                          51.400          41.100

 118478969.297 7  92321387.773 7  88474661.316 8  22545767.422
  22545780.035    22545780.145    22545779.309          45.500          46.800
        50.400
 105658693.639 8  82331590.62646                  20106147.750
                  20106156.133                          49.700          41.400

 120688724.721 7  94043190.19145                  22966264.750
                  22966275.715                          43.800          32.200

 128159303.706 6  99864504.43943                  24387900.680
                  24387917.461                          38.700          20.600

 114524719.460 7  89240236.701 7                  21793316.547
  21793325.551    21793326.668                          47.600          46.200

 116443632.696 7  90735291.794 7  86954683.712 8  22158425.766
  22158437.254    22158437.297    22158436.395          45.800          47.500
        51.100
 112219722.028 7  87444104.95245                  21354682.500
                  21354692.625                          47.200          35.900

 120348260.104 7  93777987.10344                  22901501.516
                  22901512.941                          46.500          29.300

 14  3  4  0 19 30.0000000  0 11G09G16G23G30G13G19G08G07G27G03G10
 129765685.971 6 101116237.79943                  24693596.047
                  24693614.035                          38.600          19.600

 114284047.576 8  89052680.53646                  21747492.852
                  21747501.613                          48.500          36.000

 108322177.288 8  84407042.50646                  20612997.602
                  20613005.051                          51.900          40.900

 118542944.559 7  92371238.627 7  88522435.043 8  22557941.563
  22557953.801    22557954.527    22557953.633          45.600          46.400
        50.100
 105641665.975 8  82318322.35746                  20102907.680
                  20102916.043                          49.300          41.400

 120597622.880 7  93972202.01745                  22948928.359
                  22948938.781                          42.900          31.500

 128083354.925 6  99805323.79743                  24373447.836
                  24373465.023                          40.800          22.500

 114466585.999 7  89194938.032 7                  21782254.141
  21782263.820    21782264.484                          45.800          45.100

 116415240.637 7  90713168.211 7  86933481.972 8  22153022.844
  22153034.352    22153034.566    22153033.902          45.700          47.300
        50.800
 112163275.106 7  87400120.45146                  21343941.313
                  21343951.523                          46.000          37.300

 120357307.656 7  93785037.20344                  22903221.859
                  22903234.023                          45.800          29.600

 14  3  4  0 20  0.0000000  0 11G09G16G23G30G13G19G08G07G27G03G10
 129671654.614 6 101042966.90343                  24675703.148
                  24675721.074                          40.700          19.600

 114364932.523 8  89115707.73445                  21762884.836
                  21762893.371                          49.100          35.100

 108373349.568 8  84446917.00446                  20622735.258
                  20622742.664                          51.200          40.700

 118607050.209 7  92421191.091 7  88570306.148 8  22570140.406
  22570153.219    22570153.730    22570152.602          45.700          46.200
        50.300
 105625152.189 8  82305454.52846                  20099764.836
                  20099773.484                          50.100          41.100

 120506793.911 7  93901426.45945                  22931644.734
                  22931654.113                          44.200          33.300

 128007436.694 6  99746166.99043                  24359001.148
                  24359016.766                          40.900          21.800

 114408594.928 7  89149750.324 7                  21771218.617
  21771228.199    21771228.617                          47.000          45.300

 116387403.077 7  90691476.716 8  86912694.305 8  22147725.211
  22147736.711    22147737.152    22147736.898          46.700          48.200
        50.900
 112107370.449 8  87356558.49445                  21333302.273
                  21333313.246                          48.100          35.900

 120366923.012 7  93792529.70944                  22905052.078
                  22905064.793                          46.100          29.600

 14  3  4  0 20 30.0000000  0 11G09G16G23G30G13G19G08G07G27G03G10
 129577631.811 6 100969702.48843                  24657810.211
                  24657828.031                          39.500          19.900

 114446126.713 8  89178975.92145                  21778335.617
                  21778343.516                          48.600          35.000

 108425016.376 8  84487176.85746                  20632567.555
                  20632574.684                          51.000          40.300

 118671285.421 7  92471244.512 7  88618274.019 8  22582363.883
  22582376.684    22582377.234    22582376.398          45.800          46.100
        50.200
 105609152.971 8  82292987.64646                  20096720.719
                  20096728.902                          49.400          41.600

 120416240.861 7  93830865.89245                  22914411.859
                  22914422.453                          43.700          32.900

 127931548.779 7  99687033.84143                  24344559.992
                  24344575.219                          43.200          22.200

 114350746.390 7  89104673.669 7                  21760209.922
  21760219.918    21760220.313                          47.300          45.500

 116360121.006 7  90670218.054 7  86892321.445 8  22142533.180
  22142544.711    22142544.984    22142544.902          46.300          47.600
        51.000
 112052010.303 7  87313420.82145                  21322767.906
                  21322778.973                          47.300          35.600

 120377104.759 7  93800463.60044                  22906989.203
                  22907002.531                          45.000          29.900

 14  3  4  0 21  0.0000000  0 11G09G16G23G30G13G19G08G07G27G03G10
 129483618.195 6 100896445.40943                  24639920.391
                  24639938.289                          36.400          19.600

 114527628.427 7  89242483.73045                  21793844.984
                  21793853.316                          47.600          35.000

 108477177.653 8  84527822.00346                  20642493.195
                  20642500.238                          50.300          39.900

 118735650.719 7  92521399.297 7  88666339.018 8  22594612.469
  22594625.285    22594625.148    22594625.367          45.200          46.600
        51.000
 105593670.921 8  82280923.74846                  20093774.313
                  20093781.875                          49.000          41.400

 120325967.761 7  93760523.47445                  22897233.766
                  22897244.801                          44.200          32.500

 127855691.769 7  99627924.68143                  24330124.570
                  24330140.754                          43.700          22.600

 114293041.123 7  89059708.650 7                  21749229.172
  21749238.707    21749238.895                          47.300          45.300

 116333396.745 7  90649394.051 7  86872365.131 8  22137447.609
  22137459.559    22137459.488    22137459.465          45.500          47.100
        50.600
 111997197.814 7  87270709.87645                  21312337.250
                  21312347.500                          47.300          35.800

 120387853.008 7  93808838.91044                  22909035.008
                  22909047.727                          44.700          28.800

 14  3  4  0 21 30.0000000  0 11G09G16G23G30G13G19G08G07G27G03G10
 129389613.892 6 100823195.53443                  24622031.688
                  24622049.930                          39.200          20.600

 114609434.062 7  89306228.36746                  21809412.063
                  21809420.426                          47.900          36.100

 108529831.624 8  84568851.07046                  20652512.672
                  20652520.227                          50.200          39.900

 118800145.018 7  92571654.608 7  88714500.350 8  22606885.156
  22606898.414    22606898.441    22606898.602          46.300          46.600
        50.800
 105578706.138 8  82269262.91746                  20090926.898
                  20090934.828                          49.800          41.600

 120235977.413 7  93690401.38145                  22880109.266
                  22880120.332                          43.200          32.700

 127779864.915 7  99568839.02043                  24315695.398
                  24315711.090                          43.400          22.500

 114235479.006 7  89014855.178 7                  21738275.844
  21738284.602    21738284.910                          47.800          45.700

 116307230.857 7  90629005.162 7  86852825.788 8  22132468.266
  22132479.969    22132480.227    22132479.793          46.900          47.200
        50.700
 111942934.585 8  87228426.92845                  21302011.625
                  21302021.254                          48.500          35.400

 120399165.916 7  93817654.17844                  22911187.258
                  22911200.152                          43.400          29.500

 14  3  4  0 22  0.0000000  0 11G09G16G23G30G13G19G08G07G27G03G10
 129295619.756 6 100749953.50042                  24604145.094
                  24604161.648                          37.700          17.800

 114691541.660 8  89370208.29845                  21825036.133
                  21825045.352                          49.000          35.100

 108582978.204 8  84610263.99646                  20662626.383
                  20662633.211                          49.900          39.900

 118864768.526 7  92622010.576 7  88762758.165 8  22619182.828
  22619195.344    22619195.730    22619195.539          45.400          47.200
        50.400
 105564260.646 8  82258006.71846                  20088177.578
                  20088185.633                          49.500          41.600

 120146273.619 7  93620502.55645                  22863038.859
                  22863049.602                          44.500          32.400

 127704068.652 7  99509777.20643                  24301272.023
                  24301286.742                          43.600          22.000

 114178060.968 7  88970113.972 7                  21727349.180
  21727358.375    21727358.883                          46.600          46.300

 116281625.321 7  90609052.899 7  86833704.891 8  22127596.359
  22127607.531    22127607.910    22127607.008          45.600          47.500
        50.900
 111889223.638 7  87186574.32646                  21291790.578
                  21291800.480                          46.000          36.500

 120411042.910 7  93826908.99444                  22913448.383
                  22913459.234                          46.100          29.100

 14  3  4  0 22 30.0000000  0 11G09G16G23G30G13G19G08G07G27G03G10
 129201636.240 5 100676719.78243                  24586259.555
                  24586277.293                          34.700          18.600

 114773948.701 8  89434421.56445                  21840718.336
                  21840727.082                          48.300          35.900

 108636617.069 8  84652060.50946                  20672833.820
                  20672840.383                          50.700          40.200

 118929521.087 7  92672467.116 7  88811112.353 8  22631504.773
  22631517.250    22631517.574    22631517.383          46.200          46.300
        50.000
 105550336.206 8  82247156.55146                  20085527.789
                  20085536.156                          49.000          41.200

 120056859.863 7  93550829.72645                  22846023.375
                  22846034.785                          43.100          31.300

 127628303.320 7  99450739.52844                  24286853.820
                  24286870.246                          43.600          24.700

 114120787.512 7  88925485.434 7                  21716449.906
  21716459.766    21716460.066                          45.500          46.300

 116256581.718 7  90589538.502 7  86815003.606 8  22122829.969
  22122841.773    22122842.172    22122841.211          45.000          47.800
        50.700
 111836067.457 7  87145154.02446                  21281675.227
                  21281685.738                          47.000          36.300

 120423483.255 7  93836602.80844                  22915815.430
                  22915826.816                          44.100          28.300

 14  3  4  0 23  0.0000000  0 11G09G16G23G30G13G19G08G07G27G03G10
 129107663.764 6 100603494.72243                  24568378.859
                  24568395.484                          37.000          19.900

 114856652.614 8  89498866.14646                  21856455.945
                  21856465.508                          48.700          36.100

 108690747.066 7  84694239.71046                  20683134.313
                  20683140.496                          46.300          39.600

 118994402.231 7  92723023.849 7  88859562.552 8  22643851.398
  22643863.707    22643863.840    22643863.887          47.000          46.200
        50.600
 105536933.774 8  82236713.12846                  20082977.680
                  20082985.590                          48.900          41.300

 119967739.422 7  93481385.43345                  22829064.750
                  22829074.922                          42.300          31.700

 127552568.243 7  99391725.41243                  24272442.117
                  24272457.680                          43.000          22.000

 114063658.900 7  88880969.763 7                  21705578.703
  21705588.395    21705589.320                          46.000          46.600

 116232101.291 7  90570462.937 7  86796722.878 8  22118171.188
  22118183.332    22118183.328    22118183.363          45.000          46.900
        51.000
 111783468.346 7  87104167.78846                  21271665.406
                  21271676.156                          47.200          36.500

 120436485.853 7  93846734.71644                  22918288.453
                  22918300.992                          43.200          28.500

 14  3  4  0 23 30.0000000  0 11G09G16G23G30G13G19G08G07G27G03G10
 129013702.959 5 100530278.72342                  24550496.156
                  24550513.801                          35.700          16.300

 114939650.539 7  89563539.83145                  21872250.328
                  21872259.262                          46.200          35.900

 108745367.301 8  84736800.93546                  20693527.742
                  20693534.629                          49.100          40.200

 119059411.976 7  92773680.783 7  88908108.789 8  22656222.086
  22656234.785    22656235.047    22656234.797          45.900          46.300
        49.900
 105524055.802 8  82226678.38046                  20080527.008
                  20080535.113                          49.300          41.400

 119878916.130 7  93412172.68045                  22812161.570
                  22812171.605                          42.900          31.200

 127476864.246 7  99332735.56444                  24258035.180
                  24258051.695                          42.800          26.800

 114006675.947 7  88836567.576 7                  21694735.016
  21694745.117    21694745.492                          46.000          46.300

 116208185.683 7  90551827.494 7  86778863.930 8  22113620.406
  22113631.367    22113631.793    22113631.945          46.800          47.200
        51.400
 111731428.894 7  87063617.65446                  21261762.594
                  21261772.621                          47.900          36.100

 120450049.842 7  93857304.05344                  22920869.961
                  22920882.738                          44.800          28.300

 14  3  4  0 24  0.0000000  0 11G09G16G23G30G13G19G08G07G27G03G10
 128919753.440 6 100457071.57343                  24532619.344
                  24532636.352                          38.600          21.800

 115022938.898 7  89628439.83045                  21888099.586
                  21888109.004                          47.900          35.700

 108800476.347 8  84779743.05646                  20704014.742
                  20704021.586                          48.900          39.800

 119124549.108 7  92824436.980 7  88956750.144 8  22668616.969
  22668629.531    22668629.980    22668629.496          44.600          47.100
        50.700
 105511701.219 8  82217051.47946                  20078175.586
                  20078183.512                          49.300          41.400

 119790392.375 7  93343193.33245                  22795316.023
                  22795325.773                          44.200          30.900

 127401190.498 7  99273769.26744                  24243635.180
                  24243650.566                          43.900          24.700

 113949838.334 7  88792278.646 7                  21683919.094
  21683928.754    21683929.270                          46.700          46.400

 116184835.310 7  90533632.484 7  86761427.068 8  22109177.328
  22109188.227    22109188.996    22109188.152          46.500          47.800
        51.200
 111679950.469 8  87023504.69946                  21251966.609
                  21251976.715                          48.600          36.100

 120464173.225 7  93868309.31045                  22923557.828
                  22923570.316                          44.900          30.800

 14  3  4  0 24 30.0000000  0 11G09G16G23G30G13G19G08G07G27G03G10
 128825816.219 6 100383873.92543                  24514743.602
                  24514761.941                          39.900          22.500

 115106515.714 8  89693564.60746                  21904003.656
                  21904012.910                          48.800          36.400

 108856073.840 8  84823065.77146                  20714594.539
                  20714601.863                          50.000          39.600

 119189813.983 7  92875292.727 7  89005486.897 8  22681036.305
  22681049.676    22681049.711    22681049.402          45.100          47.100
        50.800
 105499872.779 8  82207834.54846                  20075925.195
                  20075933.113                          50.200          41.700

 119702172.012 7  93274450.39945                  22778528.570
                  22778537.793                          43.600          31.200

 127325547.559 7  99214826.99944                  24229240.188
                  24229256.336                          42.600          25.800

 113893146.917 7  88748103.620 7                  21673131.094
  21673140.625    21673141.148                          47.600          46.800

 116162052.102 7  90515879.421 7  86744413.743 8  22104841.500
  22104852.668    22104852.891    22104851.875          46.600          47.100
        51.000
 111629036.008 7  86983831.19246                  21242277.742
                  21242287.691                          47.800          36.500

 120478855.706 7  93879750.23645                  22926352.539
                  22926364.938                          45.500          30.200

 14  3  4  0 25  0.0000000  0 11G09G16G23G30G13G19G08G07G27G03G10
 128731891.348 6 100310686.04843                  24496870.180
                  24496888.316                          39.900          19.300

 115190378.432 8  89758912.17546                  21919962.266
                  21919971.535                          48.600          36.500

 108912158.799 8  84866768.31046                  20725267.563
                  20725274.668                          50.300          40.500

 119255205.959 7  92926247.517 7  89054318.557 8  22693480.258
  22693493.098    22693493.176    22693493.688          44.900          46.500
        50.700
 105488571.364 8  82199028.28846                  20073774.711
                  20073782.266                          50.300          41.100

 119614258.430 7  93205946.50645                  22761798.680
                  22761808.781                          43.300          31.900

 127249935.196 7  99155908.57644                  24214851.828
                  24214867.355                          42.900          24.700

 113836601.777 7  88704042.588 7                  21662370.992
  21662380.691    21662380.805                          47.900          46.300

 116139837.011 7  90498569.053 7  86727824.663 8  22100613.875
  22100625.492    22100625.672    22100625.355          46.400          47.000
        50.800
 111578687.756 7  86944598.89246                  21232697.156
                  21232707.445                          47.000          36.100

 120494095.810 7  93891625.65745                  22929251.766
                  22929265.066                          44.800          30.200

 14  3  4  0 25 30.0000000  0 11G09G16G23G30G13G19G08G07G27G03G10
 128637979.686 6 100237508.29643                  24479000.578
                  24479019.117                          41.100          23.800

 115274524.523 8  89824480.54145                  21935974.781
                  21935983.523                          48.200          35.700

 108968730.185 8  84910849.89946                  20736032.383
                  20736039.672                          49.800          39.700

 119320724.896 7  92977301.222 7  89103245.028 8  22705948.469
  22705961.156    22705961.227    22705961.855          46.100          46.600
        51.400
 105477798.407 8  82190633.80946                  20071724.484
                  20071732.242                          49.700          41.400

 119526655.023 7  93137684.31345                  22745127.859
                  22745137.707                          43.500          32.000

 127174353.409 6  99097013.97144                  24200468.273
                  24200484.926                          40.500          25.100

 113780203.568 8  88660096.033 7                  21651638.820
  21651648.043    21651648.426                          48.000          46.300

 116118191.402 7  90481702.436 7  86711660.834 8  22096495.070
  22096505.984    22096506.246    22096505.992          46.900          47.200
        50.800
 111528907.829 7  86905809.44545                  21223224.117
                  21223234.484                          46.600          35.700

 120509892.404 7  93903934.75444                  22932257.242
                  22932271.090                          44.200          29.900

 14  3  4  0 26  0.0000000  0 11G09G16G23G30G13G19G08G07G27G03G10
 128544081.930 6 100164341.54443                  24461130.039
                  24461150.262                          40.100          21.800

 115358951.240 7  89890267.58545                  21952040.602
                  21952049.371                          47.600          35.600

 109025787.205 8  84955309.90646                  20746889.914
                  20746897.520                          49.400          40.300

 119386370.789 7  93028453.860 7  89152266.297 8  22718440.117
  22718452.688    22718452.598    22718453.168          46.000          45.600
        50.700
 105467555.320 8  82182652.23146                  20069775.250
                  20069783.313                          49.300          41.300

 119439365.225 7  93069666.47445                  22728517.648
                  22728526.621                          45.400          31.500

 127098802.520 6  99038143.37544                  24186090.492
                  24186107.711                          40.800          24.800

 113723953.060 8  88616264.570 7                  21640934.742
  21640943.879    21640944.090                          48.600          46.000

 116097116.837 7  90465280.775 7  86695923.449 8  22092484.672
  22092495.500    22092496.121    22092495.043          47.300          47.600
        50.700
 111479698.848 7  86867464.89845                  21213859.617
                  21213869.922                          47.800          35.900

 120526244.599 7  93916676.76044                  22935367.836
                  22935382.063                          42.900          28.500

 14  3  4  0 26 30.0000000  0 11G09G16G23G30G13G19G08G07G27G03G10
 128450198.344 6 100091185.81943                  24443265.156
                  24443283.008                          40.200          20.100

 115443656.316 8  89956271.53645                  21968159.523
                  21968168.395                          48.300          35.000

 109083329.278 8  85000147.86346                  20757839.844
                  20757846.969                          50.200          39.600

 119452143.414 7  93079705.246 7  89201382.223 8  22730956.398
  22730969.000    22730968.637    22730969.031          45.600          45.900
        50.600
 105457843.764 8  82175084.82146                  20067927.070
                  20067935.063                          49.700          41.700

 119352392.541 7  93001895.73945                  22711967.109
                  22711976.242                          43.000          31.600

 127023282.656 6  98979297.01244                  24171720.344
                  24171736.637                          40.900          25.200

 113667850.720 8  88572548.568 7                  21630258.523
  21630267.816    21630268.270                          48.400          46.400

 116076614.546 7  90449305.043 7  86680613.407 8  22088582.742
  22088593.957    22088594.512    22088593.555          46.200          46.900
        50.300
 111431063.276 7  86829567.16646                  21204604.422
                  21204615.340                          47.600          36.300

 120543151.411 7  93929850.91844                  22938585.922
                  22938598.762                          43.100          27.400

 14  3  4  0 27  0.0000000  0 11G09G16G23G30G13G19G08G07G27G03G10
 128356329.122 6 100018041.19943                  24425401.508
                  24425419.480                          37.400          20.900

 115528636.636 7  90022489.95545                  21984330.977
                  21984339.613                          47.200          34.900

 109141354.952 8  85045362.65446                  20768881.711
                  20768889.063                          50.300          39.600

 119518042.069 7  93131054.825 7  89250592.248 8  22743496.711
  22743509.109    22743509.023    22743509.301          45.800          45.800
        50.700
 105448664.022 8  82167931.81746                  20066179.945
                  20066187.832                          48.400          41.100

 119265739.953 7  92934374.42145                  22695477.352
                  22695486.125                          44.100          31.600

 126947793.446 6  98920474.50644                  24157354.828
                  24157370.672                          40.400          25.600

 113611896.622 8  88528948.084 7                  21619610.859
  21619620.020    21619620.570                          48.500          46.600

 116056685.269 7  90433775.817 7  86665731.244 8  22084790.164
  22084801.367    22084801.484    22084801.285          47.900          47.100
        50.700
 111383002.605 8  86792117.40046                  21195458.852
                  21195469.789                          49.100          36.900

 120560611.332 7  93943456.08244                  22941908.805
                  22941921.902                          44.100          29.200

 14  3  4  0 27 30.0000000  0 11G09G16G23G30G13G19G08G07G27G03G10
 128262474.380 6  99944908.05143                  24407541.086
                  24407558.980                          38.100          19.600

 115613889.681 7  90088920.88345                  22000553.836
                  22000562.832                          47.300          35.400

 109199863.367 8  85090953.61246                  20780015.906
                  20780022.617                          50.800          40.400

 119584066.629 7  93182502.535 7  89299896.291 8  22756060.281
  22756073.332    22756073.582    22756073.508          44.700          45.500
        50.900
 105440017.573 8  82161194.37346                  20064535.094
                  20064543.035                          48.500          41.600

 119179411.033 7  92867105.30445                  22679049.328
                  22679058.340                          44.500          33.000

 126872335.159 6  98861676.07043                  24142995.195
                  24143010.680                          41.300          23.500

 113556091.318 8  88485463.536 7                  21608991.406
  21609000.746    21609000.930                          48.000          46.400

 116037330.295 7  90418694.117 7  86651277.958 8  22081107.477
  22081118.496    22081118.645    22081118.270          47.500          47.800
        51.100
 111335519.329 8  86755117.55646                  21186423.758
                  21186433.035                          49.200          36.700

 120578623.032 7  93957491.18044                  22945337.016
                  22945348.770                          45.000          29.400

 14  3  4  0 28  0.0000000  0 11G09G16G23G30G13G19G08G07G27G03G10
 128168635.131 6  99871786.88743                  24389684.109
                  24389700.039                          39.000          18.300

 115699412.885 7  90155562.32845                  22016828.469
                  22016837.238                          46.100          34.700

 109258853.461 8  85136919.90646                  20791241.438
                  20791248.523                          50.400          40.700

 119650216.716 7  93234048.043 7  89349294.066 8  22768648.008
  22768661.168    22768661.918    22768662.078          45.600          46.400
        51.000
 105431905.360 8  82154873.19846                  20062991.078
                  20062998.602                          49.400          41.800

 119093408.945 7  92800090.87645                  22662683.813
                  22662692.391                          46.300          33.600

 126796907.359 7  98802901.43344                  24128642.617
                  24128656.871                          42.100          26.600

 113500435.352 8  88442095.347 7                  21598400.391
  21598409.258    21598409.832                          48.700          46.200

 116018550.650 7  90404060.719 8  86637254.305 8  22077533.727
  22077545.215    22077545.543    22077545.113          47.500          48.100
        51.500
 111288615.454 8  86718569.19346                  21177497.406
                  21177506.520                          49.200          36.100

 120597184.991 7  93971955.10944                  22948868.781
                  22948881.367                          44.600          28.800

 14  3  4  0 28 30.0000000  0 11G09G16G23G30G13G19G08G07G27G03G10
 128074811.687 6  99798677.97942                  24371828.945
                  24371846.285                          37.700          16.900

 115785203.342 7  90222412.01645                  22033153.789
                  22033163.160                          47.900          34.700

 109318324.161 8  85183260.69546                  20802558.211
                  20802565.828                          50.900          39.900

 119716492.081 7  93285691.173 7  89398785.404 8  22781259.961
  22781272.941    22781273.672    22781274.012          45.500          46.000
        50.800
 105424328.771 8  82148969.40046                  20061549.070
                  20061556.848                          49.300          41.300

 119007736.987 7  92733333.67545                  22646380.844
                  22646389.859                          45.800          33.000

 126721510.321 6  98744150.72244                  24114294.211
                  24114308.555                          41.400          24.200

 113444929.103 7  88398843.813 7                  21587837.672
  21587847.289    21587847.613                          47.700          46.000

 116000347.513 8  90389876.536 7  86623661.133 8  22074069.953
  22074080.980    22074081.406    22074081.148          48.700          47.800
        50.900
 111242293.350 8  86682474.15345                  21168682.617
                  21168692.145                          48.800          35.800

 120616296.264 7  93986847.03444                  22952506.227
                  22952517.961                          45.600          29.000

 14  3  4  0 29  0.0000000  0 11G09G16G23G30G13G19G08G07G27G03G10
 127981004.486 6  99725581.77543                  24353978.523
                  24353995.973                          38.900          19.900

 115871258.661 7  90289468.09345                  22049529.250
                  22049538.758                          47.600          34.400

 109378274.599 8  85229975.30346                  20813966.250
                  20813973.734                          51.000          39.900

 119782892.477 7  93337431.731 7  89448370.114 8  22793895.344
  22793908.461    22793908.488    22793908.766          46.200          45.400
        51.200
 105417288.936 8  82143483.85346                  20060209.305
                  20060217.148                          49.100          41.700

 118922398.778 7  92666836.54945                  22630141.125
                  22630151.910                          44.900          32.500

 126646144.402 7  98685424.27343                  24099952.383
                  24099967.309                          42.000          23.800

 113389573.079 8  88355709.353 7                  21577303.305
  21577312.621    21577312.879                          48.200          46.500

 115982721.972 8  90376142.415 7  86610499.296 8  22070715.508
  22070726.793    22070726.828    22070725.750          48.800          47.500
        50.500
 111196555.146 8  86646834.09446                  21159978.633
                  21159988.789                          49.700          36.200

 120635955.284 7  94002165.79244                  22956246.555
                  22956258.863                          44.500          29.100

 14  3  4  0 29 30.0000000  0 11G09G16G23G30G13G19G08G07G27G03G10
 127887213.899 6  99652498.59243                  24336131.164
                  24336149.066                          38.900          19.000

 115957575.980 7  90356728.33745                  22065955.180
                  22065964.266                          46.900          34.800

 109438703.555 8  85277062.78046                  20825465.398
                  20825472.410                          50.000          40.400

 119849417.632 7  93389269.507 7  89498047.986 8  22806554.859
  22806568.375    22806568.359    22806568.520          44.900          45.700
        51.000
 105410786.446 8  82138417.02646                  20058972.398
                  20058980.508                          48.600          41.900

 118837397.230 7  92600601.74145                  22613965.453
                  22613976.145                          46.200          33.500

 126570809.582 6  98626722.01044                  24085615.852
                  24085630.785                          40.700          24.500

 113334367.570 7  88312692.177 7                  21566797.844
  21566807.594    21566807.969                          47.600          46.800

 115965674.995 8  90362859.139 7  86597769.510 8  22067471.602
  22067482.789    22067483.043    22067481.676          48.100          47.500
        50.700
 111151402.511 8  86611650.33346                  21151386.914
                  21151396.531                          49.800          36.000

 120656160.856 7  94017910.46945                  22960091.773
                  22960103.484                          46.000          30.700

 14  3  4  0 30  0.0000000  4  5
DSRC (COGO code)                                            COMMENT
   0.000      (antenna height)                              COMMENT
 +39.99147598 (latitude)                                    COMMENT
-105.26107939 (longitude)                                   COMMENT
1655.057      (elevation)                                   COMMENT
 14  3  4  0 30  0.0000000  0 11G09G16G23G30G13G19G08G07G27G03G10
 127793440.795 6  99579428.88143                  24318285.922
                  24318305.770                          36.600          19.000

 116044153.297 7  90424191.16345                  22082430.063
                  22082439.375                          47.400          34.000

 109499609.967 8  85324522.31446                  20837055.906
                  20837062.461                          50.300          40.100

 119916067.402 7  93441204.406 7  89547818.931 8  22819237.438
  22819250.813    22819251.195    22819250.598          45.200          46.100
        50.400
 105404823.379 8  82133770.51846                  20057837.367
                  20057845.637                          49.300          41.400

 118752735.903 7  92534632.03545                  22597855.086
                  22597864.793                          46.400          33.700

 126495506.094 6  98568044.19644                  24071285.563
                  24071301.176                          41.300          25.000

 113279313.367 7  88269792.896 7                  21556321.977
  21556330.590    21556330.957                          47.300          46.400

 115949207.813 8  90350027.626 7  86585472.672 8  22064337.945
  22064348.504    22064348.668    22064348.703          48.000          47.000
        50.800
 111106837.982 8  86576924.81446                  21142906.125
                  21142915.500                          48.100          36.500

 120676911.888 7  94034080.15544                  22964039.961
                  22964053.031                          44.600          28.600

 14  3  4  0 30 30.0000000  0 11G09G16G23G30G13G19G08G07G27G03G10
 127699685.129 6  99506372.89043                  24300444.172
                  24300465.508                          37.200          20.100

 116130987.774 7  90491854.37045                  22098954.328
                  22098963.289                          46.600          33.900

 109560992.632 8  85372352.94346                  20848736.320
                  20848743.938                          50.200          39.700

 119982841.299 7  93493236.011 7  89597682.555 8  22831944.555
  22831957.332    22831957.578    22831957.270          46.100          45.600
        50.400
 105399400.177 8  82129544.68646                  20056805.305
                  20056813.430                          48.200          41.500

 118668418.053 7  92468929.99345                  22581810.398
                  22581819.145                          46.300          34.300

 126420233.659 7  98509390.60644                  24056962.445
                  24056976.676                          42.200          24.300

 113224410.827 7  88227011.781 7                  21545874.102
  21545883.352    21545883.563                          47.800          46.100

 115933321.187 7  90337648.497 7  86573609.356 8  22061314.375
  22061325.254    22061325.266    22061326.297          46.800          47.100
        51.200
 111062863.639 8  86542659.18545                  21134537.891
                  21134547.668                          48.900          35.900

 120698206.568 7  94050673.43845                  22968092.859
                  22968105.063                          45.900          30.600

 14  3  4  0 31  0.0000000  0 11G09G16G23G30G13G19G08G07G27G03G10
 127605948.184 6  99433331.39543                  24282608.133
                  24282627.680                          39.500          22.800

 116218076.564 7  90559715.75445                  22115526.297
                  22115535.297                          47.100          34.000

 109622850.690 8  85420554.00746                  20860507.969
                  20860515.020                          49.100          39.700

 120049739.511 7  93545364.495 7  89647639.017 8  22844675.297
  22844687.645    22844687.965    22844688.422          45.800          44.900
        49.900
 105394518.412 8  82125740.75246                  20055875.852
                  20055884.070                          48.100          41.100

 118584447.246 7  92403498.38245                  22565830.398
                  22565838.969                          45.600          33.500

 126344992.971 7  98450761.71744                  24042644.805
                  24042659.297                          42.400          24.300

 113169660.896 7  88184349.589 7                  21535455.016
  21535464.293    21535464.527                          47.000          45.500

 115918016.503 7  90325722.850 7  86562180.620 8  22058401.758
  22058412.578    22058412.691    22058412.727          46.800          46.600
        50.700
 111019481.464 8  86508854.98546                  21126282.266
                  21126291.938                          48.000          36.800

 120720043.931 7  94067689.58144                  22972247.883
                  22972261.063                          45.400          29.500

 14  3  4  0 31 30.0000000  0 11G09G16G23G30G13G19G08G07G27G03G10
 127512229.603 6  99360304.22143                  24264772.703
                  24264792.098                          39.900          19.300

 116305417.040 7  90627773.24545                  22132146.758
                  22132156.215                          46.800          34.100

 109685182.775 8  85469124.44446                  20872368.938
                  20872376.719                          49.000          39.000

 120116761.158 7  93597589.152 7  89697687.656 8  22857428.758
  22857441.605    22857441.664    22857442.176          44.300          45.500
        50.200
 105390178.325 8  82122358.90446                  20055050.367
                  20055058.555                          48.500          41.600

 118500826.427 7  92338339.48545                  22549917.656
                  22549926.145                          45.100          33.100

 126269783.264 6  98392156.98444                  24028331.680
                  24028346.824                          41.800          25.800

 113115063.398 7  88141806.178 7                  21525065.867
  21525074.418    21525074.770                          47.800          45.600

 115903294.130 7  90314250.953 7  86551186.737 8  22055600.109
  22055611.531    22055611.598    22055611.109          47.300          46.800
        50.800
 110976693.144 8  86475513.52346                  21118140.031
                  21118149.715                          48.700          36.400

 120742422.206 7  94085127.24144                  22976505.648
                  22976519.598                          44.300          28.100

 14  3  4  0 32  0.0000000  0 11G09G16G23G30G13G19G08G07G27G03G10
 127418530.341 6  99287292.08443                  24246941.578
                  24246960.633                          38.700          19.900

 116393007.095 7  90696025.21245                  22148814.945
                  22148824.309                          46.500          34.200

 109747988.230 8  85518063.74446                  20884320.047
                  20884327.914                          49.400          39.000

 120183906.588 7  93649910.287 7  89747828.740 8  22870205.992
  22870219.148    22870219.566    22870219.906          45.600          45.800
        49.800
 105386381.740 7  82119400.56246                  20054327.969
                  20054335.781                          47.100          41.600

 118417559.435 7  92273456.30545                  22534072.492
                  22534081.160                          44.800          33.000

 126194605.139 7  98333576.86844                  24014027.016
                  24014039.410                          42.800          24.100

 113060619.507 7  88099382.454 7                  21514705.453
  21514714.508    21514714.984                          47.900          45.300

 115889155.582 7  90303233.972 7  86540628.822 8  22052909.984
  22052920.910    22052920.949    22052920.984          47.000          46.900
        51.200
 110934501.026 8  86442636.65046                  21110111.578
                  21110120.945                          49.500          37.400

 120765340.388 7  94102985.59944                  22980867.414
                  22980880.484                          42.700          27.800

 14  3  4  0 32 30.0000000  0 11G09G16G23G30G13G19G08G07G27G03G10
 127324850.975 6  99214295.47143                  24229115.008
                  24229132.824                          37.900          19.300

 116480843.972 7  90764469.51445                  22165529.422
                  22165538.730                          46.000          33.800

 109811265.876 8  85567370.98346                  20896361.609
                  20896369.188                          48.900          39.000

 120251175.562 7  93702327.670 7  89798062.069 8  22883006.758
  22883019.344    22883019.684    22883019.258          44.800          45.600
        49.100
 105383129.546 7  82116866.42046                  20053709.367
                  20053716.711                          47.300          40.700

 118334649.386 7  92208851.26045                  22518294.750
                  22518304.793                          43.900          33.800

 126119458.708 7  98275021.41644                  23999726.117
                  23999739.461                          43.200          24.700

 113006329.437 7  88057078.589 7                  21504374.375
  21504383.262    21504383.832                          47.300          46.000

 115875601.763 7  90292672.628 7  86530507.549 8  22050330.617
  22050342.090    22050341.781    22050342.109          46.200          46.600
        51.200
 110892907.008 8  86410225.81846                  21102195.977
                  21102206.258                          48.800          36.800

 120788797.005 7  94121263.52644                  22985331.281
                  22985343.113                          43.200          27.900

 14  3  4  0 33  0.0000000  0 11G09G16G23G30G13G19G08G07G27G03G10
 127231191.952 6  99141314.64643                  24211291.797
                  24211308.363                          39.000          21.300

 116568925.253 7  90833104.26645                  22182290.734
                  22182300.316                          47.400          34.700

 109875014.141 8  85617044.93746                  20908492.516
                  20908499.668                          49.700          39.700

 120318567.413 7  93754840.792 7  89848387.156 8  22895830.602
  22895843.684    22895843.578    22895843.563          44.500          45.100
        49.300
 105380422.417 8  82114757.00347                  20053193.969
                  20053201.359                          48.900          42.000

 118252099.325 7  92144526.72845                  22502585.625
                  22502596.273                          44.200          33.900

 126044343.577 7  98216490.38544                  23985432.023
                  23985445.387                          43.600          25.800

 112952193.536 7  88014894.846 7                  21494072.320
  21494081.086    21494081.609                          47.000          46.700

 115862633.117 7  90282567.259 7  86520823.261 8  22047862.445
  22047873.316    22047873.594    22047873.102          46.300          47.600
        51.200
 110851912.743 8  86378282.32346                  21094394.961
                  21094405.125                          48.000          37.300

 120812790.208 7  94139959.55044                  22989897.648
                  22989908.961                          44.400          27.500

 14  3  4  0 33 30.0000000  0 11G09G16G23G30G13G19G08G07G27G03G10
 127137553.718 6  99068350.07943                  24193473.602
                  24193489.238                          38.700          21.800

 116657247.773 7  90901926.99045                  22199098.297
                  22199107.984                          47.500          34.400

 109939231.838 8  85667084.68646                  20920712.914
                  20920719.910                          49.600          39.500

 120386082.022 7  93807449.591 7  89898803.929 8  22908678.594
  22908691.309    22908691.824    22908691.574          42.400          45.000
        49.300
 105378261.303 8  82113073.06047                  20052782.578
                  20052790.918                          48.400          42.000

 118169912.443 7  92080485.17945                  22486946.086
                  22486956.578                          44.600          33.400

 125969259.940 7  98157983.89844                  23971145.453
                  23971157.137                          44.600          25.100

 112898212.610 7  87972831.870 7                  21483800.023
  21483809.320    21483810.055                          47.200          46.600

 115850250.643 7  90272918.653 7  86511576.699 8  22045506.195
  22045517.613    22045518.203    22045517.652          47.300          47.900
        51.200
 110811520.226 8  86346807.71746                  21086708.477
                  21086718.219                          48.700          36.800

 120837318.552 7  94159072.58944                  22994564.992
                  22994576.250                          43.700          28.300

 14  3  4  0 34  0.0000000  0 11G09G16G23G30G13G19G08G07G27G03G10
 127043936.893 6  98995402.21043                  24175658.422
                  24175674.859                          40.300          22.200

 116745809.387 7  90970936.01945                  22215950.727
                  22215961.047                          47.000          34.800

 110003918.276 8  85717489.67746                  20933022.219
                  20933029.508                          49.500          39.600

 120453719.255 7  93860153.950 7  89949312.276 8  22921549.875
  22921562.340    22921562.395    22921562.906          42.800          45.100
        49.500
 105376647.542 8  82111815.61146                  20052475.383
                  20052483.375                          48.700          41.400

 118088092.235 7  92016729.37145                  22471375.984
                  22471386.023                          44.600          32.600

 125894208.235 7  98099502.25744                  23956862.547
                  23956875.711                          42.900          25.700

 112844387.017 7  87930889.940 7                  21473557.648
  21473566.684    21473567.219                          47.300          47.000

 115838455.282 7  90263727.527 7  86502768.556 8  22043261.836
  22043273.203    22043273.211    22043273.129          47.200          47.800
        51.800
 110771731.708 8  86315803.75846                  21079137.086
                  21079146.484                          48.500          36.800

 120862380.879 7  94178601.73444                  22999333.023
                  22999346.215                          44.300          27.900

 14  3  4  0 34 30.0000000  0 11G09G16G23G30G13G19G08G07G27G03G10
 126950341.651 6  98922471.12143                  24157847.977
                  24157864.609                          41.100          22.600

 116834607.296 7  91040129.16945                  22232848.414
                  22232858.391                          47.200          34.400

 110069071.341 8  85768258.28846                  20945420.844
                  20945427.973                          50.400          39.000

 120521478.537 7  93912953.392 7  89999911.736 8  22934444.453
  22934456.199    22934456.574    22934457.086          46.300          44.900
        49.300
 105375581.243 7  82110984.76446                  20052272.516
                  20052280.691                          47.200          41.700

 118006641.532 7  91953261.48145                  22455876.516
                  22455886.355                          44.600          33.100

 125819187.821 7  98041044.92744                  23942584.313
                  23942599.703                          42.000          24.000

 112790717.222 8  87889069.409 7                  21463344.445
  21463353.504    21463353.980                          48.300          46.300

 115827247.457 7  90254994.235 7  86494399.164 8  22041128.484
  22041139.836    22041140.434    22041139.887          47.300          47.800
        51.400
 110732548.513 8  86285271.48146                  21071680.641
                  21071690.141                          48.800          36.900

 120887975.016 7  94198545.27144                  23004203.508
                  23004216.957                          43.200          27.800

 14  3  4  0 35  0.0000000  0 11G09G16G23G30G13G19G08G07G27G03G10
 126856768.969 7  98849557.68444                  24140042.523
                  24140058.855                          42.200          25.200

 116923639.165 7  91109504.63445                  22249790.891
                  22249800.719                          46.300          34.200

 110134690.110 8  85819389.77146                  20957907.609
                  20957914.371                          49.600          39.200

 120589359.962 7  93965847.983 7  90050602.398 8  22947361.242
  22947373.723    22947373.543    22947374.055          45.400          44.100
        49.700
 105375064.101 8  82110581.82546                  20052174.055
                  20052182.027                          48.100          41.300

 117925563.975 7  91890084.34245                  22440447.734
                  22440456.441                          44.600          33.000

 125744199.156 6  97982612.41343                  23928314.320
                  23928330.184                          40.900          23.200

 112737203.821 7  87847370.742 7                  21453161.266
  21453170.207    21453170.766                          47.900          46.900

 115816628.311 7  90246719.660 8  86486469.374 8  22039108.070
  22039119.379    22039119.859    22039119.137          46.000          48.100
        51.200
 110693972.613 8  86255212.42946                  21064339.813
                  21064349.500                          48.300          37.300

 120914099.850 7  94218902.35144                  23009175.398
                  23009188.855                          43.500          29.300

 14  3  4  0 35 30.0000000  0 11G09G16G23G30G13G19G08G07G27G03G10
 126763219.092 6  98776661.94444                  24122240.188
                  24122256.230                          41.100          26.200

 117012901.973 7  91179060.03945                  22266777.078
                  22266786.680                          45.600          34.100

 110200773.381 8  85870883.21446                  20970482.367
                  20970489.445                          49.900          38.400

 120657362.980 7  94018837.342 7  90101383.867 8  22960301.945
  22960314.242    22960313.555    22960314.246          45.500          43.700
        49.200
 105375096.426 8  82110607.05746                  20052180.508
                  20052188.273                          48.000          41.200

 117844862.633 7  91827200.36045                  22425090.992
                  22425099.094                          44.900          33.600

 125669242.260 6  97924204.61543                  23914050.438
                  23914066.125                          41.000          22.900

 112683847.167 8  87805794.221 7                  21443007.586
  21443016.297    21443017.035                          48.600          46.500

 115806598.242 7  90238904.103 7  86478979.482 8  22037199.016
  22037210.449    22037210.516    22037210.434          45.300          47.600
        51.700
 110656005.742 8  86225627.95446                  21057115.523
                  21057124.309                          48.900          37.800

 120940753.484 7  94239671.47844                  23014247.414
                  23014260.488                          43.600          29.300

 14  3  4  0 36  0.0000000  0 11G09G16G23G30G13G19G08G07G27G03G10
 126669693.027 6  98703784.80444                  24104441.672
                  24104458.816                          41.300          24.200

 117102393.837 7  91248793.93545                  22283806.586
                  22283816.664                          45.700          34.000

 110267320.142 8  85922737.81646                  20983145.898
                  20983153.594                          48.300          38.600

 120725487.810 7  94071921.633 7  90152256.320 8  22973265.813
  22973278.160    22973277.809    22973278.148          43.600          44.000
        49.200
 105375679.752 7  82111061.62446                  20052290.961
                  20052298.992                          47.000          40.800

 117764541.187 7  91764612.39845                  22409806.195
                  22409814.230                          45.000          33.600

 125594317.669 7  97865822.06644                  23899794.281
                  23899808.613                          43.400          25.400

 112630648.397 7  87764340.717 7                  21432884.383
  21432892.953    21432893.840                          47.600          46.300

 115797158.461 7  90231548.496 7  86471930.374 8  22035402.664
  22035414.152    22035414.016    22035413.934          46.600          47.200
        51.100
 110618650.016 8  86196519.68146                  21050006.500
                  21050015.570                          48.300          37.100

 120967934.423 7  94260851.47244                  23019419.852
                  23019432.379                          44.500          29.500

 14  3  4  0 36 30.0000000  0 11G09G16G23G30G13G19G08G07G27G03G10
 126576190.899 6  98630926.30243                  24086649.328
                  24086665.402                          40.500          22.000

 117192112.080 7  91318704.22345                  22300879.266
                  22300889.379                          45.700          33.600

 110334328.473 8  85974952.07646                  20995897.750
                  20995904.734                          49.300          38.800

 120793733.993 7  94125100.494 7  90203219.375 8  22986253.031
  22986264.129    22986264.715    22986265.406          44.600          43.900
        49.800
 105376814.695 7  82111946.02946                  20052507.117
                  20052515.195                          47.100          41.100

 117684602.356 7  91702322.58445                  22394594.461
                  22394602.773                          45.000          34.100

 125519425.370 7  97807464.63944                  23885542.555
                  23885555.793                          43.600          24.100

 112577607.607 7  87723010.324 7                  21422791.109
  21422799.219    21422799.820                          47.900          46.900

 115788309.339 7  90224653.154 7  86465322.346 8  22033719.195
  22033729.793    22033729.887    22033729.336          46.300          47.100
        51.100
 110581907.094 7  86167888.91546                  21043014.094
                  21043023.895                          47.600          37.300

 120995640.936 7  94282441.00044                  23024691.383
                  23024704.520                          43.700          29.600

 14  3  4  0 37  0.0000000  0 11G09G16G23G30G13G19G08G07G27G03G10
 126482713.222 6  98558086.85243                  24068859.875
                  24068875.688                          39.000          20.600

 117282054.156 7  91388788.93845                  22317994.898
                  22318004.309                          46.400          33.000

 110401797.756 8  86027525.52146                  21008736.727
                  21008743.445                          49.900          39.400

 120862101.308 7  94178373.750 7  90254272.885 8  22999262.266
  22999274.492    22999274.879    22999274.984          44.300          44.000
        49.300
 105378501.929 8  82113260.79146                  20052828.563
                  20052836.672                          48.900          41.400

 117605049.405 7  91640333.45345                  22379456.016
                  22379464.223                          45.900          34.900

 125444565.355 7  97749132.40643                  23871296.734
                  23871310.805                          43.700          22.800

 112524725.413 8  87681803.507 7                  21412727.695
  21412736.016    21412736.641                          48.700          46.900

 115780051.641 7  90218218.663 7  86459155.974 8  22032147.680
  22032158.594    22032158.547    22032158.523          47.000          46.800
        51.100
 110545778.660 8  86139736.97346                  21036139.484
                  21036148.563                          49.000          37.500

 121023871.635 7  94304438.97344                  23030064.234
                  23030076.668                          43.200          29.800

 14  3  4  0 37 30.0000000  0 11G09G16G23G30G13G19G08G07G27G03G10
 126389260.632 6  98485266.94043                  24051075.875
                  24051091.672                          37.000          20.600

 117372217.484 7  91459046.05345                  22335153.078
                  22335161.902                          45.300          32.700

 110469726.643 8  86080457.10346                  21021662.867
                  21021669.789                          50.500          38.900

 120930589.580 7  94231741.243 7  90305416.721 8  23012295.469
  23012307.945    23012307.922    23012307.969          45.100          43.300
        49.200
 105380742.300 8  82115006.55846                  20053254.656
                  20053262.320                          48.500          41.000

 117525885.846 7  91578647.72645                  22364391.320
                  22364400.465                          45.500          34.400

 125369737.679 6  97690825.31343                  23857056.414
                  23857071.168                          41.800          23.000

 112472002.550 8  87640720.835 7                  21402695.047
  21402703.516    21402703.785                          49.000          47.300

 115772386.047 7  90212245.529 7  86453431.734 8  22030688.930
  22030699.914    22030699.961    22030700.348          45.300          47.500
        51.600
 110510266.553 8  86112065.27946                  21029381.406
                  21029390.953                          48.800          36.600

 121052624.572 7  94326843.92444                  23035534.945
                  23035548.152                          42.300          29.600

 14  3  4  0 38  0.0000000  0 11G09G16G23G30G13G19G08G07G27G03G10
 126295833.686 6  98412467.04443                  24033297.031
                  24033313.258                          36.800          20.600

 117462599.852 7  91529473.86445                  22352351.578
                  22352360.727                          46.000          33.000

 110538113.751 8  86133745.73646                  21034676.656
                  21034683.434                          50.400          38.600

 120999198.709 7  94285202.884 7  90356650.799 8  23025351.516
  23025363.059    23025363.234    23025363.277          45.200          43.800
        49.300
 105383536.998 7  82117184.27746                  20053786.141
                  20053793.680                          47.600          40.900

 117447114.959 7  91517267.97645                  22349401.789
                  22349411.125                          45.200          34.800

 125294942.494 6  97632543.60644                  23842823.367
                  23842838.297                          41.600          25.600

 112419439.786 8  87599762.919 7                  21392692.305
  21392700.641    21392700.977                          48.600          46.700

 115765313.254 7  90206734.320 8  86448150.171 8  22029343.086
  22029353.441    22029353.934    22029353.500          46.400          48.000
        51.500
 110475372.468 8  86084875.17246                  21022741.133
                  21022750.348                          48.300          37.300

 121081898.447 7  94349654.79745                  23041106.055
                  23041119.500                          43.900          30.700

 14  3  4  0 38 30.0000000  0 11G09G16G23G30G13G19G08G07G27G03G10
 126202432.850 6  98339687.45543                  24015522.359
                  24015539.332                          36.300          20.100

 117553198.245 7  91600069.99745                  22369591.789
                  22369601.320                          45.900          31.900

 110606957.326 8  86187390.05646                  21047777.047
                  21047783.977                          50.800          38.800

 121067928.137 7  94338758.265 7  90407974.716 8  23038430.305
  23038442.332    23038442.227    23038442.738          47.300          43.900
        48.800
 105386886.235 8  82119794.11146                  20054423.719
                  20054431.098                          48.600          41.100

 117368739.528 7  91456196.34445                  22334487.430
                  22334496.340                          45.300          34.500

 125220179.892 7  97574287.29144                  23828598.039
                  23828610.996                          44.500          26.700

 112367037.076 8  87558929.736 7                  21382720.172
  21382728.934    21382729.293                          48.700          46.800

 115758833.573 7  90201685.276 7  86443311.517 8  22028110.086
  22028120.598    22028121.250    22028120.055          47.100          47.800
        51.100
 110441097.519 8  86058167.49446                  21016218.750
                  21016228.348                          48.100          37.900

 121111691.096 7  94372869.90645                  23046775.344
                  23046788.418                          44.800          30.500

 14  3  4  0 39  0.0000000  0 11G09G16G23G30G13G19G08G07G27G03G10
 126109058.717 6  98266928.66443                  23997754.133
                  23997770.152                          38.300          21.500

 117644009.932 7  91670832.32745                  22386872.961
                  22386882.840                          45.300          32.800

 110676255.833 8  86241388.87346                  21060964.000
                  21060970.879                          48.800          38.900

 121136777.544 7  94392407.149 7  90459388.222 8  23051531.813
  23051544.078    23051544.094    23051544.430          45.400          44.900
        49.500
 105390790.639 8  82122836.53447                  20055167.063
                  20055174.203                          48.400          42.100

 117290762.595 7  91395435.23445                  22319648.969
                  22319657.180                          45.400          34.600

 125145449.794 7  97516056.29644                  23814377.031
                  23814389.578                          45.200          27.800

 112314795.124 7  87518221.801 7                  21372779.070
  21372787.402    21372787.906                          47.500          47.000

 115752947.398 7  90197098.717 7  86438916.084 8  22026989.852
  22027000.492    22027000.859    22027000.191          46.800          47.800
        51.000
 110407443.460 8  86031943.62846                  21009814.625
                  21009823.914                          49.400          37.400

 121142000.897 7  94396487.98844                  23052543.367
                  23052555.531                          44.900          29.600

 14  3  4  0 39 30.0000000  0 11G09G16G23G30G13G19G08G07G27G03G10
 126015712.151 6  98194191.40943                  23979992.148
                  23980006.559                          40.000          22.600

 117735033.139 7  91741759.48645                  22404193.688
                  22404203.734                          45.300          32.100

 110746008.427 8  86295741.53046                  21074237.578
                  21074244.844                          48.200          39.200

 121205747.303 7  94446149.828 7  90510891.618 8  23064656.250
  23064668.852    23064669.203    23064668.895          43.200          44.800
        49.100
 105395251.635 7  82126312.66746                  20056015.375
                  20056022.855                          47.900          41.700

 117213187.819 7  91334987.51445                  22304886.117
                  22304894.875                          45.800          34.200

 125070752.706 7  97457851.03744                  23800162.891
                  23800175.504                          45.100          26.900

 112262715.060 7  87477640.021 7                  21362867.828
  21362877.445    21362877.566                          47.800          47.100

 115747655.907 8  90192975.552 7  86434964.724 8  22025982.328
  22025993.793    22025993.594    22025993.219          48.500          46.600
        50.800
 110374412.615 7  86006205.38146                  21003528.602
                  21003538.270                          47.900          36.900

 121172826.484 7  94420507.94945                  23058409.102
                  23058420.992                          44.500          30.800

 14  3  4  0 40  0.0000000  0 11G09G16G23G30G13G19G08G07G27G03G10
 125922393.622 6  98121475.94943                  23962233.563
                  23962248.652                          41.400          22.800

 117826265.080 7  91812849.29545                  22421555.125
                  22421564.758                          45.800          32.400

 110816213.560 8  86350446.80546                  21087597.891
                  21087605.094                          50.200          39.900

 121274836.956 7  94499985.900 7  90562484.521 8  23077804.102
  23077815.449    23077815.844    23077815.770          45.700          44.600
        49.100
 105400269.554 8  82130222.77146                  20056970.164
                  20056978.375                          48.200          40.900

 117136018.229 7  91274855.53845                  22290201.688
                  22290209.641                          46.600          33.900

 124996088.574 7  97399671.42344                  23785952.898
                  23785967.082                          42.900          27.700

 112210797.253 7  87437184.675 7                  21352988.297
  21352997.500    21352998.113                          47.000          47.200

 115742959.348 7  90189315.974 7  86431457.642 8  22025089.039
  22025099.426    22025099.719    22025099.172          47.500          47.500
        51.200
 110342006.023 7  85980953.56546                  20997361.883
                  20997371.168                          47.200          36.700

 121204165.584 7  94444928.03444                  23064372.930
                  23064384.223                          44.100          28.600

 14  3  4  0 40 30.0000000  0 12G09G16G23G30G13G19G08G07G27G03G10G28
 125829103.681 6  98048782.81644                  23944480.898
                  23944497.266                          41.100          24.100

 117917703.352 7  91884099.89045                  22438954.813
                  22438964.500                          46.300          33.100

 110886869.943 8  86405503.70346                  21101042.969
                  21101050.406                          49.200          39.700

 121344046.275 7  94553915.221 7  90614166.780 8  23090974.063
  23090986.395    23090985.934    23090986.742          44.900          43.900
        49.100
 105405845.235 8  82134567.48946                  20058031.336
                  20058039.293                          48.500          41.100

 117059257.137 7  91215041.86845                  22275593.852
                  22275602.684                          46.400          34.600

 124921457.425 7  97341517.56644                  23771751.992
                  23771764.473                          44.900          27.900

 112159042.414 7  87396856.318 7                  21343139.625
  21343148.535    21343149.012                          47.200          46.800

 115738858.164 8  90186120.310 7  86428395.145 8  22024308.445
  22024319.270    22024319.828    22024319.219          48.400          47.500
        50.900
 110310225.527 7  85956189.61446                  20991314.141
                  20991324.125                          47.600          37.000

 121236016.537 7  94469746.98744                  23070433.281
                  23070445.457                          43.800          28.200

 129508379.38416                                  24644599.625
                                                        36.900

 14  3  4  0 41  0.0000000  0 12G09G16G23G30G13G19G08G07G27G03G10G28
 125735843.180 6  97976112.51544                  23926733.617
                  23926749.113                          41.200          24.300

 118009345.548 7  91955509.38645                  22456394.125
                  22456403.418                          45.400          32.300

 110957976.259 8  86460911.19446                  21114574.039
                  21114581.344                          49.600          38.700

 121413375.217 7  94607937.768 7  90665938.384 8  23104166.758
  23104178.926    23104179.035    23104179.434          44.300          43.800
        49.100
 105411979.409 8  82139347.39246                  20059198.922
                  20059206.453                          48.100          41.200

 116982907.752 7  91155548.99445                  22261065.016
                  22261074.039                          44.500          33.700

 124846859.834 7  97283389.82544                  23757556.211
                  23757568.910                          43.500          28.300

 112107451.166 7  87356655.432 7                  21333322.352
  21333330.797    21333331.453                          47.600          47.300

 115735353.017 7  90183389.097 7  86425777.745 8  22023641.414
  22023652.000    22023652.137    22023651.879          47.900          47.000
        51.200
 110279072.556 7  85931914.65146                  20985386.391
                  20985395.754                          47.500          37.200

 121268377.848 7  94494963.59244                  23076591.648
                  23076603.926                          43.700          27.400

 129414686.579 6 100842567.91953                  24626770.453
                  24626787.000                          40.400          20.900

 14  3  4  0 41 30.0000000  0 12G09G16G23G30G13G19G08G07G27G03G10G28
 125642612.520 6  97903465.55344                  23908992.070
                  23909008.160                          41.700          25.700

 118101188.917 7  92027075.63545                  22473871.227
                  22473880.414                          45.100          32.700

 111029530.520 8  86516667.74746                  21128190.398
                  21128196.883                          50.300          38.700

 121482823.272 7  94662053.134 7  90717798.949 8  23117382.195
  23117394.316    23117394.719    23117394.234          44.000          44.800
        49.300
 105418672.739 7  82144563.01046                  20060472.109
                  20060480.262                          47.300          41.700

 116906972.811 7  91096379.07445                  22246614.750
                  22246624.234                          45.400          35.200

 124772295.529 7  97225288.01544                  23743366.195
                  23743379.477                          42.300          26.800

 112056023.639 7  87316582.124 7                  21323535.992
  21323545.102    21323545.195                          47.400          47.000

 115732444.064 7  90181122.435 7  86423605.542 8  22023087.898
  22023098.316    22023098.555    22023097.480          45.100          47.500
        50.900
 110248548.311 7  85908129.61046                  20979577.883
                  20979586.695                          46.600          37.900

 121301247.624 7  94520576.39144                  23082846.945
                  23082859.066                          43.700          28.800

 129321156.183 6 100769687.56143                  24608973.352
                  24608990.160                          41.900          18.600

 14  3  4  0 42  0.0000000  0 12G09G16G23G30G13G19G08G07G27G03G10G28
 125549412.244 6  97830842.26744                  23891256.313
                  23891271.145                          41.200          25.600

 118193231.362 7  92098797.01545                  22491386.703
                  22491395.750                          44.700          32.800

 111101531.290 8  86572772.20846                  21141891.375
                  21141898.324                          49.500          38.900

 121552390.287 7  94716261.196 7  90769748.340 8  23130620.180
  23130632.840    23130633.234    23130632.168          44.600          44.800
        48.800
 105425925.462 7  82150214.52146                  20061852.609
                  20061860.133                          47.100          41.400

 116831455.367 7  91037534.47845                  22232244.297
                  22232253.609                          46.600          34.600

 124697764.418 7  97167212.09844                  23729184.664
                  23729196.789                          44.100          27.600

 112004760.640 7  87276637.016 7                  21313780.898
  21313789.098    21313789.781                          47.900          46.800

 115730131.691 7  90179320.654 7  86421878.848 8  22022647.828
  22022658.594    22022659.070    22022657.289          47.900          47.500
        50.800
 110218654.308 7  85884835.65146                  20973888.867
                  20973898.391                          47.700          38.100

 121334623.612 7  94546583.66144                  23089197.844
                  23089210.422                          43.800          29.400

 129227789.071 6 100696934.20843                  24591205.586
                  24591222.898                          41.000          21.700

 14  3  4  0 42 30.0000000  0 12G09G16G23G30G13G19G08G07G27G03G10G28
 125456242.864 6  97758243.09844                  23873526.359
                  23873542.066                          40.300          24.300

 118285469.971 7  92170671.23045                  22508938.898
                  22508947.875                          44.100          31.900

 111173977.461 8  86629223.74646                  21155677.461
                  21155685.016                          48.600          38.700

 121622076.030 7  94770561.749 7  90821786.370 8  23143880.391
  23143893.484    23143893.805    23143892.559          43.900          45.700
        48.500
 105433738.254 7  82156302.43646                  20063338.930
                  20063346.512                          47.700          41.200

 116756358.709 7  90979017.76445                  22217953.758
                  22217961.938                          46.700          35.300

 124623266.848 7  97109162.25744                  23715007.281
                  23715020.301                          43.400          26.800

 111953662.955 7  87236820.736 7                  21304057.109
  21304065.691    21304066.184                          47.500          47.500

 115728416.282 7  90177984.024 7  86420597.947 8  22022321.250
  22022331.535    22022331.906    22022330.828          45.200          47.500
        50.900
 110189392.114 7  85862034.00246                  20968320.094
                  20968330.039                          46.600          37.900

 121368504.066 7  94572983.98244                  23095645.227
                  23095657.480                          42.500          29.100

 129134586.735 6 100624309.48543                  24573469.266
                  24573487.125                          40.400          22.200

 14  3  4  0 43  0.0000000  0 12G09G16G23G30G13G19G08G07G27G03G10G28
 125363105.376 6  97685668.76744                  23855803.219
                  23855818.254                          40.900          24.400

 118377902.669 7  92242696.69145                  22526527.984
                  22526537.320                          45.400          32.700

 111246867.540 8  86686021.18446                  21169548.344
                  21169555.895                          49.600          38.800

 121691880.718 7  94824954.990 7  90873913.228 8  23157164.609
  23157177.516    23157177.535    23157176.879          44.300          45.600
        48.400
 105442112.463 8  82162827.82746                  20064932.727
                  20064940.215                          48.100          41.700

 116681686.320 7  90920831.64245                  22203744.125
                  22203752.461                          46.000          35.100

 124548803.433 6  97051139.04844                  23700835.391
                  23700850.051                          41.300          26.800

 111902731.679 7  87197134.111 7                  21294365.258
  21294374.309    21294374.410                          47.500          47.300

 115727298.597 7  90177113.167 7  86419763.389 8  22022108.367
  22022119.082    22022119.258    22022119.117          44.700          47.300
        50.500
 110160763.511 7  85839726.07446                  20962872.695
                  20962882.180                          47.100          38.300

 121402887.353 7  94599776.17044                  23102187.961
                  23102199.922                          43.200          28.000

 129041551.014 6 100551814.44942                  24555763.820
                  24555781.414                          41.300          17.800

 14  3  4  0 43 30.0000000  0 12G09G16G23G30G13G19G08G07G27G03G10G28
 125270000.015 6  97613119.44743                  23838083.539
                  23838100.680                          36.400          21.100

 118470526.873 7  92314871.37345                  22544154.008
                  22544163.168                          46.000          32.700

 111320199.521 8  86743162.97546                  21183502.555
                  21183510.395                          49.300          38.400

 121761803.662 7  94879440.386 7  90926128.413 8  23170470.273
  23170483.047    23170483.391    23170483.316          45.900          44.900
        49.000
 105451047.800 8  82169790.46346                  20066633.242
                  20066640.703                          49.400          41.800

 116607440.671 7  90862978.04545                  22189615.875
                  22189623.566                          46.500          35.800

 124474373.954 6  96993142.30144                  23686672.266
                  23686686.840                          41.600          27.900

 111851966.657 8  87157577.044 7                  21284704.844
  21284713.703    21284714.152                          48.800          47.000

 115726778.506 7  90176707.966 7  86419375.076 8  22022009.719
  22022019.645    22022019.805    22022019.957          46.000          47.000
        50.800
 110132769.247 7  85817912.43446                  20957545.664
                  20957554.387                          47.900          38.300

 121437770.968 7  94626958.17944                  23108826.484
                  23108838.457                          43.800          29.900

 128948682.466 6 100479449.71943                  24538090.867
                  24538109.465                          37.800          21.100

 14  3  4  0 44  0.0000000  0 12G09G16G23G30G13G19G08G07G27G03G10G28
 125176927.573 6  97540595.75543                  23820372.984
                  23820389.555                          37.700          21.300

 118563340.002 7  92387193.27445                  22561815.570
                  22561824.922                          45.700          31.600

 111393972.145 8  86800648.10646                  21197541.148
                  21197549.113                          49.900          38.500

 121831844.697 7  94934017.803 7  90978431.779 8  23183798.727
  23183811.629    23183811.297    23183811.164          45.900          45.200
        49.000
 105460544.725 8  82177190.69846                  20068439.883
                  20068447.973                          48.300          41.700

 116533624.946 7  90805459.44846                  22175568.547
                  22175577.125                          46.700          36.900

 124399978.507 6  96935172.04844                  23672514.188
                  23672529.086                          41.300          28.100

 111801368.680 8  87118150.129 7                  21275076.188
  21275084.938    21275085.605                          48.300          47.900

 115726856.278 7  90176768.631 7  86419433.222 8  22022023.859
  22022034.664    22022035.516    22022034.379          44.100          47.300
        50.800
 110105410.778 8  85796594.22546                  20952339.461
                  20952348.891                          48.100          38.100

 121473153.080 7  94654528.64744                  23115559.883
                  23115571.992                          43.600          28.900

 128855982.483 7 100407216.37043                  24520451.461
                  24520469.262                          42.300          22.600

 14  3  4  0 44 30.0000000  0 12G09G16G23G30G13G19G08G07G27G03G10G28
 125083888.560 6  97468098.18943                  23802668.977
                  23802685.313                          36.900          21.800

 118656339.835 7  92459660.66245                  22579512.844
                  22579522.031                          44.900          31.500

 111468183.959 8  86858475.47746                  21211663.203
                  21211670.863                          50.400          39.000

 121902003.910 7  94988687.308 7  91030823.382 8  23197149.625
  23197162.363    23197162.531    23197162.223          47.000          45.200
        48.800
 105470604.409 8  82185029.42846                  20070354.172
                  20070362.023                          49.000          41.500

 116460242.454 7  90748278.42345                  22161604.641
                  22161613.043                          45.600          35.700

 124325617.608 7  96877228.78944                  23658366.172
                  23658377.613                          43.600          27.200

 111750938.550 8  87078853.999 7                  21265479.586
  21265488.441    21265489.082                          49.300          47.600

 115727532.528 7  90177295.626 7  86419938.280 8  22022152.539
  22022163.113    22022163.602    22022162.234          44.700          47.500
        50.900
 110078689.633 8  85775772.62546                  20947254.281
                  20947264.176                          49.300          38.000

 121509032.094 7  94682486.31444                  23122387.313
                  23122399.387                          44.100          29.000

 128763452.437 6 100335115.29243                  24502842.383
                  24502861.063                          38.600          20.900

 14  3  4  0 45  0.0000000  0 12G09G16G23G30G13G19G08G07G27G03G10G28
 124990883.517 5  97395626.99243                  23784969.930
                  23784985.602                          33.700          20.600

 118749524.053 7  92532271.71745                  22597245.195
                  22597254.379                          44.300          30.600

 111542833.262 8  86916643.74346                  21225868.539
                  21225875.805                          50.000          38.300

 121972280.858 7  95043448.556 7  91083302.900 8  23210523.219
  23210534.918    23210535.332    23210535.145          47.000          44.400
        49.000
 105481227.014 8  82193306.81246                  20072375.430
                  20072383.441                          48.800          41.300

 116387296.207 7  90691437.32546                  22147723.250
                  22147731.258                          45.600          36.600

 124251291.225 6  96819312.35544                  23644220.070
                  23644234.734                          40.600          27.500

 111700676.922 8  87039689.179 7                  21255915.594
  21255924.367    21255925.195                          49.100          47.200

 115728807.245 7  90178288.976 7  86420890.266 8  22022395.133
  22022405.875    22022405.746    22022405.488          44.700          47.500
        50.900
 110052607.117 8  85755448.65146                  20942291.078
                  20942300.539                          48.300          38.300

 121545405.896 7  94710829.53444                  23129309.188
                  23129319.953                          43.600          28.500

 128671093.389 6 100263147.60443                  24485268.195
                  24485284.621                          41.300          21.100

 14  3  4  0 45 30.0000000  0 12G09G16G23G30G13G19G08G07G27G03G10G28
 124897913.438 5  97323183.03043                  23767277.680
                  23767293.762                          34.300          20.900

 118842890.182 7  92605024.53345                  22615011.758
                  22615021.461                          44.500          31.300

 111617918.919 8  86975152.02946                  21240156.750
                  21240163.883                          49.800          37.600

 122042675.723 7  95098301.685 7  91135870.475 8  23223918.414
  23223931.250    23223931.281    23223931.324          44.600          45.100
        49.300
 105492413.747 8  82202023.76946                  20074504.375
                  20074512.570                          48.200          41.400

 116314789.449 7  90634938.67245                  22133925.555
                  22133933.926                          46.400          35.100

 124176999.742 7  96761423.21144                  23630085.469
                  23630096.758                          43.400          27.200

 111650584.672 8  87000656.331 8                  21246383.000
  21246391.652    21246392.227                          49.400          48.200

 115730680.977 7  90179749.097 7  86422289.560 8  22022752.195
  22022762.324    22022762.039    22022762.195          46.400          47.000
        51.700
 110027164.898 8  85735623.61146                  20937449.289
                  20937459.008                          48.100          38.600

 121582272.461 7  94739556.70944                  23136324.164
                  23136337.262                          42.500          29.600

 128578907.111 6 100191314.51342                  24467723.352
                  24467739.840                          37.500          17.800

 14  3  4  0 46  0.0000000  0 12G09G16G23G30G13G19G08G07G27G03G10G28
 124804978.366 6  97250766.42443                  23749592.773
                  23749608.125                          39.200          21.800

 118936435.400 7  92677916.89645                  22632813.711
                  22632822.789                          44.900          30.900

 111693438.352 8  87033998.30646                  21254527.109
                  21254534.340                          49.600          37.800

 122113187.628 7  95153246.007 7  91188525.449 8  23237336.398
  23237349.215    23237349.441    23237349.484          45.000          45.000
        49.100
 105504163.512 7  82211179.47446                  20076740.328
                  20076748.563                          47.700          41.500

 116242724.682 7  90578784.43945                  22120212.070
                  22120220.563                          46.600          35.500

 124102742.716 6  96703560.76944                  23615949.477
                  23615965.547                          40.200          26.800

 111600661.947 8  86961755.592 7                  21236883.164
  21236891.426    21236891.883                          49.700          47.200

 115733153.316 7  90181675.665 7  86424135.857 8  22023222.672
  22023233.340    22023233.074    22023232.875          44.900          46.700
        51.300
 110002363.164 8  85716297.66646                  20932729.570
                  20932738.648                          48.200          37.900

 121619629.628 7  94768666.20344                  23143432.563
                  23143444.023                          43.900          28.500

 128486894.262 6 100119616.46843                  24450213.656
                  24450231.355                          37.800          20.600

 14  3  4  0 46 30.0000000  0 12G09G16G23G30G13G19G08G07G27G03G10G28
 124712079.361 6  97178377.84643                  23731914.727
                  23731929.094                          41.300          22.500

 119030157.672 7  92750947.23045                  22650648.289
                  22650657.766                          45.200          31.200

 111769390.795 8  87093182.00846                  21268981.297
                  21268988.254                          49.800          37.900

 122183816.776 7  95208281.704 7  91241267.985 8  23250776.648
  23250789.352    23250789.855    23250789.547          45.200          45.000
        48.400
 105516477.583 7  82220774.87846                  20079083.313
                  20079091.316                          46.400          41.700

 116171104.858 7  90522976.92345                  22106582.836
                  22106591.098                          46.500          35.700

 124028520.650 7  96645725.70144                  23601830.344
                  23601841.941                          44.100          28.000

 111550909.483 8  86922987.522 7                  21227415.313
  21227423.914    21227424.273                          48.300          47.500

 115736224.772 7  90184069.071 7  86426429.545 8  22023806.992
  22023817.023    22023817.676    22023817.070          47.400          47.500
        51.500
 109978203.715 7  85697472.19646                  20928131.883
                  20928141.922                          47.400          37.700

 121657475.828 7  94798156.79144                  23150634.586
                  23150646.383                          44.000          27.900

 128395055.840 6 100048054.48943                  24432737.547
                  24432754.172                          40.200          19.600

 14  3  4  0 47  0.0000000  0 12G09G16G23G30G13G19G08G07G27G03G10G28
 124619217.459 7  97106018.18543                  23714244.813
                  23714258.777                          43.500          23.000

 119124054.681 7  92824113.71345                  22668516.031
                  22668526.277                          44.900          30.500

 111845774.391 8  87152701.67846                  21283516.328
                  21283523.160                          50.700          37.900

 122254563.151 7  95263408.734 7  91294098.064 8  23264239.180
  23264251.922    23264251.918    23264252.078          44.900          44.600
        49.000
 105529356.812 7  82230810.65646                  20081534.367
                  20081541.766                          47.400          41.800

 116099933.445 7  90467518.81345                  22093039.297
                  22093046.605                          46.400          34.800

 123954333.906 7  96587918.06644                  23587711.352
                  23587723.926                          43.900          26.900

 111501328.214 8  86884352.846 7                  21217980.453
  21217988.797    21217989.063                          48.300          46.700

 115739895.657 8  90186929.549 7  86429170.854 8  22024505.422
  22024516.102    22024516.941    22024515.922          48.200          47.900
        51.400
 109954687.791 7  85679148.17246                  20923656.805
                  20923666.215                          47.500          37.300

 121695808.934 7  94828026.73544                  23157928.445
                  23157941.027                          42.800          26.700

 128303393.587 6  99976629.76843                  24415294.133
                  24415311.797                          38.300          20.600

 14  3  4  0 47 30.0000000  0 12G09G16G23G30G13G19G08G07G27G03G10G28
 124526392.757 7  97033687.45343                  23696580.828
                  23696593.953                          43.900          21.800

 119218123.799 7  92897414.28645                  22686416.516
                  22686426.637                          45.000          30.900

 111922587.230 8  87212555.81646                  21298133.602
                  21298140.285                          50.100          37.400

 122325426.200 7  95318626.678 7  91347015.271 7  23277724.227
  23277736.270    23277735.613    23277736.828          44.000          43.600
        47.800
 105542800.863 7  82241286.57446                  20084093.078
                  20084100.770                          47.300          41.300

 116029213.118 7  90412412.18545                  22079581.539
                  22079589.152                          47.000          35.000

 123880182.543 7  96530138.02944                  23573601.406
                  23573612.930                          44.200          27.100

 111451918.584 8  86845851.921 7                  21208577.992
  21208585.914    21208586.406                          48.800          47.300

 115744165.686 7  90190256.921 8  86432359.585 8  22025317.594
  22025328.723    22025329.184    22025328.398          46.600          48.300
        51.400
 109931816.545 7  85661326.50146                  20919304.914
                  20919313.871                          46.800          37.200

 121734626.535 7  94858274.25244                  23165315.719
                  23165326.508                          43.400          27.600

 128211908.319 6  99905342.88043                  24397884.453
                  24397901.238                          38.800          19.600

 14  3  4  0 48  0.0000000  0 12G09G16G23G30G13G19G08G07G27G03G10G28
 124433606.249 7  96961386.48843                  23678923.016
                  23678937.727                          44.600          23.400

 119312362.861 7  92970847.29545                  22704350.258
                  22704359.980                          45.100          31.200

 111999828.126 8  87272743.50146                  21312832.141
                  21312839.512                          50.700          38.100

 122396405.992 7  95373935.596 7  91400019.659 8  23291230.516
  23291243.473    23291242.566    23291244.664          42.800          42.700
        48.700
 105556810.799 7  82252203.43846                  20086758.961
                  20086766.613                          47.700          41.700

 115958947.148 7  90357659.62345                  22066210.328
                  22066218.156                          46.000          35.100

 123806066.701 7  96472385.64644                  23559496.445
                  23559508.703                          43.700          27.300

 111402681.761 8  86807485.648 7                  21199208.156
  21199216.520    21199216.938                          48.300          47.400

 115749035.273 7  90194051.455 8  86435996.020 8  22026244.070
  22026254.879    22026255.559    22026255.012          47.300          48.000
        51.500
 109909591.201 7  85644008.11646                  20915075.398
                  20915084.363                          46.800          37.700

 121773927.029 7  94888898.01444                  23172795.109
                  23172806.844                          45.100          28.100

 128120601.767 6  99834195.41342                  24380509.063
                  24380526.207                          39.700          17.400

 14  3  4  0 48 30.0000000  0 12G09G16G23G30G13G19G08G07G27G03G10G28
 124340858.562 7  96889115.79444                  23661274.906
                  23661288.371                          45.000          24.400

 119406769.385 7  93044410.78845                  22722315.000
                  22722325.297                          45.800          31.200

 112077495.063 8  87333263.16346                  21327611.164
                  21327619.098                          49.500          37.600

 122467502.253 7  95429335.254 7  91453111.022 8  23304760.414
  23304772.480    23304772.910    23304773.598          43.600          43.900
        48.100
 105571386.706 8  82263561.31146                  20089532.430
                  20089539.668                          48.500          41.700

 115889138.463 7  90303263.38445                  22052926.234
                  22052934.555                          46.600          35.600

 123731986.549 7  96414661.07744                  23545399.578
                  23545411.539                          43.600          27.400

 111353617.835 8  86769254.108 7                  21189871.656
  21189880.035    21189880.457                          48.700          47.400

 115754504.387 7  90198313.176 7  86440080.185 8  22027284.930
  22027295.074    22027295.367    22027294.758          47.200          47.500
        51.100
 109888012.678 7  85627193.75146                  20910969.023
                  20910978.336                          47.500          37.900

 121813707.721 7  94919895.98844                  23180363.609
                  23180377.129                          43.400          28.100

 128029474.638 6  99763187.59843                  24363168.719
                  24363182.898                          39.900          20.900

 14  3  4  0 49  0.0000000  0 12G09G16G23G30G13G19G08G07G27G03G10G28
 124248150.740 7  96816876.16044                  23643632.203
                  23643646.340                          43.600          26.200

 119501341.512 7  93118103.33345                  22740312.070
                  22740321.332                          46.300          31.200

 112155586.740 8  87394113.78946                  21342471.625
                  21342479.359                          48.200          37.200

 122538715.275 7  95484825.914 7  91506289.562 7  23318311.648
  23318324.063    23318324.895    23318324.645          43.700          43.700
        47.900
 105586530.010 7  82275361.31946                  20092413.750
                  20092421.855                          47.900          41.600

 115819790.510 7  90249226.17146                  22039729.859
                  22039738.336                          46.600          36.400

 123657942.710 7  96356964.82544                  23531309.391
                  23531321.953                          45.200          28.700

 111304728.181 8  86731158.357 7                  21180568.219
  21180576.672    21180577.012                          48.700          47.600

 115760573.487 7  90203042.388 7  86444612.377 8  22028440.344
  22028450.051    22028450.254    22028449.707          46.400          47.800
        51.200
 109867082.620 7  85610884.69346                  20906986.086
                  20906995.527                          47.900          37.700

 121853967.089 7  94951266.96644                  23188025.016
                  23188037.957                          43.900          27.900

 127938528.384 6  99692320.82943                  24345861.359
                  24345877.059                          40.200          20.100

 14  3  4  0 49 30.0000000  0 12G09G16G23G30G13G19G08G07G27G03G10G28
 124155482.512 7  96744667.39544                  23625998.180
                  23626012.523                          44.800          26.200

 119596075.844 7  93191922.27845                  22758339.156
                  22758348.313                          45.400          31.400

 112234100.766 8  87455293.52746                  21357412.250
                  21357419.781                          48.500          37.900

 122610043.846 7  95540406.631 7  91559554.407 7  23331884.680
  23331897.406    23331898.340    23331897.445          44.300          44.300
        47.900
 105602238.394 8  82287601.63346                  20095403.227
                  20095410.965                          48.000          41.300

 115750904.641 7  90195549.03145                  22026620.906
                  22026628.270                          46.300          35.400

 123583934.493 7  96299296.31644                  23517225.531
                  23517239.500                          44.600          29.800

 111256012.482 8  86693198.160 7                  21171298.031
  21171306.039    21171306.332                          48.400          47.000

 115767241.560 7  90208238.362 7  86449591.852 8  22029708.750
  22029718.832    22029718.781    22029719.461          46.200          46.500
        51.500
 109846801.090 7  85595080.97046                  20903126.594
                  20903136.039                          47.900          37.700

 121894702.018 7  94983008.49644                  23195777.500
                  23195789.582                          44.800          28.900

 127847763.591 6  99621595.40143                  24328590.070
                  24328604.793                          39.700          18.300

 14  3  4  0 50  0.0000000  0 12G09G16G23G30G13G19G08G07G27G03G10G28
 124062855.384 6  96672490.64543                  23608370.141
                  23608386.012                          41.500          22.900

 119690970.693 7  93265866.29845                  22776396.930
                  22776405.539                          45.600          30.400

 112313035.796 8  87516801.30846                  21372433.375
                  21372440.254                          49.700          37.700

 122681488.468 7  95596077.778 7  91612905.929 7  23345480.391
  23345492.965    23345493.184    23345493.051          44.100          43.400
        47.400
 105618513.867 8  82300283.84346                  20098500.109
                  20098508.254                          48.800          41.700

 115682484.750 7  90142234.97245                  22013600.766
                  22013607.715                          45.300          35.700

 123509963.126 7  96241656.51844                  23503148.398
                  23503162.754                          43.900          29.500

 111207472.434 8  86655374.838 7                  21162060.750
  21162069.168    21162069.426                          49.700          47.500

 115774509.312 7  90213901.611 7  86455019.133 8  22031092.281
  22031102.148    22031102.027    22031102.594          46.700          47.500
        51.900
 109827169.715 8  85579783.85946                  20899391.086
                  20899400.352                          48.300          38.100

 121935911.352 7  95015119.68344                  23203619.883
                  23203631.848                          45.500          29.700

 127757181.828 6  99551012.57743                  24311353.352
                  24311367.605                          41.800          22.600

 14  3  4  0 50 30.0000000  0 12G09G16G23G30G13G19G08G07G27G03G10G28
 123970269.966 7  96600346.40643                  23590752.227
                  23590766.734                          42.400          23.000

 119786023.834 7  93339933.66944                  22794484.781
                  22794493.926                          45.700          29.100

 112392390.279 8  87578635.93346                  21387534.039
                  21387540.973                          48.600          37.700

 122753048.913 7  95651839.176 7  91666343.932 7  23359097.797
  23359109.652    23359110.066    23359110.758          45.200          42.200
        47.300
 105635356.684 7  82313408.14746                  20101705.086
                  20101713.371                          46.800          40.300

 115614533.852 7  90089286.35545                  22000669.844
                  22000677.762                          45.800          35.000

 123436028.413 7  96184045.26844                  23489079.977
                  23489093.141                          44.000          29.400

 111159108.338 8  86617688.611 7                  21152857.609
  21152865.617    21152866.020                          48.900          47.000

 115782376.629 7  90220032.022 8  86460894.135 8  22032589.031
  22032599.543    22032599.969    22032599.594          46.700          48.200
        52.400
 109808188.925 8  85564993.68746                  20895778.531
                  20895788.176                          49.100          37.100

 121977592.491 7  95047598.51644                  23211551.188
                  23211562.914                          45.700          28.900

 127666784.083 6  99480573.11943                  24294150.516
                  24294164.891                          41.700          20.400

 14  3  4  0 51  0.0000000  0 12G09G16G23G30G13G19G08G07G27G03G10G28
 123877726.887 6  96528235.12544                  23573141.344
                  23573155.746                          41.100          24.000

 119881232.986 7  93414122.60044                  22812602.727
                  22812611.352                          45.300          29.400

 112472162.790 8  87640796.29046                  21402714.234
                  21402721.645                          48.100          37.600

 122824725.207 7  95707690.837 7  91719868.447 7  23372737.422
  23372749.938    23372749.410    23372749.863          45.700          42.200
        47.200
 105652766.992 8  82326974.63846                  20105018.352
                  20105025.934                          48.200          41.200

 115547054.991 7  90036705.57246                  21987829.445
                  21987837.371                          47.500          36.000

 123362130.753 7  96126462.90844                  23475017.570
                  23475030.141                          44.600          29.700

 111110920.969 8  86580140.107 7                  21143687.633
  21143695.992    21143696.785                          49.100          47.300

 115790843.540 7  90226629.659 8  86467216.892 8  22034200.039
  22034210.605    22034210.891    22034210.457          47.200          48.300
        51.900
 109789860.209 8  85550711.62246                  20892290.758
                  20892300.648                          48.800          38.100

 122019743.589 7  95080443.55644                  23219571.867
                  23219583.512                          44.000          29.400

 127576572.067 6  99410278.38743                  24276983.492
                  24276996.758                          41.400          21.100

 14  3  4  0 51 30.0000000  0 12G09G16G23G30G13G19G08G07G27G03G10G28
 123785227.126 6  96456157.60844                  23555539.492
                  23555553.496                          40.500          24.700

 119976595.703 7  93488431.18544                  22830749.523
                  22830758.176                          44.800          29.100

 112552351.383 8  87703280.88446                  21417973.977
                  21417981.918                          48.000          38.300

 122896517.094 7  95763632.567 7  91773479.281 7  23386398.359
  23386411.301    23386411.367    23386411.004          44.300          42.700
        47.100
 105670745.435 8  82340983.83346                  20108439.828
                  20108447.094                          48.800          41.700

 115480051.119 7  89984494.91446                  21975078.773
                  21975086.320                          47.100          36.500

 123288270.342 7  96068909.55145                  23460961.992
                  23460974.957                          43.700          30.100

 111062911.192 8  86542729.988 7                  21134551.398
  21134559.828    21134560.355                          48.400          47.500

 115799910.020 7  90233694.499 8  86473987.366 8  22035925.313
  22035936.117    22035935.777    22035935.813          46.000          48.000
        52.100
 109772184.298 8  85536938.25246                  20888927.211
                  20888937.027                          49.000          37.700

 122062362.213 7  95113652.88444                  23227681.555
                  23227693.883                          42.800          28.300

 127486546.670 6  99340129.11843                  24259852.125
                  24259865.789                          41.300          22.200

 14  3  4  0 52  0.0000000  0 12G09G16G23G30G13G19G08G07G27G03G10G28
 123692771.022 6  96384114.07444                  23537944.750
                  23537959.246                          40.500          24.500

 120072109.788 7  93562857.71644                  22848925.109
                  22848934.078                          45.300          28.700

 112632953.941 8  87766088.05346                  21433312.320
                  21433320.465                          49.100          38.100

 122968424.145 7  95819664.061 7  91827176.128 7  23400082.430
  23400094.930    23400095.297    23400094.402          43.200          42.800
        47.800
 105689291.398 8  82355435.25746                  20111968.836
                  20111976.629                          48.300          41.000

 115413524.556 7  89932656.17246                  21962419.055
                  21962426.988                          47.300          36.100

 123214447.031 7  96011385.11344                  23446913.344
                  23446925.887                          43.300          29.000

 111015079.559 7  86505458.689 7                  21125449.391
  21125457.387    21125458.203                          47.600          47.600

 115809575.645 7  90241226.204 8  86481205.253 8  22037764.305
  22037775.066    22037775.051    22037774.617          46.400          48.000
        51.300
 109755162.185 7  85523674.33046                  20885688.711
                  20885697.375                          47.700          37.600

 122105446.047 6  95147224.74044                  23235878.906
                  23235893.332                          41.500          28.200

 127396708.612 6  99270125.76843                  24242755.516
                  24242768.773                          40.900          20.100

 14  3  4  0 52 30.0000000  0 12G09G16G23G30G13G19G08G07G27G03G10G28
 123600359.517 6  96312105.33144                  23520360.688
                  23520373.875                          41.600          25.300

 120167772.660 7  93637400.19744                  22867128.898
                  22867138.043                          45.600          29.200

 112713969.037 8  87829216.66546                  21448728.734
                  21448736.773                          49.200          38.400

 123040446.471 7  95875785.394 7  91880959.052 8  23413787.203
  23413800.527    23413800.797    23413800.547          42.300          43.500
        48.200
 105708405.637 8  82370329.49646                  20115605.867
                  20115613.914                          48.200          41.100

 115347478.465 7  89881191.82346                  21949850.906
                  21949858.195                          46.600          36.600

 123140661.615 7  95953890.18844                  23432873.453
                  23432885.063                          42.700          28.400

 110967427.025 7  86468326.929 7                  21116381.383
  21116389.313    21116390.082                          47.200          47.300

 115819840.550 7  90249224.880 7  86488870.678 8  22039718.258
  22039728.320    22039728.480    22039727.582          45.700          47.500
        51.700
 109738795.089 7  85510920.80846                  20882573.789
                  20882582.258                          47.500          37.600

 122148993.132 7  95181157.56444                  23244167.281
                  23244180.004                          42.400          29.400

 127307059.389 6  99200269.59943                  24225695.852
                  24225709.770                          41.100          20.600

 14  3  4  0 53  0.0000000  0 12G09G16G23G30G13G19G08G07G27G03G10G28
 123507992.961 6  96240131.64644                  23502782.883
                  23502797.039                          40.200          25.300

 120263581.812 7  93712056.66244                  22885361.352
                  22885369.742                          45.700          29.600

 112795394.173 7  87892664.79246                  21464223.617
                  21464230.539                          47.000          37.600

 123112583.295 7  95931995.948 7  91934827.475 8  23427515.094
  23427527.289    23427527.871    23427528.207          42.200          43.100
        48.900
 105728087.520 7  82385666.04846                  20119351.305
                  20119359.055                          47.800          40.400

 115281915.201 7  89830103.70246                  21937374.344
                  21937381.531                          44.800          36.600

 123066913.707 7  95896424.47344                  23418838.328
                  23418850.898                          42.600          28.200

 110919953.847 7  86431334.938 7                  21107348.141
  21107355.848    21107356.586                          46.800          47.500

 115830704.018 7  90257689.971 8  86496983.070 8  22041785.641
  22041795.383    22041795.863    22041795.313          45.200          48.200
        52.300
 109723082.973 7  85498677.66146                  20879583.758
                  20879592.719                          46.300          37.900

 122193000.596 6  95215449.11844                  23252540.680
                  23252553.250                          41.900          27.900

 127217599.627 6  99130561.06043                  24208671.953
                  24208687.105                          39.400          22.000

 14  3  4  0 53 30.0000000  0 12G09G16G23G30G13G19G08G07G27G03G10G28
 123415672.379 6  96168193.78843                  23485214.695
                  23485227.961                          39.600          23.200

 120359535.228 7  93786825.54045                  22903621.086
                  22903629.008                          46.300          30.400

 112877227.990 7  87956431.37046                  21479795.547
                  21479802.941                          47.800          37.400

 123184834.823 7  95988295.864 7  91988781.548 8  23441263.594
  23441276.852    23441276.551    23441277.531          42.600          43.000
        48.800
 105748337.601 8  82401445.35846                  20123205.055
                  20123212.379                          48.100          41.000

 115216837.710 7  89779394.11046                  21924990.266
                  21924997.813                          45.000          36.800

 122993203.735 7  95838988.31744                  23404812.148
                  23404824.602                          43.400          28.200

 110872661.123 8  86394483.546 7                  21098348.336
  21098355.941    21098356.680                          48.800          47.600

 115842166.062 7  90266621.495 7  86505542.449 8  22043966.742
  22043976.660    22043976.758    22043977.379          46.400          47.600
        52.000
 109708027.299 8  85486946.02746                  20876718.523
                  20876727.254                          48.000          37.900

 122237466.500 7  95250097.86544                  23261003.242
                  23261015.875                          42.700          28.100

 127128330.803 6  99061001.32443                  24191684.461
                  24191698.305                          40.900          22.000

 14  3  4  0 54  0.0000000  0 12G09G16G23G30G13G19G08G07G27G03G10G28
 123323398.294 6  96096292.20544                  23467655.086
                  23467668.793                          40.200          26.000

 120455630.710 7  93861705.11645                  22921907.617
                  22921915.695                          46.800          30.100

 112959468.639 8  88020514.95246                  21495445.672
                  21495453.203                          48.900          37.500

 123257200.820 7  96044684.955 7  92042821.098 8  23455034.617
  23455047.543    23455047.672    23455048.008          43.600          43.300
        49.200
 105769155.937 8  82417667.46847                  20127166.625
                  20127174.391                          48.900          42.000

 115152249.017 7  89729065.41046                  21912699.703
                  21912707.215                          47.100          37.200

 122919531.983 7  95781581.94944                  23390792.375
                  23390805.109                          44.100          28.900

 110825549.287 8  86357773.094 7                  21089382.922
  21089390.461    21089390.910                          49.200          47.100

 115854226.572 7  90276019.355 7  86514548.738 8  22046260.938
  22046271.508    22046271.328    22046271.832          47.400          47.300
        52.000
 109693628.611 8  85475726.33346                  20873978.727
                  20873987.879                          48.700          38.600

 122282388.537 7  95285102.03644                  23269550.766
                  23269562.957                          42.200          26.800

 127039253.810 6  98991591.11443                  24174732.625
                  24174746.656                          39.200          20.400

 14  3  4  0 54 30.0000000  0 12G09G16G23G30G13G19G08G07G27G03G10G28
 123231172.124 6  96024427.94743                  23450105.359
                  23450117.715                          41.300          23.400

 120551866.199 7  93936693.78844                  22940220.125
                  22940228.734                          46.500          29.600

 113042114.532 8  88084914.31846                  21511172.938
                  21511180.379                          49.200          37.300

 123329681.426 7  96101163.342 7  92096946.225 8  23468827.586
  23468840.250    23468839.906    23468839.949          43.000          42.900
        48.300
 105790542.956 8  82434332.69346                  20131235.945
                  20131243.797                          49.000          41.400

 115088152.025 7  89679119.82646                  21900502.180
                  21900509.816                          46.700          36.200

 122845898.979 7  95724205.77245                  23376781.070
                  23376793.102                          43.900          30.000

 110778619.514 8  86321204.509 7                  21080452.133
  21080460.535    21080460.773                          48.600          47.000

 115866885.494 8  90285883.494 8  86524001.889 8  22048670.125
  22048680.441    22048680.840    22048679.586          48.500          48.800
        51.900
 109679887.641 8  85465019.14246                  20871363.555
                  20871373.262                          48.300          38.200

 122327764.628 6  95320460.05144                  23278185.500
                  23278197.527                          41.100          25.800

 126950369.834 6  98922331.30643                  24157818.188
                  24157832.207                          37.400          19.000

 14  3  4  0 55  0.0000000  0 12G09G16G23G30G13G19G08G07G27G03G10G28
 123138994.411 6  95952601.51644                  23432564.023
                  23432577.121                          40.600          26.500

 120648239.377 7  94011789.74945                  22958559.555
                  22958568.051                          47.000          30.300

 113125163.888 8  88149628.08646                  21526976.547
                  21526984.441                          48.100          38.500

 123402276.532 7  96157730.960 7  92151156.853 8  23482641.781
  23482654.531    23482654.109    23482653.863          43.500          43.200
        48.900
 105812498.978 8  82451441.30847                  20135414.578
                  20135421.648                          48.300          42.000

 115024549.642 7  89629559.66746                  21888398.523
                  21888406.547                          45.600          36.500

 122772305.089 7  95666860.06745                  23362775.781
                  23362788.613                          43.100          30.100

 110731872.588 8  86284778.415 7                  21071556.555
  21071564.055    21071564.648                          48.100          47.800

 115880142.645 7  90296213.794 7  86533901.791 8  22051193.359
  22051203.359    22051203.543    22051202.879          47.800          47.400
        51.800
 109666805.640 8  85454825.43946                  20868874.594
                  20868883.691                          48.800          38.600

 122373592.499 7  95356170.08244                  23286907.602
                  23286919.398                          43.400          28.400

 126861680.425 6  98853223.00543                  24140940.063
                  24140954.406                          38.000          18.300

 14  3  4  0 55 30.0000000  0 12G09G16G23G30G13G19G08G07G27G03G10G28
 123046865.481 6  95880813.05744                  23415031.594
                  23415045.602                          40.600          25.900

 120744747.640 7  94086990.96645                  22976924.516
                  22976933.180                          46.300          30.600

 113208614.482 8  88214654.49846                  21542856.461
                  21542864.566                          49.300          37.500

 123474985.533 7  96214387.311 7  92205452.534 8  23496477.914
  23496490.563    23496490.480    23496490.816          44.600          43.400
        48.600
 105835023.441 8  82468992.86746                  20139700.555
                  20139708.188                          48.700          41.700

 114961444.325 7  89580386.83546                  21876389.898
                  21876398.297                          45.800          36.900

 122698750.263 7  95609544.78644                  23348778.563
                  23348791.590                          42.600          29.900

 110685308.888 8  86248495.095 7                  21062695.617
  21062703.785    21062704.105                          49.400          47.200

 115893997.309 7  90307009.681 8  86544247.860 8  22053829.180
  22053839.691    22053839.492    22053839.820          47.300          48.400
        51.900
 109654382.916 8  85445145.46546                  20866510.172
                  20866519.184                          49.100          38.400

 122419869.800 7  95392230.31344                  23295713.063
                  23295725.844                          42.500          27.500

 126773186.143 6  98784266.79043                  24124101.156
                  24124115.852                          39.600          20.900

 14  3  4  0 56  0.0000000  0 12G09G16G23G30G13G19G08G07G27G03G10G28
 122954786.483 6  95809063.52344                  23397509.563
                  23397523.539                          41.700          27.200

 120841389.132 7  94162295.98845                  22995314.711
                  22995323.695                          46.200          30.800

 113292464.606 8  88279992.21546                  21558812.484
                  21558819.816                          49.500          36.500

 123547808.466 7  96271132.451 7  92259833.311 8  23510335.461
  23510348.219    23510347.996    23510349.684          44.100          43.600
        49.500
 105858116.487 8  82486987.47146                  20144095.094
                  20144102.668                          49.400          41.800

 114898838.651 7  89531603.34246                  21864476.641
                  21864484.613                          47.200          36.700

 122625234.989 6  95552260.34044                  23334788.758
                  23334801.727                          41.700          28.000

 110638929.296 8  86212355.242 7                  21053870.344
  21053877.789    21053878.352                          48.900          47.800

 115908449.322 7  90318271.038 8  86555040.008 8  22056579.328
  22056589.930    22056589.660    22056589.871          47.600          48.100
        52.100
 109642620.108 8  85435979.71446                  20864271.789
                  20864280.648                          49.400          37.900

 122466594.125 7  95428638.87344                  23304604.164
                  23304616.730                          42.800          28.000

 126684888.119 6  98715463.41443                  24107297.820
                  24107311.516                          38.600          19.900

 14  3  4  0 56 30.0000000  0 12G09G16G23G30G13G19G08G07G27G03G10G28
 122862758.117 7  95737353.47344                  23379997.555
                  23380011.363                          42.700          26.900

 120938161.681 7  94237703.15644                  23013729.773
                  23013739.051                          45.900          29.900

 113376712.513 8  88345639.91045                  21574844.742
                  21574851.445                          49.100          35.900

 123620745.200 7  96327966.265 7  92314299.064 8  23524214.945
  23524227.543    23524227.520    23524229.145          44.700          44.100
        48.600
 105881778.518 8  82505425.43746                  20148597.914
                  20148605.199                          49.200          41.400

 114836735.711 7  89483211.56546                  21852659.234
                  21852666.965                          47.000          37.400

 122551759.385 6  95495006.78944                  23320806.242
                  23320818.773                          41.600          28.900

 110592734.820 8  86176359.622 7                  21045079.000
  21045087.074    21045087.547                          49.600          47.500

 115923498.411 7  90329997.657 8  86566278.031 8  22059443.281
  22059453.254    22059453.895    22059452.934          47.600          48.500
        51.800
 109631518.050 8  85427328.81946                  20862158.898
                  20862167.965                          48.300          38.300

 122513763.021 7  95465393.85344                  23313580.063
                  23313592.191                          43.900          27.700

 126596787.229 6  98646813.78543                  24090531.656
                  24090546.680                          39.300          19.900

 14  3  4  0 57  0.0000000  0 12G09G16G23G30G13G19G08G07G27G03G10G28
 122770781.163 7  95665683.45244                  23362495.211
                  23362508.680                          42.500          27.400

 121035062.763 7  94313210.45144                  23032169.031
                  23032178.477                          45.400          29.400

 113461356.366 8  88411596.12546                  21590952.063
                  21590958.367                          49.500          36.200

 123693795.619 7  96384888.662 7  92368849.709 8  23538116.305
  23538128.754    23538129.355    23538128.641          45.200          44.000
        48.100
 105906009.200 8  82524306.51746                  20153208.656
                  20153216.383                          48.500          41.000

 114775138.094 7  89435213.55846                  21840937.125
                  21840944.578                          46.100          37.300

 122478323.930 7  95437784.50844                  23306833.141
                  23306844.199                          42.300          28.800

 110546726.395 8  86140508.975 7                  21036324.250
  21036331.910    21036332.609                          49.100          47.900

 115939144.193 7  90342189.231 8  86577961.631 8  22062420.055
  22062430.742    22062430.902    22062429.707          46.200          48.100
        51.300
 109621077.011 8  85419193.01146                  20860172.133
                  20860181.816                          48.600          38.300

 122561374.106 7  95502493.36544                  23322640.594
                  23322653.047                          43.400          28.500

 126508884.657 6  98578318.63143                  24073804.234
                  24073818.891                          38.600          18.300

 14  3  4  0 57 30.0000000  0 12G09G16G23G30G13G19G08G07G27G03G10G28
 122678856.588 6  95594054.25144                  23345001.703
                  23345015.391                          41.200          27.300

 121132090.492 7  94388816.44744                  23050633.008
                  23050642.367                          44.800          27.900

 113546394.209 8  88477859.34945                  21607134.352
                  21607141.367                          48.200          35.800

 123766959.647 7  96441899.585 7  92423485.171 7  23552039.227
  23552051.602    23552052.367    23552050.184          44.400          44.200
        47.100
 105930808.844 7  82543630.93346                  20157927.516
                  20157935.453                          47.700          41.400

 114714048.515 7  89387611.42546                  21829312.117
                  21829318.980                          47.200          37.100

 122404929.013 7  95380593.83644                  23292866.523
                  23292877.719                          42.700          29.100

 110500904.815 8  86104803.925 7                  21027604.664
  21027612.805    21027613.082                          48.400          46.900

 115955386.325 7  90354845.506 7  86590090.562 8  22065511.086
  22065521.336    22065521.363    22065520.465          46.900          47.900
        50.700
 109611297.738 8  85411572.86246                  20858311.414
                  20858320.813                          49.900          38.800

 122609424.927 7  95539935.54044                  23331784.039
                  23331796.637                          43.700          27.600

 126421181.570 6  98509978.90143                  24057116.531
                  24057129.934                          41.400          22.600

 14  3  4  0 58  0.0000000  0 12G09G16G23G30G13G19G08G07G27G03G10G28
 122586984.787 6  95522466.14744                  23327517.844
                  23327532.066                          40.000          25.300

 121229242.350 7  94464519.15144                  23069120.148
                  23069129.730                          43.900          28.400

 113631823.561 8  88544427.64845                  21623390.883
                  21623397.742                          49.100          35.800

 123840236.697 7  96498998.573 7  92478205.025 7  23565982.523
  23565995.523    23565995.965    23565995.422          43.200          43.700
        47.100
 105956176.690 8  82563398.10647                  20162755.750
                  20162762.930                          48.700          42.100

 114653469.190 7  89340406.88046                  21817783.711
                  21817791.035                          46.800          36.500

 122331574.525 7  95323434.63645                  23278907.484
                  23278918.781                          43.900          30.000

 110455270.095 8  86069244.475 7                  21018920.906
  21018928.238    21018928.730                          49.700          47.700

 115972224.018 7  90367965.836 7  86602664.225 8  22068714.695
  22068725.398    22068725.457    22068724.793          47.000          47.900
        51.500
 109602180.509 8  85404468.59446                  20856576.523
                  20856585.477                          48.800          38.700

 122657912.977 6  95577718.41544                  23341010.469
                  23341023.750                          41.600          27.000

 126333678.664 6  98441795.14343                  24040465.547
                  24040478.613                          41.600          21.500

 14  3  4  0 58 30.0000000  0 12G09G16G23G30G13G19G08G07G27G03G10G28
 122495166.811 6  95450920.00644                  23310045.813
                  23310059.207                          40.500          25.300

 121326516.365 7  94540317.07244                  23087631.133
                  23087640.020                          45.000          28.800

 113717642.943 8  88611299.85645                  21639721.758
                  21639729.250                          48.000          35.700

 123913626.902 7  96556185.765 7  92533009.426 7  23579948.469
  23579960.602    23579960.902    23579961.590          44.100          43.900
        46.400
 105982113.240 8  82583608.43146                  20167690.813
                  20167698.523                          48.600          41.300

 114593403.138 7  89293602.28946                  21806353.563
                  21806361.520                          46.900          37.700

 122258261.132 7  95266307.45545                  23264956.281
                  23264967.891                          44.100          30.200

 110409823.368 8  86033831.515 7                  21010272.555
  21010280.477    21010280.809                          49.300          47.800

 115989657.117 7  90381550.098 8  86615682.495 8  22072032.398
  22072042.797    22072043.582    22072042.035          47.000          48.400
        51.400
 109593726.039 8  85397880.75946                  20854967.320
                  20854976.164                          48.500          38.500

 122706836.180 7  95615840.35344                  23350321.086
                  23350332.922                          42.700          25.800

 126246377.178 7  98373768.27643                  24023852.227
                  24023865.477                          42.300          23.900

 14  3  4  0 59  0.0000000  0 12G09G16G23G30G13G19G08G07G27G03G10G28
 122403403.542 6  95379416.48644                  23292583.820
                  23292596.203                          41.200          24.600

 121423910.145 7  94616208.32344                  23106164.461
                  23106173.348                          45.400          28.200

 113803850.391 7  88678474.45445                  21656125.875
                  21656133.684                          47.900          35.200

 123987129.981 7  96613460.890 7  92587898.103 7  23593935.305
  23593948.055    23593947.871    23593948.266          43.500          43.000
        46.700
 106008618.202 8  82604261.67246                  20172734.445
                  20172741.473                          48.800          41.100

 114533853.162 7  89247199.84046                  21795021.406
                  21795029.406                          47.900          38.400

 122184989.009 7  95209212.41945                  23251013.203
                  23251024.965                          44.500          31.200

 110364565.791 8  85998565.946 8                  21001659.938
  21001667.633    21001667.988                          48.700          48.300

 116007684.991 8  90395597.842 8  86629144.929 8  22075463.227
  22075473.277    22075473.699    22075472.738          48.000          48.100
        51.100
 109585934.777 8  85391809.69146                  20853484.266
                  20853494.117                          48.100          38.200

 122756191.869 7  95654299.28844                  23359713.047
                  23359724.590                          42.500          25.000

 126159278.214 6  98305899.16843                  24007276.328
                  24007290.539                          40.400          23.000

 14  3  4  0 59 30.0000000  0 12G09G16G23G30G13G19G08G07G27G03G10G28
 122311695.953 7  95307956.33544                  23275132.023
                  23275144.574                          42.400          24.000

 121521421.641 7  94692191.28744                  23124720.289
                  23124729.375                          45.000          27.900

 113890444.134 7  88745950.05646                  21672604.523
                  21672611.422                          47.900          36.200

 124060746.106 6  96670824.084 7  92642871.176 7  23607943.813
  23607956.707    23607956.105    23607956.793          41.600          42.200
        46.700
 106035691.465 8  82625357.74746                  20177886.625
                  20177893.414                          48.500          41.900

 114474821.593 7  89201201.33846                  21783788.500
                  21783795.910                          47.900          37.800

 122111758.662 7  95152149.92645                  23237077.555
                  23237089.609                          43.500          31.200

 110319498.344 8  85963448.524 7                  20993083.859
  20993091.926    20993092.309                          49.200          47.800

 116026307.393 8  90410108.852 7  86643051.331 8  22079006.820
  22079017.313    22079017.164    22079017.086          48.000          47.600
        51.100
 109578806.988 8  85386255.62846                  20852128.367
                  20852137.551                          48.400          38.100

 122805977.727 7  95693093.45744                  23369186.898
                  23369198.102                          42.700          26.000

 126072382.661 6  98238188.56043                  23990739.836
                  23990754.715                          39.700          22.000

 14  3  4  1  0  0.0000000  4  6
DSRC                                                        MARKER NUMBER
DSRC (COGO code)                                            COMMENT
   0.000      (antenna height)                              COMMENT
 +39.99147598 (latitude)                                    COMMENT
-105.26107939 (longitude)                                   COMMENT
1655.057      (elevation)                                   COMMENT
 14  3  4  1  0  0.0000000  0 12G09G16G23G30G13G19G08G07G27G03G10G28
 122220044.648 7  95236540.02044                  23257692.023
                  23257704.273                          43.100          26.500

 121619048.824 7  94768264.41344                  23143298.359
                  23143306.934                          45.700          28.300

 113977421.936 8  88813724.93146                  21689155.977
                  21689163.184                          49.000          36.500

 124134474.769 7  96728274.998 6  92697928.299 7  23621975.203
  23621986.516    23621986.125    23621987.051          42.200          41.600
        46.600
 106063332.935 7  82646896.57246                  20183146.320
                  20183153.664                          47.500          41.900

 114416311.003 7  89155608.77846                  21772654.016
                  21772660.938                          47.700          37.700

 122038570.204 7  95095120.10545                  23223150.383
                  23223161.941                          43.400          31.400

 110274621.294 8  85928479.457 8                  20984544.219
  20984551.820    20984552.125                          50.200          48.300

 116045523.557 7  90425082.532 8  86657401.125 8  22082663.383
  22082673.813    22082673.957    22082673.582          47.500          48.200
        51.600
 109572343.624 7  85381219.30546                  20850898.438
                  20850907.129                          47.500          38.800

 122856191.270 7  95732220.89644                  23378742.617
                  23378754.273                          43.700          27.600

 125985691.554 6  98170637.29643                  23974244.039
                  23974257.188                          41.700          22.200

 14  3  4  1  0 30.0000000  0 12G09G16G23G30G13G19G08G07G27G03G10G28
 122128450.159 7  95165167.98044                  23240261.422
                  23240273.824                          42.500          26.500

 121716789.161 7  94844425.71344                  23161897.734
                  23161906.266                          46.500          28.200

 114064781.595 8  88881797.36546                  21705780.070
                  21705787.152                          48.700          36.500

 124208315.578 7  96785813.293 6  92753069.179 7  23636025.555
  23636038.172    23636038.215    23636038.668          43.500          41.100
        47.200
 106091541.974 8  82668877.66646                  20188514.031
                  20188521.480                          48.000          41.200

 114358323.833 7  89110424.09446                  21761619.063
                  21761626.672                          46.700          37.500

 121965423.780 7  95038123.01844                  23209230.313
                  23209242.887                          43.200          29.600

 110229935.350 8  85893659.304 8                  20976040.805
  20976047.902    20976048.645                          48.700          48.100

 116065332.665 7  90440518.252 7  86672193.689 8  22086432.852
  22086443.199    22086443.430    22086442.527          47.500          47.600
        51.100
 109566544.575 7  85376700.61546                  20849794.734
                  20849804.020                          46.800          38.600

 122906829.500 7  95771679.24544                  23388379.141
                  23388390.121                          44.000          26.500

 125899205.596 6  98103245.94443                  23957785.352
                  23957800.887                          41.100          21.300

 14  3  4  1  1  0.0000000  0 12G09G16G23G30G13G19G08G07G27G03G10G28
 122036913.797 6  95093841.22144                  23222842.281
                  23222855.602                          41.700          27.300

 121814641.082 7  94920673.95544                  23180518.484
                  23180527.086                          46.600          28.400

 114152521.356 8  88950165.97146                  21722476.094
                  21722483.664                          48.900          36.000

 124282269.049 7  96843439.377 6  92808294.162 7  23650099.313
  23650110.969    23650110.293    23650113.152          44.300          40.400
        47.400
 106120318.955 8  82691301.30946                  20193990.328
                  20193997.691                          48.800          41.600

 114300863.100 7  89065649.60346                  21750684.656
                  21750692.234                          47.000          37.600

 121892320.076 7  94981159.25044                  23195319.508
                  23195330.945                          44.900          29.900

 110185442.041 8  85858989.254 7                  20967573.930
  20967581.508    20967581.922                          49.600          47.800

 116085734.734 7  90456416.020 7  86687429.058 8  22090315.047
  22090325.801    22090325.625    22090325.137          46.800          47.500
        51.200
 109561410.416 7  85372700.02246                  20848817.453
                  20848826.859                          47.800          38.500

 122957890.780 7  95811467.24044                  23398096.086
                  23398108.203                          44.200          27.900

 125812926.228 6  98036015.52044                  23941367.234
                  23941382.391                          41.100          25.000

 14  3  4  1  1 30.0000000  0 12G09G16G23G30G13G19G08G07G27G03G10G28
 121945436.206 6  95022560.23344                  23205433.820
                  23205447.797                          40.500          26.300

 121912601.918 7  94997007.08244                  23199160.000
                  23199168.566                          46.600          27.800

 114240639.571 8  89018829.49346                  21739244.398
                  21739251.754                          48.400          36.300

 124356334.665 6  96901152.857 6  92863602.914 7  23664192.523
  23664204.613    23664204.145    23664207.176          41.700          40.000
        47.500
 106149663.572 7  82714167.25546                  20199574.773
                  20199582.102                          47.600          41.300

 114243930.996 7  89021287.04046                  21739850.461
                  21739857.508                          46.800          37.000

 121819259.502 7  94924229.07344                  23181415.969
                  23181427.449                          44.900          28.100

 110141141.745 8  85824469.603 7                  20959143.688
  20959151.523    20959151.848                          50.000          47.500

 116106728.852 7  90472775.097 7  86703106.524 8  22094310.063
  22094320.309    22094320.375    22094319.652          47.300          47.500
        51.000
 109556941.614 8  85369217.88546                  20847966.719
                  20847975.934                          48.100          39.000

 123009372.304 7  95851582.68744                  23407892.531
                  23407903.199                          44.500          27.800

 125726854.196 6  97968946.65744                  23924988.492
                  23925002.543                          40.900          24.800

 14  3  4  1  2  0.0000000  0 12G09G16G23G30G13G19G08G07G27G03G10G28
 121854018.281 6  94951325.75844                  23188038.531
                  23188050.945                          40.400          25.200

 122010669.702 7  95073423.51444                  23217821.727
                  23217830.457                          45.800          26.500

 114329134.034 7  89087786.18746                  21756085.078
                  21756092.352                          47.800          36.500

 124430512.219 6  96958953.545 6  92918995.274 7  23678308.250
  23678320.590    23678320.273    23678321.488          40.600          40.000
        46.300
 106179575.502 7  82737475.27846                  20205266.367
                  20205273.922                          47.600          41.100

 114187530.060 7  88977338.36446                  21729118.289
                  21729125.109                          47.600          37.100

 121746242.160 7  94867332.59244                  23167521.516
                  23167531.535                          45.200          28.600

 110097035.423 8  85790101.099 8                  20950750.250
  20950758.094    20950758.301                          50.200          48.000

 116128314.366 7  90489595.024 7  86719225.633 8  22098417.445
  22098427.648    22098427.590    22098426.453          47.500          47.300
        50.800
 109553138.534 8  85366254.50746                  20847243.781
                  20847251.680                          48.600          38.100

 123061271.660 7  95892023.76644                  23417767.797
                  23417780.859                          42.900          28.000

 125640990.595 6  97902040.24943                  23908648.531
                  23908662.664                          40.100          22.800

 14  3  4  1  2 30.0000000  0 12G09G16G23G30G13G19G08G07G27G03G10G28
 121762660.555 6  94880138.16344                  23170652.148
                  23170666.168                          40.400          25.100

 122108842.194 7  95149921.55644                  23236503.195
                  23236511.199                          45.800          27.800

 114418002.339 8  89157034.18146                  21772996.188
                  21773003.801                          48.100          37.000

 124504801.304 7  97016841.149 6  92974470.903 7  23692445.336
  23692457.023    23692457.586    23692456.695          42.500          40.900
        46.200
 106210054.079 7  82761224.85146                  20211065.891
                  20211073.934                          47.600          41.200

 114131662.695 7  88933805.48246                  21718486.578
                  21718494.465                          47.600          37.600

 121673268.562 7  94810470.18244                  23153634.492
                  23153645.586                          45.500          29.800

 110053123.478 8  85755884.057 8                  20942394.148
  20942401.781    20942402.105                          49.600          48.200

 116150490.355 8  90506875.072 7  86735785.685 8  22102637.336
  22102647.285    22102647.195    22102646.469          48.000          46.400
        50.800
 109550000.798 8  85363809.57846                  20846646.203
                  20846654.926                          48.600          37.700

 123113585.945 7  95932788.11444                  23427723.430
                  23427735.832                          44.600          27.800

 125555335.801 6  97835296.52643                  23892348.430
                  23892362.449                          40.200          22.600

 14  3  4  1  3  0.0000000  0 12G09G16G23G30G13G19G08G07G27G03G10G28
 121671364.329 6  94808998.47544                  23153280.141
                  23153292.484                          41.800          25.900

 122207117.704 7  95226499.86744                  23255204.039
                  23255212.715                          44.800          27.400

 114507242.894 8  89226572.23746                  21789978.227
                  21789985.625                          48.600          36.600

 124579202.305 7  97074815.947 6  93030030.075 7  23706602.688
  23706615.102    23706615.883    23706614.344          42.400          41.300
        46.100
 106241099.536 7  82785416.13446                  20216974.164
                  20216981.340                          47.000          41.300

 114076331.782 7  88890690.60146                  21707958.000
                  21707965.105                          47.300          37.300

 121600339.283 7  94753642.34344                  23139756.109
                  23139767.773                          45.100          29.100

 110009407.459 8  85721819.687 7                  20934074.961
  20934082.848    20934082.945                          49.900          47.500

 116173256.579 7  90524615.023 7  86752786.476 8  22106969.781
  22106979.957    22106980.383    22106980.066          47.700          46.900
        51.200
 109547529.067 8  85361883.60646                  20846176.078
                  20846185.121                          48.000          37.600

 123166312.702 7  95973873.89944                  23437756.781
                  23437767.902                          45.300          27.900

 125469891.435 6  97768716.78043                  23876087.984
                  23876102.266                          40.200          22.200

 14  3  4  1  3 30.0000000  0 12G09G16G23G30G13G19G08G07G27G03G10G28
 121580130.441 6  94737907.34444                  23135917.844
                  23135930.805                          41.300          27.200

 122305493.783 7  95303156.56244                  23273924.383
                  23273933.527                          44.400          26.800

 114596853.382 7  89296398.55446                  21807030.156
                  21807037.641                          47.900          36.400

 124653714.800 6  97132877.655 6  93085672.531 7  23720782.367
  23720794.586    23720794.555    23720794.949          40.700          40.300
        46.100
 106272711.510 7  82810048.85546                  20222989.953
                  20222996.766                          47.300          41.500

 114021539.223 7  88847995.20246                  21697530.914
                  21697538.012                          47.000          37.900

 121527454.362 7  94696849.07945                  23125887.078
                  23125898.082                          45.600          30.600

 109965887.916 8  85687908.432 7                  20925793.945
  20925801.629    20925801.715                          50.500          47.500

 116196612.182 8  90542814.235 7  86770227.397 8  22111414.344
  22111424.047    22111424.586    22111424.035          48.300          47.200
        51.600
 109545723.638 8  85360476.83346                  20845832.281
                  20845840.777                          48.000          37.900

 123219449.664 7  96015279.31644                  23447868.656
                  23447880.320                          44.100          27.800

 125384658.205 6  97702301.53943                  23859869.625
                  23859882.457                          41.400          23.200

 14  3  4  1  4  0.0000000  0 12G09G16G23G30G13G19G08G07G27G03G10G28
 121488960.156 7  94666865.76744                  23118569.492
                  23118581.863                          43.100          28.600

 122403968.722 7  95379890.27144                  23292663.375
                  23292672.746                          44.300          28.100

 114686831.812 8  89366511.57646                  21824152.750
                  21824160.473                          48.200          37.000

 124728338.713 6  97191026.206 6  93141398.213 7  23734983.039
  23734994.898    23734994.109    23734995.563          41.600          40.000
        46.100
 106304889.831 7  82835122.89146                  20229113.148
                  20229119.973                          46.300          41.100

 113967287.775 7  88805721.46446                  21687206.789
                  21687213.590                          47.100          37.500

 121454614.367 7  94640090.81645                  23112025.688
                  23112037.359                          45.700          30.200

 109922565.723 8  85654150.946 7                  20917549.789
  20917557.590    20917558.000                          50.200          47.500

 116220556.549 7  90561472.219 7  86788107.962 8  22115970.305
  22115980.656    22115980.547    22115980.000          47.200          46.800
        51.300
 109544584.475 7  85359589.22646                  20845615.523
                  20845624.332                          47.600          39.100

 123272994.102 7  96057002.24644                  23458058.039
                  23458070.453                          44.200          26.800

 125299637.114 6  97636051.67543                  23843689.766
                  23843703.008                          41.100          22.200

 14  3  4  1  4 30.0000000  0 12G09G16G23G30G13G19G08G07G27G03G10G28
 121397854.018 7  94595874.15844                  23101232.430
                  23101245.051                          43.000          28.800

 122502540.152 7  95456699.16544                  23311421.273
                  23311430.391                          43.900          27.400

 114777176.162 8  89436909.74245                  21841344.484
                  21841351.906                          48.100          35.600

 124803073.736 7  97249261.300 6  93197206.864 7  23749204.523
  23749216.867    23749215.891    23749216.992          44.200          40.900
        46.700
 106337633.791 7  82860637.68846                  20235343.969
                  20235351.289                          47.300          41.600

 113913579.692 7  88763871.12346                  21676986.656
                  21676993.313                          47.900          37.300

 121381819.503 7  94583367.72045                  23098173.563
                  23098184.324                          45.500          30.400

 109879441.557 8  85620547.761 8                  20909343.594
  20909350.746    20909351.133                          50.500          48.200

 116245088.670 8  90580588.198 7  86806427.451 8  22120638.938
  22120649.324    22120649.184    22120648.223          48.200          47.200
        50.800
 109544111.878 8  85359221.02346                  20845525.469
                  20845534.473                          48.000          38.600

 123326943.291 7  96099040.59344                  23468322.961
                  23468335.914                          43.500          29.100

 125214828.866 7  97569967.60743                  23827551.688
                  23827564.730                          42.400          21.700

 14  3  4  1  5  0.0000000  0 13G09G16G23G30G13G19G08G07G27G03G10G28
                                G05
 121306813.000 7  94524933.31844                  23083907.625
                  23083920.023                          43.700          28.500

 122601206.384 7  95533581.91344                  23330196.766
                  23330206.387                          43.400          28.300

 114867884.618 7  89507591.62345                  21858605.141
                  21858613.164                          47.100          34.500

 124877920.247 7  97307583.273 7  93253098.742 7  23763447.258
  23763459.918    23763460.070    23763459.938          42.600          42.000
        47.000
 106370943.779 7  82886593.54147                  20241682.359
                  20241690.410                          47.300          42.000

 113860417.938 7  88722446.48746                  21666870.305
                  21666876.789                          47.900          36.400

 121309070.536 7  94526680.39345                  23084329.352
                  23084340.129                          46.400          30.600

 109836516.958 8  85587100.091 7                  20901174.945
  20901182.500    20901182.988                          50.200          47.800

 116270208.283 7  90600161.975 7  86825185.657 8  22125418.852
  22125428.891    22125429.031    22125428.305          46.800          47.200
        51.700
 109544306.542 8  85359372.76446                  20845562.523
                  20845571.254                          48.000          37.900

 123381295.066 7  96141392.59144                  23478666.398
                  23478679.707                          43.100          28.100

 125130234.888 6  97504050.51443                  23811453.156
                  23811466.684                          41.800          21.500

 132093477.88116                                  25136556.281
                                                        38.400

 14  3  4  1  5 30.0000000  0 13G09G16G23G30G13G19G08G07G27G03G10G28
                                G05
 121215837.889 6  94454043.81144                  23066595.008
                  23066608.074                          40.900          28.700

 122699964.806 7  95610536.50344                  23348990.352
                  23348999.500                          43.200          27.500

 114958954.769 7  89578555.34445                  21875935.695
                  21875943.180                          47.600          34.200

 124952877.560 7  97365991.596 7  93309073.362 7  23777711.680
  23777723.922    23777724.723    23777723.770          42.400          42.900
        47.500
 106404818.529 7  82912989.47246                  20248128.508
                  20248136.625                          47.800          41.300

 113807804.341 7  88681448.99746                  21656857.813
                  21656864.996                          47.300          36.500

 121236367.583 7  94470028.90345                  23070494.297
                  23070505.152                          45.900          30.100

 109793792.116 8  85553808.078 8                  20893044.367
  20893051.984    20893052.426                          50.100          48.100

 116295914.157 7  90620192.551 7  86844381.646 8  22130310.555
  22130320.641    22130320.840    22130319.703          45.800          47.400
        50.900
 109545167.907 7  85360044.01246                  20845726.164
                  20845735.074                          46.600          38.100

 123436046.191 7  96184055.84144                  23489084.766
                  23489098.754                          45.100          27.900

 125045855.495 6  97438300.65243                  23795396.102
                  23795408.664                          41.400          21.100

 132058902.699 5 102903125.98216                  25129976.148
  25129993.113    25129992.035                          34.800          38.700

 14  3  4  1  6  0.0000000  0 13G09G16G23G30G13G19G08G07G27G03G10G28
                                G05
 121124930.035 6  94383206.70844                  23049295.000
                  23049308.145                          39.900          27.200

 122798813.926 7  95687561.78544                  23367799.977
                  23367809.758                          43.500          28.500

 115050384.976 7  89649799.64745                  21893334.398
                  21893341.430                          47.900          34.100

 125027945.890 7  97424486.429 7  93365130.895 8  23791997.039
  23792009.422    23792010.145    23792009.840          43.700          43.600
        48.200
 106439258.077 8  82939825.50446                  20254682.148
                  20254689.992                          49.000          41.700

 113755741.670 7  88640880.78846                  21646950.297
                  21646957.785                          47.000          36.900

 121163711.224 7  94413413.74544                  23056667.688
                  23056678.945                          45.800          29.300

 109751268.624 8  85520672.956 8                  20884952.703
  20884960.547    20884961.211                          50.600          48.200

 116322205.767 7  90640679.563 7  86864015.038 8  22135314.117
  22135324.031    22135324.473    22135323.340          47.000          47.200
        50.900
 109546696.185 8  85361234.94146                  20846017.344
                  20846025.855                          50.100          38.600

 123491194.666 7  96227028.64444                  23499579.977
                  23499591.445                          44.300          28.300

 124961692.189 6  97372719.15143                  23779380.625
                  23779393.313                          40.300          21.700

 132024826.450 5 102876573.009 6                  25123491.633
  25123510.746    25123507.598                          32.900          38.200

 14  3  4  1  6 30.0000000  0 13G09G16G23G30G13G19G08G07G27G03G10G28
                                G05
 121034089.829 6  94312422.31944                  23032009.336
                  23032021.668                          40.000          26.300

 122897751.158 7  95764655.71644                  23386627.156
                  23386636.727                          42.600          26.300

 115142172.597 7  89721322.43145                  21910800.852
                  21910808.277                          47.800          34.500

 125103124.674 7  97483067.290 7  93421270.894 8  23806303.406
  23806315.340    23806315.398    23806316.086          44.400          43.400
        48.600
 106474261.704 7  82967101.07446                  20261343.461
                  20261350.738                          47.500          41.800

 113704231.716 7  88600743.26146                  21637148.227
                  21637155.555                          46.800          36.900

 121091101.295 7  94356834.76845                  23042851.500
                  23042861.813                          46.800          30.100

 109708946.578 8  85487694.831 8                  20876899.234
  20876906.910    20876907.555                          49.400          48.400

 116349081.844 7  90661622.009 7  86884084.889 8  22140428.117
  22140438.211    22140438.270    22140437.543          47.300          47.300
        51.100
 109548891.206 8  85362945.39846                  20846435.078
                  20846443.953                          48.000          38.400

 123546737.687 7  96270308.92444                  23510149.406
                  23510162.266                          43.100          27.600

 124877745.373 6  97307306.32443                  23763405.438
                  23763418.773                          40.600          22.500

 131991249.432 6 102850409.094 6                  25117103.180
  25117121.848    25117118.250                          36.900          37.900

 14  3  4  1  7  0.0000000  0 13G09G16G23G30G13G19G08G07G27G03G10G28
                                G05
 120943318.377 6  94241691.50144                  23014735.133
                  23014748.340                          39.900          27.500

 122996774.738 7  95841816.93644                  23405470.813
                  23405480.703                          42.100          26.500

 115234315.489 8  89793122.03145                  21928335.047
                  21928342.859                          48.800          34.000

 125178413.879 7  97541734.176 7  93477493.339 8  23820630.109
  23820642.652    23820642.926    23820642.621          42.200          43.500
        48.600
 106509828.942 8  82994815.82046                  20268111.070
                  20268118.484                          48.800          40.900

 113653277.034 8  88561038.42046                  21627451.945
                  21627459.367                          48.200          37.200

 121018538.474 7  94300292.48945                  23029042.336
                  23029053.324                          46.100          31.000

 109666827.290 8  85454874.683 8                  20868883.742
  20868891.789    20868892.215                          48.900          48.700

 116376541.705 8  90683019.362 7  86904590.680 8  22145653.711
  22145663.180    22145663.332    22145662.609          48.500          47.500
        51.300
 109551753.066 8  85365175.46846                  20846979.367
                  20846988.195                          49.400          38.000

 123602672.503 7  96313894.49944                  23520794.023
                  23520806.332                          44.900          29.600

 124794015.920 6  97242062.91444                  23747472.547
                  23747485.688                          41.100          24.200

 131958172.677 6 102824635.090 5                  25110809.227
  25110823.723    25110823.676                          37.300          34.800

 14  3  4  1  7 30.0000000  0 13G09G16G23G30G13G19G08G07G27G03G10G28
                                G05
 120852616.449 6  94171014.87144                  22997475.766
                  22997488.051                          41.900          26.400

 123095882.718 7  95919043.91944                  23424330.352
                  23424339.918                          42.100          26.500

 115326811.548 7  89865196.86545                  21945936.977
                  21945943.797                          47.900          34.200

 125253813.253 7  97600486.898 7  93533798.051 8  23834977.883
  23834990.750    23834991.227    23834989.453          42.300          44.100
        48.300
 106545959.262 8  83022969.33646                  20274986.766
                  20274994.281                          48.000          41.400

 113602879.661 8  88521767.85946                  21617862.367
                  21617868.875                          48.300          37.100

 120946023.147 7  94243787.20445                  23015243.242
                  23015254.027                          46.000          30.700

 109624911.355 8  85422212.993 8                  20860907.391
  20860915.008    20860915.438                          50.000          48.400

 116404584.222 7  90704870.708 7  86925531.571 8  22150990.039
  22150999.871    22151000.211    22150999.602          47.100          47.200
        51.100
 109555281.310 8  85367924.81246                  20847650.500
                  20847659.625                          48.300          38.000

 123658996.189 7  96357783.08844                  23531511.273
                  23531524.340                          42.600          27.600

 124710504.619 6  97176989.50643                  23731581.219
                  23731593.461                          41.700          22.800

 131925597.137 5 102799251.722 5                  25104608.930
  25104623.578    25104625.316                          34.900          33.000

 14  3  4  1  8  0.0000000  0 13G09G16G23G30G13G19G08G07G27G03G10G28
                                G05
 120761985.106 7  94100393.20844                  22980229.703
                  22980241.113                          43.100          25.600

 123195072.696 7  95996334.79244                  23443205.375
                  23443214.945                          42.100          26.100

 115419658.694 7  89937545.28245                  21963605.086
                  21963612.496                          47.900          33.800

 125329322.757 6  97659325.477 7  93590185.025 8  23849346.531
  23849359.723    23849360.441    23849359.488          40.800          44.800
        48.200
 106582652.293 7  83051561.32846                  20281968.906
                  20281976.453                          47.900          41.600

 113553042.334 7  88482933.68046                  21608377.898
                  21608384.227                          47.600          37.700

 120873555.888 7  94187319.38945                  23001453.672
                  23001463.945                          47.300          31.300

 109583199.834 8  85389710.584 8                  20852970.117
  20852977.684    20852978.219                          49.600          48.100

 116433208.714 7  90727175.509 7  86946907.024 8  22156436.281
  22156447.055    22156447.379    22156446.711          46.600          47.300
        51.100
 109559476.305 7  85371193.68746                  20848448.938
                  20848457.770                          46.300          38.200

 123715706.551 7  96401972.98844                  23542303.258
                  23542314.551                          43.400          26.700

 124627212.246 6  97112086.72343                  23715729.500
                  23715742.043                          41.100          22.200

 131893523.755 5 102774259.576 5                  25098504.289
  25098520.160    25098521.941                          33.100          35.900

 14  3  4  1  8 30.0000000  0 13G09G16G23G30G13G19G08G07G27G03G10G28
                                G05
 120671425.192 7  94029827.21843                  22962996.656
                  22963007.406                          43.300          23.500

 123294342.864 7  96073688.15844                  23462096.422
                  23462105.977                          42.100          28.400

 115512854.740 7  90010165.56145                  21981339.859
                  21981346.684                          45.200          35.100

 125404942.083 6  97718249.655 7  93646654.039 8  23863736.961
  23863749.371    23863750.203    23863750.598          40.400          43.700
        48.500
 106619907.362 8  83080591.27047                  20289058.406
                  20289066.082                          48.300          42.100

 113503766.793 7  88444537.25946                  21599001.445
                  21599007.855                          47.100          38.900

 120801137.159 7  94130889.37745                  22987672.367
                  22987683.473                          46.300          31.200

 109541693.321 8  85357367.927 8                  20845071.547
  20845079.172    20845079.613                          48.700          48.500

 116462414.025 7  90749932.938 7  86968716.230 8  22161993.938
  22162004.137    22162004.141    22162004.059          44.900          46.700
        50.800
 109564337.881 7  85374981.97846                  20849373.594
                  20849382.605                          47.200          38.300

 123772800.469 7  96446461.74944                  23553167.758
                  23553180.328                          42.600          28.100

 124544139.743 6  97047355.31543                  23699921.859
                  23699934.867                          39.700          22.500

 131861952.901 5 102749658.902 6                  25092498.094
  25092513.711    25092513.352                          34.800          37.800

 14  3  4  1  9  0.0000000  0 13G09G16G23G30G13G19G08G07G27G03G10G28
                                G05
 120580937.869 7  93959317.77144                  22945776.102
                  22945788.188                          42.600          27.500

 123393691.460 6  96151102.64844                  23481001.508
                  23481010.770                          40.900          26.200

 115606397.609 7  90083056.08545                  21999140.516
                  21999147.938                          46.800          34.800

 125480671.260 6  97777259.389 7  93703205.049 8  23878147.367
  23878159.789    23878160.188    23878161.230          41.700          43.300
        48.100
 106657723.986 8  83110058.78946                  20296254.688
                  20296262.340                          48.500          41.300

 113455055.450 8  88406580.47646                  21589731.797
                  21589739.254                          48.700          38.500

 120728767.320 7  94074497.44745                  22973900.398
                  22973912.008                          45.000          30.200

 109500393.117 8  85325186.014 8                  20837212.336
  20837219.957    20837220.551                          49.400          48.800

 116492199.333 7  90773142.299 7  86990958.534 8  22167661.875
  22167672.070    22167671.645    22167671.449          46.700          46.000
        50.800
 109569865.972 7  85379289.63746                  20850425.727
                  20850434.078                          47.500          37.600

 123830275.733 7  96491247.64744                  23564104.578
                  23564116.223                          42.300          26.000

 124461288.013 6  96982795.91643                  23684155.109
                  23684167.125                          40.100          22.900

 131830885.624 6 102725450.712 6                  25086585.391
  25086601.762    25086602.164                          38.700          36.900

 14  3  4  1  9 30.0000000  0 13G09G16G23G30G13G19G08G07G27G03G10G28
                                G05
 120490524.154 7  93888865.70144                  22928571.469
                  22928583.188                          42.300          25.800

 123493116.433 6  96228576.63844                  23499921.602
                  23499930.453                          40.900          25.300

 115700284.898 8  90156214.97745                  22017006.719
                  22017013.844                          48.900          35.500

 125556510.087 6  97836354.585 7  93759837.945 7  23892579.000
  23892591.445    23892591.707    23892591.867          41.800          43.700
        47.600
 106696101.522 8  83139963.38946                  20303557.820
                  20303565.500                          48.500          40.900

 113406910.392 8  88369064.94946                  21580569.531
                  21580577.254                          48.200          38.400

 120656446.820 7  94018143.96145                  22960137.773
                  22960149.379                          44.400          31.200

 109459300.133 8  85293165.579 8                  20829392.313
  20829400.000    20829400.723                          48.800          48.300

 116522563.643 7  90796802.833 7  87013633.225 8  22173440.320
  22173450.074    22173450.258    22173449.477          46.600          46.300
        50.800
 109576060.239 7  85384116.38746                  20851604.695
                  20851613.258                          47.500          37.900

 123888129.476 7  96536328.47444                  23575114.375
                  23575125.320                          43.100          27.300

 124378658.117 7  96918409.43344                  23668432.461
                  23668443.945                          42.200          24.500

 131800322.477 6 102701635.361 5                  25080770.484
  25080785.277    25080784.977                          38.800          32.500

 14  3  4  1 10  0.0000000  0 13G09G16G23G30G13G19G08G07G27G03G10G28
                                G05
 120400184.968 7  93818471.69344                  22911379.719
                  22911392.457                          42.900          26.900

 123592615.688 6  96306108.51544                  23518855.016
                  23518864.645                          41.100          26.100

 115794514.688 8  90229640.75645                  22034937.789
                  22034945.520                          48.400          35.100

 125632458.323 6  97895535.017 7  93816552.525 7  23907030.922
  23907044.313    23907044.301    23907043.172          40.900          42.900
        46.500
 106735039.464 8  83170304.65146                  20310967.398
                  20310974.645                          48.400          40.900

 113359333.924 7  88331992.47946                  21571516.359
                  21571523.094                          47.900          38.700

 120584176.175 7  93961829.31744                  22946385.328
                  22946396.250                          45.300          29.900

 109418415.206 8  85261307.260 8                  20821612.109
  20821619.617    20821620.223                          50.000          48.700

 116553505.867 7  90820913.707 7  87036739.485 8  22179328.422
  22179338.172    22179338.188    22179337.699          46.300          46.600
        50.800
 109582920.570 7  85389462.14346                  20852910.313
                  20852919.121                          47.300          37.800

 123946358.873 7  96581701.97044                  23586194.586
                  23586207.102                          43.400          28.100

 124296250.614 6  96854196.16744                  23652748.547
                  23652762.520                          39.900          24.800

 131770264.101 6 102678213.496 4                  25075051.117
  25075056.664    25075063.891                          37.900          25.400

 14  3  4  1 10 30.0000000  0 13G09G16G23G30G13G19G08G07G27G03G10G28
                                G05
 120309921.049 7  93748136.39244                  22894204.344
                  22894215.465                          44.100          28.800

 123692187.194 7  96383696.68944                  23537804.305
                  23537812.230                          43.800          25.200

 115889084.779 7  90303331.70545                  22052934.109
                  22052941.516                          47.600          34.900

 125708515.809 6  97954800.565 7  93873348.684 7  23921504.094
  23921516.945    23921516.969    23921516.309          41.500          42.300
        46.500
 106774536.869 8  83201081.85646                  20318483.625
                  20318491.152                          48.600          41.500

 113312328.096 8  88295364.67746                  21562571.148
                  21562578.121                          48.100          38.300

 120511955.485 7  93905553.60045                  22932641.383
                  22932653.594                          44.600          31.500

 109377738.966 8  85229611.567 8                  20813871.641
  20813879.938    20813880.156                          49.700          49.300

 116585024.924 7  90845474.056 7  87060276.475 8  22185326.016
  22185335.773    22185335.488    22185335.176          47.100          46.400
        50.600
 109590446.781 7  85395326.76846                  20854342.328
                  20854351.035                          47.600          38.100

 124004961.021 7  96627366.00244                  23597346.398
                  23597357.898                          43.100          27.200

 124214066.249 6  96790156.75244                  23637109.461
                  23637122.246                          41.100          25.800

 131740711.343 6 102655185.470 5                  25069426.023
  25069439.039    25069439.680                          38.300          34.000

 14  3  4  1 11  0.0000000  0 13G09G16G23G30G13G19G08G07G27G03G10G28
                                G05
 120219733.921 7  93677860.86944                  22877041.789
                  22877053.750                          43.500          27.300

 123791829.533 7  96461340.09244                  23556765.016
                  23556773.746                          43.400          26.700

 115983993.331 7  90377286.39645                  22070994.313
                  22071002.031                          47.700          35.200

 125784682.695 6  98014151.375 6  93930226.553 7  23935997.984
  23936011.113    23936011.023    23936011.535          40.800          41.200
        46.500
 106814593.651 8  83232294.95046                  20326106.172
                  20326113.711                          48.500          41.300

 113265895.394 7  88259183.45946                  21553735.008
                  21553742.551                          47.800          38.200

 120439785.898 7  93849317.71945                  22918908.102
                  22918919.453                          44.500          30.700

 109337273.049 8  85198079.756 8                  20806171.711
  20806179.129    20806179.840                          49.100          49.400

 116617120.105 7  90870483.319 7  87084243.694 8  22191433.984
  22191443.680    22191443.863    22191442.785          47.700          46.700
        50.300
 109598638.940 7  85401710.31646                  20855901.094
                  20855909.406                          46.900          38.000

 124063933.787 7  96673318.78844                  23608568.688
                  23608581.516                          44.100          26.800

 124132106.146 7  96726292.14144                  23621513.039
                  23621524.637                          42.800          25.800

 131711665.158 6 102632552.109 6                  25063899.180
  25063915.133    25063912.480                          38.200          38.100

 14  3  4  1 11 30.0000000  0 13G09G16G23G30G13G19G08G07G27G03G10G28
                                G05
 120129624.794 7  93607646.12844                  22859893.320
                  22859906.313                          43.200          29.100

 123891540.736 7  96539037.13144                  23575739.055
                  23575748.387                          43.900          26.100

 116079238.095 7  90451503.05745                  22089118.602
                  22089126.992                          46.900          34.600

 125860959.116 6  98073587.569 6  93987186.237 7  23950513.609
  23950526.023    23950526.227    23950526.328          40.600          41.500
        46.100
 106855209.979 8  83263944.04946                  20333835.109
                  20333842.648                          48.400          41.700

 113220038.239 7  88223450.68646                  21545008.742
                  21545015.918                          47.200          38.600

 120367668.105 7  93793122.18945                  22905184.492
                  22905196.004                          45.100          31.600

 109297018.874 8  85166712.937 8                  20798511.633
  20798518.879    20798519.406                          48.600          49.000

 116649790.549 7  90895940.828 7  87108640.496 8  22197651.023
  22197660.902    22197661.180    22197659.691          45.600          47.900
        50.400
 109607496.982 7  85408612.73046                  20857586.945
                  20857594.695                          47.600          37.800

 124123274.383 6  96719558.23944                  23619859.930
                  23619874.699                          41.600          26.700

 124050371.457 7  96662603.14444                  23605958.641
                  23605971.777                          42.000          25.700

 131683126.352 6 102610314.147 6                  25058467.984
  25058485.359    25058482.465                          36.000          39.700

 14  3  4  1 12  0.0000000  0 13G09G16G23G30G13G19G08G07G27G03G10G28
                                G05
 120039593.678 7  93537492.20744                  22842761.844
                  22842773.211                          43.200          27.900

 123991318.407 7  96616785.99444                  23594726.250
                  23594736.090                          42.500          26.000

 116174816.139 7  90525979.42145                  22107306.789
                  22107314.371                          46.200          34.300

 125937344.150 7  98133108.393 6  94044227.018 7  23965049.453
  23965060.844    23965061.609    23965061.008          42.300          41.300
        46.500
 106896383.682 8  83296027.47546                  20341669.922
                  20341677.422                          48.500          41.700

 113174758.207 8  88188167.65046                  21536392.297
                  21536399.098                          48.300          39.200

 120295601.710 7  93736966.70945                  22891470.266
                  22891481.852                          42.700          31.600

 109256975.876 8  85135510.667 8                  20790891.281
  20790899.172    20790899.465                          48.900          48.700

 116683034.450 7  90921845.183 7  87133465.518 8  22203976.461
  22203986.797    22203987.078    22203985.766          45.900          47.400
        50.400
 109617019.896 8  85416033.23046                  20859398.672
                  20859407.328                          48.500          38.100

 124182979.712 7  96766081.82944                  23631223.094
                  23631234.613                          44.500          26.500

 123968862.048 6  96599089.68444                  23590448.547
                  23590460.941                          41.700          25.900

 131655094.636 5 102588471.297 6                  25053133.906
  25053150.395    25053147.855                          35.300          38.000

 14  3  4  1 12 30.0000000  0 13G09G16G23G30G13G19G08G07G27G03G10G28
                                G05
 119949641.916 7  93467400.09844                  22825644.258
                  22825656.035                          43.500          27.800

 124091160.486 6  96694585.01544                  23613725.656
                  23613735.883                          41.700          25.600

 116270725.676 7  90600714.10245                  22125558.430
                  22125565.730                          47.600          34.200

 126013837.800 7  98192713.858 6  94101348.890 7  23979605.281
  23979616.984    23979617.254    23979618.059          42.400          41.100
        46.300
 106938114.270 7  83328544.82946                  20349611.500
                  20349618.527                          47.500          41.300

 113130057.042 7  88153335.68946                  21527886.180
                  21527892.906                          47.000          38.600

 120223587.492 7  93680851.89645                  22877766.922
                  22877777.887                          43.700          31.400

 109217145.470 7  85104474.053 8                  20783311.820
  20783319.230    20783319.820                          47.600          48.500

 116716850.740 7  90948195.564 7  87158717.988 8  22210412.023
  22210421.531    22210421.602    22210420.176          47.000          47.000
        50.000
 109627207.817 7  85423971.90946                  20861337.492
                  20861346.055                          46.700          38.100

 124243046.856 7  96812887.40544                  23642653.320
                  23642663.730                          44.200          25.800

 123887578.953 6  96535752.58144                  23574980.234
                  23574991.758                          41.900          25.800

 131627570.995 6 102567024.399 5                  25047896.477
  25047910.754    25047910.738                          38.300          35.200

 14  3  4  1 13  0.0000000  0 13G09G16G23G30G13G19G08G07G27G03G10G28
                                G05
 119859770.758 7  93397370.81544                  22808541.469
                  22808553.434                          43.400          28.200

 124191065.511 6  96772433.09344                  23632736.813
                  23632746.992                          41.200          24.800

 116366964.423 7  90675705.30545                  22143871.430
                  22143879.645                          47.500          33.700

 126090440.003 7  98252403.884 6  94158551.826 7  23994181.953
  23994193.789    23994194.090    23994196.066          42.200          39.900
        46.400
 106980401.282 8  83361495.77246                  20357658.195
                  20357665.449                          48.200          41.700

 113085937.042 7  88118956.56646                  21519490.305
                  21519497.785                          47.600          39.000

 120151626.124 7  93624778.25345                  22864072.961
                  22864083.984                          45.200          31.700

 109177528.840 8  85073604.016 8                  20775772.945
  20775780.383    20775780.828                          49.600          48.300

 116751238.433 7  90974991.200 7  87184397.155 8  22216955.727
  22216966.016    22216966.109    22216964.621          47.200          47.200
        49.800
 109638060.058 7  85432428.25146                  20863402.688
                  20863411.258                          47.400          38.100

 124303473.152 7  96859972.83944                  23654151.586
                  23654162.094                          44.200          26.900

 123806522.884 6  96472592.32044                  23559554.648
                  23559566.434                          41.700          24.600

 131600556.248 6 102545974.127 5                  25042755.492
  25042769.863    25042769.414                          39.600          34.600

 14  3  4  1 13 30.0000000  0 13G09G16G23G30G13G19G08G07G27G03G10G28
                                G05
 119769981.411 7  93327405.27544                  22791455.023
                  22791466.746                          43.400          28.900

 124291031.598 6  96850328.75244                  23651759.703
                  23651769.043                          40.900          24.600

 116463530.230 7  90750951.33445                  22162247.648
                  22162255.664                          47.500          33.300

 126167150.752 6  98312178.510 6  94215835.857 7  24008779.008
  24008791.676    24008792.219    24008793.730          41.700          40.600
        46.300
 107023244.115 8  83394879.80147                  20365810.789
                  20365818.855                          50.100          42.000

 113042400.348 8  88085031.96346                  21511205.492
                  21511212.594                          48.500          39.200

 120079718.113 7  93568746.18345                  22850389.469
                  22850400.316                          45.000          32.400

 109138127.210 8  85042901.509 8                  20768275.258
  20768282.258    20768282.531                          49.500          48.000

 116786196.534 7  91002231.304 7  87210502.271 8  22223608.063
  22223617.660    22223617.930    22223617.379          46.400          46.700
        50.500
 109649576.680 8  85441402.27946                  20865594.508
                  20865602.543                          49.200          38.300

 124364256.159 7  96907336.21344                  23665718.094
                  23665729.750                          45.000          25.600

 123725694.776 7  96409609.77543                  23544173.844
                  23544184.742                          42.700          23.000

 131574051.203 6 102525320.981 6                  25037711.602
  25037725.527    25037725.535                          39.300          36.100

 14  3  4  1 14  0.0000000  0 13G09G16G23G30G13G19G08G07G27G03G10G28
                                G05
 119680274.749 7  93257504.18244                  22774384.703
                  22774396.020                          44.000          29.100

 124391056.780 7  96928270.47343                  23670793.789
                  23670803.258                          42.200          23.200

 116560420.661 7  90826450.32845                  22180684.898
                  22180693.559                          47.900          33.200

 126243969.786 7  98372037.538 6  94273200.753 7  24023398.055
  24023409.762    24023411.078    24023411.004          42.400          40.300
        45.900
 107066641.890 8  83428696.26246                  20374068.813
                  20374076.859                          48.900          41.300

 112999448.821 7  88051563.33846                  21503031.750
                  21503037.945                          47.900          38.400

 120007863.820 7  93512755.95345                  22836716.586
                  22836726.906                          46.300          33.200

 109098941.170 8  85012366.978 8                  20760818.359
  20760825.402    20760825.930                          49.300          48.100

 116821723.611 7  91029914.780 7  87237032.261 8  22230368.445
  22230377.754    22230378.102    22230377.844          47.800          46.800
        51.100
 109661756.910 8  85450893.41046                  20867912.328
                  20867920.789                          49.300          38.100

 124425393.052 7  96954975.29944                  23677352.586
                  23677364.059                          42.500          24.900

 123645095.308 6  96346805.31843                  23528836.938
                  23528846.523                          41.900          22.300

 131548055.789 6 102505064.897 6                  25032765.156
  25032779.059    25032778.605                          38.900          36.400

 14  3  4  1 14 30.0000000  0 13G09G16G23G30G13G19G08G07G27G03G10G28
                                G05
 119590651.826 7  93187668.34544                  22757329.984
                  22757340.895                          45.000          28.600

 124491139.153 6  97006256.72944                  23689838.773
                  23689847.895                          40.800          25.200

 116657633.588 8  90902200.61145                  22199184.102
                  22199192.313                          48.800          33.400

 126320896.976 6  98431980.811 6  94330646.379 7  24038036.852
  24038048.688    24038049.008    24038047.703          41.500          40.300
        45.500
 107110593.908 8  83462944.61146                  20382433.133
                  20382440.285                          49.500          41.100

 112957084.615 8  88018552.37346                  21494970.422
                  21494976.434                          48.300          38.600

 119936063.997 7  93456808.16445                  22823053.289
                  22823063.930                          46.800          33.200

 109059971.961 8  84982001.412 8                  20753402.484
  20753409.730    20753410.270                          49.200          49.000

 116857818.618 7  91058040.788 7  87263986.364 8  22237237.188
  22237246.836    22237247.004    22237246.512          47.800          46.900
        50.300
 109674600.128 8  85460901.15546                  20870355.938
                  20870364.652                          48.800          38.700

 124486880.874 7  97002887.91043                  23689052.875
                  23689064.086                          43.900          23.600

 123564725.543 6  96284179.89043                  23513542.070
                  23513553.035                          40.100          21.700

 131522570.756 6 102485206.547 5                  25027914.563
  25027928.793    25027927.984                          36.300          34.200

 14  3  4  1 15  0.0000000  0 13G09G16G23G30G13G19G08G07G27G03G10G28
                                G05
 119501113.497 7  93117898.44544                  22740291.813
                  22740302.145                          44.800          27.800

 124591276.713 6  97084286.00244                  23708893.945
                  23708902.945                          40.500          24.500

 116755166.629 8  90978200.35345                  22217744.188
                  22217751.504                          49.000          33.300

 126397931.879 6  98492008.015 6  94388172.445 7  24052695.922
  24052708.547    24052707.836    24052706.063          41.900          40.700
        44.800
 107155098.872 8  83497623.82346                  20390902.070
                  20390909.293                          49.600          41.400

 112915309.476 8  87986000.41546                  21487020.633
                  21487026.895                          49.200          38.700

 119864318.821 7  93400902.98345                  22809400.195
                  22809410.746                          45.600          33.000

 109021220.057 8  84951805.171 8                  20746028.203
  20746035.414    20746035.891                          49.100          48.600

 116894479.947 8  91086608.084 7  87291363.362 8  22244213.570
  22244222.859    22244222.953    22244222.055          48.200          46.700
        50.000
 109688106.081 8  85471425.31346                  20872925.813
                  20872934.277                          49.200          37.900

 124548716.929 7  97051071.85644                  23700819.352
                  23700831.594                          42.900          25.500

 123484585.788 6  96221733.62543                  23498291.086
                  23498302.660                          39.900          23.000

 131497596.246 6 102465746.055 5                  25023162.539
  25023176.910    25023175.648                          36.600          32.900

 14  3  4  1 15 30.0000000  0 13G09G16G23G30G13G19G08G07G27G03G10G28
                                G05
 119411661.195 7  93048195.56744                  22723268.602
                  22723279.887                          44.900          28.600

 124691467.635 6  97162356.85243                  23727959.695
                  23727969.137                          40.400          23.500

 116853017.774 7  91054447.97845                  22236364.445
                  22236371.730                          47.900          33.000

 126475074.724 7  98552119.308 6  94445779.128 7  24067376.758
  24067388.105    24067387.375    24067386.953          42.400          40.100
        45.000
 107200156.505 8  83532733.68146                  20399476.508
                  20399483.801                          49.300          41.500

 112874125.414 7  87953909.03746                  21479183.172
                  21479190.367                          47.500          38.300

 119792629.210 7  93345041.09745                  22795757.992
                  22795768.410                          44.600          32.800

 108982686.970 8  84921779.448 8                  20738695.781
  20738702.902    20738703.508                          50.000          49.300

 116931706.744 7  91115616.011 7  87319162.632 8  22251297.328
  22251307.180    22251307.289    22251305.918          46.800          46.700
        50.500
 109702274.608 8  85482465.75446                  20875622.453
                  20875630.813                          49.600          38.300

 124610898.318 6  97099524.86843                  23712651.367
                  23712664.418                          41.500          22.900

 123404676.952 7  96159467.38943                  23483085.867
                  23483095.695                          42.400          23.900

 131473133.557 6 102446684.354 5                  25018506.664
  25018520.574    25018520.063                          37.200          34.700

 14  3  4  1 16  0.0000000  0 13G09G16G23G30G13G19G08G07G27G03G10G28
                                G05
 119322295.992 7  92978560.57344                  22706262.711
                  22706274.652                          43.100          27.400

 124791710.629 6  97240468.27043                  23747034.781
                  23747044.512                          40.400          22.600

 116951184.742 7  91130941.69645                  22255044.828
                  22255052.168                          47.100          31.500

 126552325.409 7  98612314.644 6  94503466.340 7  24082076.609
  24082088.086    24082087.727    24082087.652          42.000          40.900
        44.500
 107245766.003 8  83568273.55246                  20408155.055
                  20408162.742                          49.100          41.300

 112833534.387 7  87922279.75346                  21471459.008
                  21471465.441                          47.700          37.800

 119720995.484 7  93289222.73945                  22782126.398
                  22782136.852                          44.600          31.900

 108944373.527 8  84891924.866 8                  20731404.656
  20731412.211    20731412.691                          50.200          48.700

 116969497.779 7  91145063.600 7  87347383.240 8  22258488.547
  22258498.434    22258498.918    22258497.434          46.500          47.200
        50.700
 109717104.680 8  85494021.69246                  20878444.320
                  20878453.039                          48.600          38.800

 124673422.427 6  97148244.96144                  23724549.219
                  23724563.668                          41.300          24.600

 123324999.881 7  96097381.65144                  23467923.180
                  23467934.297                          42.300          24.700

 131449182.515 6 102428021.310 6                  25013949.273
  25013963.445    25013963.367                          40.900          37.400

 14  3  4  1 16 30.0000000  0 13G09G16G23G30G13G19G08G07G27G03G10G28
                                G05
 119233018.665 7  92908994.06744                  22689273.094
                  22689285.742                          43.000          29.100

 124892003.216 6  97318618.33343                  23766119.633
                  23766130.109                          39.800          22.900

 117049665.041 7  91207679.56145                  22273785.055
                  22273792.152                          46.900          31.200

 126629683.500 6  98672593.688 7  94561233.763 7  24096797.008
  24096809.473    24096809.484    24096808.711          41.000          42.300
        44.500
 107291926.125 8  83604242.49746                  20416939.086
                  20416946.859                          49.300          41.000

 112793538.051 7  87891113.85746                  21463847.914
                  21463853.688                          47.600          37.900

 119649417.965 7  93233448.18145                  22768505.367
                  22768515.629                          44.300          31.200

 108906280.559 8  84862242.108 8                  20724155.758
  20724163.180    20724163.762                          49.200          48.200

 117007851.389 7  91174949.551 7  87376023.962 8  22265787.641
  22265797.570    22265798.063    22265797.047          46.600          47.000
        50.000
 109732595.572 8  85506092.55446                  20881391.961
                  20881400.203                          49.800          38.600

 124736286.283 7  97197229.72544                  23736513.258
                  23736526.297                          42.900          24.700

 123245554.957 6  96035476.83543                  23452804.172
                  23452816.137                          41.100          23.900

 131425743.795 6 102409757.483 6                  25009489.891
  25009503.410    25009502.633                          40.800          38.600

 14  3  4  1 17  0.0000000  0 13G09G16G23G30G13G19G08G07G27G03G10G28
                                G05
 119143830.305 7  92839496.87644                  22672301.836
                  22672313.051                          43.600          29.600

 124992343.574 6  97396805.64143                  23785214.367
                  23785224.762                          39.200          22.900

 117148456.211 7  91284659.66945                  22292584.578
                  22292592.098                          47.900          31.900

 126707148.722 6  98732956.213 7  94619081.182 7  24111538.445
  24111551.125    24111550.668    24111549.656          40.200          42.000
        44.600
 107338635.760 8  83640639.62246                  20425827.844
                  20425835.277                          50.200          41.400

 112754138.135 7  87860412.72346                  21456350.227
                  21456356.180                          47.900          38.100

 119577897.228 7  93177717.85045                  22754895.148
                  22754905.355                          43.900          30.400

 108868409.025 8  84832731.885 8                  20716949.070
  20716956.559    20716956.691                          49.500          48.400

 117046766.245 7  91205272.836 7  87405083.787 8  22273192.344
  22273202.223    22273202.211    22273201.719          47.000          46.300
        50.300
 109748746.870 8  85518678.03046                  20884465.922
                  20884473.543                          50.200          37.900

 124799486.861 7  97246476.91944                  23748540.117
                  23748552.027                          44.600          25.300

 123166343.062 7  95973753.58044                  23437730.875
                  23437742.082                          43.700          26.000

 131402817.633 6 102391893.077 6                  25005126.836
  25005140.906    25005141.156                          39.000          38.400

 14  3  4  1 17 30.0000000  0 13G09G16G23G30G13G19G08G07G27G03G10G28
                                G05
 119054731.820 7  92770069.71944                  22655347.141
                  22655358.719                          43.400          29.800

 125092730.051 6  97475028.88543                  23804317.203
                  23804327.336                          41.100          22.900

 117247555.767 8  91361880.07045                  22311442.758
                  22311450.453                          48.600          32.200

 126784720.723 6  98793401.938 7  94677008.317 7  24126299.547
  24126312.434    24126312.246    24126311.703          41.100          42.000
        45.600
 107385893.894 8  83677464.13946                  20434820.758
                  20434828.137                          50.600          40.600

 112715336.514 7  87830177.77946                  21448966.336
                  21448972.539                          47.800          38.200

 119506433.841 7  93122032.21245                  22741296.000
                  22741305.551                          44.000          31.400

 108830759.626 8  84803394.743 8                  20709784.555
  20709791.750    20709792.043                          49.900          48.400

 117086240.774 7  91236032.250 7  87434561.556 8  22280704.094
  22280713.625    22280713.609    22280712.770          47.300          45.700
        50.700
 109765557.556 8  85531777.30346                  20887664.547
                  20887672.598                          49.900          38.700

 124863021.244 7  97295984.20343                  23760630.258
                  23760641.855                          43.500          22.800

 123087364.346 7  95912212.01044                  23422701.266
                  23422712.391                          42.000          25.800

 131380404.259 6 102374428.195 6                  25000861.234
  25000875.523    25000875.949                          37.100          38.100

 14  3  4  1 18  0.0000000  0 13G09G16G23G30G13G19G08G07G27G03G10G28
                                G05
 118965724.641 7  92700713.72345                  22638409.109
                  22638420.988                          44.900          30.000

 125193160.984 6  97553286.74943                  23823428.391
                  23823438.398                          41.400          23.000

 117346962.084 8  91439339.52145                  22330359.398
                  22330366.777                          49.200          32.600

 126862400.045 6  98853931.251 7  94735015.595 7  24141080.664
  24141094.316    24141094.445    24141095.191          40.900          42.400
        46.500
 107433700.177 8  83714715.80746                  20443917.891
                  20443925.449                          50.200          41.500

 112677135.389 7  87800410.75346                  21441696.898
                  21441703.820                          47.600          37.500

 119435028.698 7  93066391.97645                  22727707.813
                  22727718.094                          44.300          30.800

 108793334.471 8  84774232.344 8                  20702662.945
  20702669.730    20702670.383                          49.800          48.400

 117126274.258 7  91267227.205 7  87464456.731 8  22288322.273
  22288331.605    22288331.797    22288330.371          47.000          45.900
        49.700
 109783027.753 8  85545390.46746                  20890989.297
                  20890997.195                          49.700          37.500

 124926887.088 7  97345749.77144                  23772782.570
                  23772795.629                          44.000          25.800

 123008620.069 7  95850853.15944                  23407716.914
                  23407727.363                          42.900          24.600

 131358504.362 6 102357363.429 6                  24996693.102
  24996707.328    24996708.621                          39.100          37.500

 14  3  4  1 18 30.0000000  0 13G09G16G23G30G13G19G08G07G27G03G10G28
                                G05
 118876809.646 7  92631429.54845                  22621489.094
                  22621499.934                          44.600          30.200

 125293634.309 6  97631577.64343                  23842548.430
                  23842556.977                          40.400          21.500

 117446672.251 8  91517035.72545                  22349333.906
                  22349341.137                          48.200          32.900

 126940186.123 6  98914543.766 7  94793102.606 7  24155883.875
  24155896.797    24155897.152    24155898.484          39.400          42.500
        47.000
 107482053.529 8  83752393.75246                  20453119.266
                  20453127.273                          50.500          40.900

 112639536.209 7  87771112.77246                  21434542.289
                  21434549.094                          47.900          38.100

 119363682.218 7  93010797.44345                  22714130.406
                  22714141.184                          44.700          31.500

 108756133.648 8  84745244.755 8                  20695583.438
  20695591.152    20695591.543                          49.000          49.000

 117166864.986 7  91298856.370 7  87494768.020 8  22296046.336
  22296056.207    22296056.820    22296055.512          45.800          46.200
        50.500
 109801156.781 8  85559517.02546                  20894439.234
                  20894447.074                          50.900          38.600

 124991081.305 7  97395771.19944                  23784999.594
                  23785012.102                          44.600          26.100

 122930110.964 7  95789677.46444                  23392776.664
                  23392786.406                          42.800          25.900

 131337117.998 6 102340698.839 6                  24992623.953
  24992637.578    24992638.273                          40.100          36.100

 14  3  4  1 19  0.0000000  0 13G09G16G23G30G13G19G08G07G27G03G10G28
                                G05
 118787988.042 7  92562218.13345                  22604586.453
                  22604597.648                          43.800          31.200

 125394148.537 6  97709900.44643                  23861675.852
                  23861684.637                          41.100          21.100

 117546684.142 7  91594967.03445                  22368364.930
                  22368372.590                          46.200          33.300

 127018078.781 6  98975239.343 7  94851269.215 7  24170705.813
  24170719.477    24170719.563    24170719.898          38.700          42.300
        46.600
 107530952.833 8  83790497.10646                  20462424.516
                  20462431.805                          50.500          40.100

 112602540.590 7  87742285.10046                  21427501.891
                  21427509.203                          47.900          38.400

 119292395.249 7  92955249.30545                  22700565.727
                  22700576.195                          45.900          32.000

 108719158.373 8  84716432.909 8                  20688547.109
  20688554.613    20688554.824                          49.300          49.300

 117208011.473 7  91330918.584 7  87525494.311 8  22303876.547
  22303885.926    22303885.961    22303885.645          44.100          45.800
        50.900
 109819943.674 8  85574156.20446                  20898014.070
                  20898022.098                          49.900          38.300

 125055601.136 7  97446046.40944                  23797276.695
                  23797289.391                          44.000          26.400

 122851837.378 6  95728685.32244                  23377880.945
                  23377891.344                          40.500          24.900

 131316245.754 6 102324434.873 5                  24988651.680
  24988665.180    24988665.453                          39.700          34.800

 14  3  4  1 19 30.0000000  0 13G09G16G23G30G13G19G08G07G27G03G10G28
                                G05
 118699260.970 7  92493080.36945                  22587702.117
                  22587712.387                          44.700          31.000

 125494701.577 6  97788253.45843                  23880810.750
                  23880819.617                          40.500          22.300

 117646995.527 7  91673131.70945                  22387453.711
                  22387461.047                          46.900          31.800

 127096077.755 6  99036017.764 6  94909515.194 7  24185548.227
  24185561.434    24185561.262    24185561.480          38.100          41.400
        46.700
 107580396.930 8  83829024.99346                  20471833.414
                  20471840.445                          49.100          40.500

 112566150.445 7  87713929.20846                  21420577.000
                  21420583.141                          47.600          37.900

 119221167.974 7  92899747.66445                  22687011.758
                  22687021.363                          44.700          32.000

 108682409.386 8  84687797.400 8                  20681554.297
  20681561.305    20681561.625                          48.300          48.500

 117249712.213 7  91363412.700 7  87556634.497 8  22311811.563
  22311821.324    22311820.914    22311820.777          44.900          45.300
        50.100
 109839387.297 8  85589307.11746                  20901713.805
                  20901722.387                          49.200          37.900

 125120443.226 7  97496572.65644                  23809615.195
                  23809628.469                          43.800          27.300

 122773799.763 7  95667877.00444                  23363030.727
                  23363041.941                          43.100          26.100

 131295887.727 6 102308571.558 5                  24984777.539
  24984790.738    24984791.148                          39.900          34.900

 14  3  4  1 20  0.0000000  0 13G09G16G23G30G13G19G08G07G27G03G10G28
                                G05
 118610629.841 7  92424017.34244                  22570835.867
                  22570846.789                          44.500          29.500

 125595291.955 6  97866635.59543                  23899952.281
                  23899961.363                          40.500          22.300

 117747603.717 7  91751527.66945                  22406598.664
                  22406607.066                          46.600          31.500

 127174183.051 6  99096879.001 6  94967840.577 7  24200411.555
  24200424.328    24200423.984    24200424.617          38.800          41.000
        46.800
 107630384.984 7  83867976.73346                  20481346.031
                  20481352.715                          47.200          40.400

 112530367.577 8  87686046.54346                  21413767.563
                  21413773.949                          48.200          38.400

 119150001.238 7  92844293.19245                  22673469.328
                  22673479.141                          44.900          31.800

 108645888.118 7  84659339.327 8                  20674604.516
  20674611.590    20674611.809                          46.700          48.800

 117291965.914 7  91396337.703 7  87588187.617 8  22319851.711
  22319861.605    22319862.055    22319860.566          46.500          46.400
        49.900
 109859487.227 7  85604969.43646                  20905538.523
                  20905546.699                          47.300          38.400

 125185604.905 7  97547347.95344                  23822015.430
                  23822027.898                          42.800          25.600

 122695999.213 6  95607253.46344                  23348225.563
                  23348236.883                          41.600          24.900

 131276044.449 6 102293109.406 5                  24981001.750
  24981015.996    24981015.168                          40.900          34.000

 14  3  4  1 20 30.0000000  0 13G09G16G23G30G13G19G08G07G27G03G10G28
                                G05
 118522095.593 7  92355029.79245                  22553988.727
                  22553998.891                          45.600          31.800

 125695917.681 6  97945045.26843                  23919100.383
                  23919109.883                          40.000          22.300

 117848506.556 7  91830153.24145                  22425799.844
                  22425807.777                          46.200          31.600

 127252394.501 6  99157822.953 6  95026245.219 7  24215294.367
  24215307.504    24215307.512    24215308.199          39.600          41.800
        47.700
 107680915.850 8  83907351.43646                  20490961.555
                  20490968.844                          48.400          40.200

 112495193.270 7  87658638.07246                  21407074.086
                  21407080.426                          47.800          38.100

 119078895.560 7  92788886.29745                  22659937.453
                  22659947.848                          44.900          31.400

 108609595.503 7  84631059.421 8                  20667698.391
  20667705.570    20667705.797                          47.300          48.700

 117334771.016 7  91429692.371 7  87620152.510 8  22327997.141
  22328007.180    22328007.609    22328005.715          46.400          46.100
        50.200
 109880242.333 7  85621142.28546                  20909488.180
                  20909496.254                          47.800          37.700

 125251083.570 6  97598370.27944                  23834475.523
                  23834488.047                          41.600          26.000

 122618436.320 7  95546815.05644                  23333466.555
                  23333476.680                          43.800          26.400

 131256715.822 7 102278048.277 5                  24977323.469
  24977337.445    24977337.055                          42.200          33.300

 14  3  4  1 21  0.0000000  0 13G09G16G23G30G13G19G08G07G27G03G10G28
                                G05
 118433659.394 7  92286118.63945                  22537159.898
                  22537170.402                          45.600          30.400

 125796577.125 6  98023481.22443                  23938255.750
                  23938265.305                          41.800          22.000

 117949701.939 7  91909006.73945                  22445057.156
                  22445064.648                          47.000          32.000

 127330711.996 6  99218849.576 7  95084729.053 7  24230197.945
  24230211.059    24230211.301    24230211.699          39.900          42.200
        47.100
 107731988.648 8  83947148.42246                  20500680.141
                  20500688.160                          49.200          40.800

 112460629.657 8  87631705.46646                  21400496.555
                  21400503.738                          48.500          38.800

 119007851.414 7  92733527.37545                  22646418.430
                  22646428.586                          45.500          32.100

 108573532.690 8  84602958.580 8                  20660835.633
  20660842.781    20660842.961                          48.500          49.100

 117378126.150 7  91463475.620 7  87652528.140 8  22336247.789
  22336257.672    22336257.801    22336256.137          46.000          46.800
        49.800
 109901652.357 8  85637825.45246                  20913562.219
                  20913570.395                          48.900          38.100

 125316876.467 7  97649637.46944                  23846995.188
                  23847009.246                          42.100          26.800

 122541111.740 7  95486562.36743                  23318751.055
                  23318762.633                          42.000          23.400

 131237902.614 6 102263388.743 5                  24973743.742
  24973756.246    24973757.063                          40.900          35.900

 14  3  4  1 21 30.0000000  0 13G09G16G23G30G13G19G08G07G27G03G10G28
                                G05
 118345322.326 7  92217284.72945                  22520349.594
                  22520360.000                          45.300          30.200

 125897268.498 6  98101942.05743                  23957416.648
                  23957426.324                          41.200          22.600

 118051187.378 7  91988086.24945                  22464369.148
                  22464376.535                          47.000          31.900

 127409135.130 6  99279958.549 6  95143291.791 7  24245121.859
  24245134.047    24245134.715    24245134.234          41.600          41.700
        46.600
 107783602.232 8  83987366.80646                  20510502.219
                  20510509.754                          48.400          40.700

 112426677.935 8  87605249.65446                  21394036.250
                  21394042.848                          48.100          39.100

 118936869.650 7  92678217.04645                  22632910.750
                  22632921.254                          45.500          32.000

 108537700.446 7  84575037.412 8                  20654017.148
  20654024.289    20654024.684                          47.900          49.500

 117422029.661 7  91497686.178 7  87685313.267 8  22344602.281
  22344612.512    22344612.637    22344610.742          46.200          46.700
        49.500
 109923716.177 8  85655018.08346                  20917761.195
                  20917769.410                          48.800          38.800

 125382980.379 7  97701146.99143                  23859575.008
                  23859586.398                          43.100          23.900

 122464025.824 7  95426495.59244                  23304083.219
                  23304093.383                          44.600          26.800

 131219604.594 7 102249130.663 6                  24970261.563
  24970275.070    24970274.773                          42.400          37.500

 14  3  4  1 22  0.0000000  0 13G09G16G23G30G13G19G08G07G27G03G10G28
                                G05
 118257085.331 7  92148528.80144                  22503558.281
                  22503569.535                          45.100          29.800

 125997990.133 7  98180426.47343                  23976583.203
                  23976592.340                          42.200          22.600

 118152960.218 7  92067389.70945                  22483735.930
                  22483743.332                          47.800          32.600

 127487663.648 7  99341149.605 6  95201933.206 7  24260065.125
  24260076.941    24260077.332    24260077.609          42.400          41.100
        45.500
 107835755.006 8  84028005.33646                  20520426.250
                  20520433.848                          49.300          40.600

 112393339.477 8  87579271.72346                  21387691.914
                  21387698.336                          48.100          38.800

 118865950.554 7  92622955.56345                  22619415.688
                  22619425.637                          46.400          33.100

 108502099.647 8  84547296.586 8                  20647242.727
  20647249.477    20647249.797                          49.400          49.100

 117466479.794 7  91532322.663 7  87718506.583 8  22353061.398
  22353071.090    22353071.414    22353069.520          46.600          47.300
        49.800
 109946432.757 8  85672719.35946                  20922083.703
                  20922091.703                          49.200          38.400

 125449392.101 7  97752896.34044                  23872212.461
                  23872225.367                          42.800          26.000

 122387178.843 7  95366615.03444                  23289458.648
                  23289468.840                          43.200          26.700

 131201822.128 6 102235274.302 6                  24966877.609
  24966891.648    24966891.285                          41.300          38.100

 14  3  4  1 22 30.0000000  0 13G09G16G23G30G13G19G08G07G27G03G10G28
                                G05
 118168949.553 7  92079851.71444                  22486786.125
                  22486797.184                          44.500          29.900

 126098740.272 6  98258933.08743                  23995755.766
                  23995765.273                          40.900          22.500

 118255018.217 7  92146915.38045                  22503156.938
                  22503164.328                          47.400          33.400

 127566297.476 6  99402422.699 6  95260653.247 7  24275027.703
  24275040.457    24275040.496    24275042.184          40.200          40.000
        45.400
 107888446.064 8  84069063.30346                  20530453.250
                  20530460.391                          48.700          40.400

 112360616.000 8  87553772.98446                  21381465.148
                  21381471.340                          49.300          38.900

 118795095.029 7  92567743.61245                  22605931.578
                  22605941.926                          46.200          33.200

 108466731.524 8  84519737.070 8                  20640512.055
  20640519.449    20640519.574                          49.000          49.100

 117511475.176 7  91567384.011 7  87752107.063 8  22361623.359
  22361633.027    22361633.336    22361631.789          46.200          47.100
        50.300
 109969801.199 8  85690928.56346                  20926530.750
                  20926538.461                          49.200          37.300

 125516108.894 7  97804883.41344                  23884908.273
                  23884922.566                          42.500          24.600

 122310571.934 7  95306921.53844                  23274882.102
                  23274891.605                          45.500          27.600

 131184554.745 6 102221819.250 6                  24963592.063
  24963605.465    24963605.066                          39.500          37.300

