     2.11           OBSERVATION DATA    G (GPS)             RINEX VERSION / TYPE
teqc  2014Jan16     NOAA/NOS/NGS/CORS   20140322 00:19:01UTCPGM / RUN BY / DATE
Solaris x86 5.10|AMD64|cc SC5.8 -xarch=amd64|=+|=+          COMMENT
   0.000      (antenna height)                              COMMENT
 +39.99147598 (latitude)                                    COMMENT
-105.26107939 (longitude)                                   COMMENT
1655.057      (elevation)                                   COMMENT
BIT 2 OF LLI FLAGS DATA COLLECTED UNDER A/S CONDITION       COMMENT
DSRC (COGO code)                                            COMMENT
DSRC                                                        MARKER NAME
DSRC                                                        MARKER NUMBER
Seth I. Gutman      ESRL                                    OBSERVER / AGENCY
5051K72749          TRIMBLE NETR9       4.60                REC # / TYPE / VERS
1441107284          TRM57971.00     NONE                    ANT # / TYPE
 -1288338.0320 -4721989.8640  4078321.1770                  APPROX POSITION XYZ
        0.0000        0.0000        0.0000                  ANTENNA: DELTA H/E/N
     1     1                                                WAVELENGTH FACT L1/2
    11    L1    L2    L5    C1    P1    C2    P2    C5    S1# / TYPES OF OBSERV
          S2    S5                                          # / TYPES OF OBSERV
    30.0000                                                 INTERVAL
    16                                                      LEAP SECONDS
 SNR is mapped to RINEX snr flag value [0-9]                COMMENT
  L1 & L2: min(max(int(snr_dBHz/6), 0), 9)                  COMMENT
teqc windowed: start @ 2014 Mar 21 00:00:00.000             COMMENT
teqc windowed: delta = 86400.000 sec                        COMMENT
teqc edited: all SBAS satellites excluded                   COMMENT
teqc edited: all Galileo satellites excluded                COMMENT
teqc edited: all Compass satellites excluded                COMMENT
teqc edited: all QZSS satellites excluded                   COMMENT
  2014     3    21     0     0    0.0000000     GPS         TIME OF FIRST OBS
                                                            END OF HEADER
 14  3 21  0  0  0.0000000  0 13G09G16G13G23G07G19G30G27G03G10G08G28
                                G05
 120565444.420 6  93947235.51744                  22942834.328
                  22942846.508                          41.300          25.600

 123949324.308 7  96583985.50844                  23586747.203
                  23586758.344                          43.800          26.100

 106764227.758 8  83193041.29146                  20316533.883
                  20316542.078                          49.000          41.300

 116025494.511 7  90409606.44545                  22078916.422
                  22078925.906                          47.800          34.700

 109402804.157 8  85249048.417 8                  20818631.258
  20818639.563    20818640.059                          48.400          48.400

 113368795.814 7  88339424.58746                  21573334.781
                  21573343.750                          47.200          38.100

 116596055.139 7  90854286.818 7  87068699.325 8  22187496.305
  22187508.883    22187509.238    22187508.871          46.700          47.200
        51.500
 116528803.160 7  90801700.986 7  87018324.565 8  22174645.000
  22174656.543    22174656.426    22174655.996          47.900          46.900
        50.200
 109447421.044 8  85283798.52846                  20827112.867
                  20827123.246                          49.000          38.100

 123894379.190 7  96541162.12344                  23576311.133
                  23576324.066                          42.700          27.400

 120082481.753 7  93570888.07345                  22850922.719
                  22850934.047                          45.600          31.900

 124356955.391 6  96901605.24344                  23664327.750
                  23664339.820                          41.200          24.700

 131584773.926 5 102533487.232 6                  25039709.375
  25039727.531    25039724.313                          35.000          38.900

 14  3 21  0  0 30.0000000  0 13G09G16G13G23G07G19G30G27G03G10G08G28
                                G05
 120474917.738 7  93876695.36344                  22925608.641
                  22925619.754                          43.000          25.600

 124049445.891 7  96662002.22944                  23605799.328
                  23605810.863                          43.300          25.100

 106804126.258 8  83224131.00946                  20324126.219
                  20324135.496                          49.400          40.700

 116120716.345 7  90483805.14645                  22097036.867
                  22097046.102                          47.900          33.900

 109362184.053 8  85217396.436 8                  20810901.844
  20810909.777    20810910.488                          49.600          48.300

 113322735.005 7  88303533.11846                  21564569.641
                  21564578.668                          47.200          37.900

 116528471.471 7  90801624.298 7  87018231.089 8  22174635.547
  22174647.574    22174648.121    22174647.934          46.600          47.000
        51.000
 116559963.723 7  90825981.959 7  87041593.813 8  22180574.758
  22180585.574    22180585.371    22180585.582          46.400          46.500
        49.500
 109452581.149 7  85287819.40246                  20828095.320
                  20828104.969                          47.400          37.800

 123952307.975 7  96586301.35844                  23587334.344
                  23587347.973                          42.400          26.900

 120011159.161 7  93515312.12045                  22837350.461
                  22837361.473                          46.000          31.300

 124274531.430 6  96837379.05844                  23648640.875
                  23648656.102                          40.100          27.300

 131555993.375 6 102511060.867 6                  25034233.656
  25034249.242    25034248.125                          36.800          37.100

 14  3 21  0  1  0.0000000  0 13G09G16G13G23G07G19G30G27G03G10G08G28
                                G05
 120384465.489 7  93806213.20844                  22908394.852
                  22908407.516                          42.000          27.000

 124149633.057 7  96740070.02644                  23624864.945
                  23624876.371                          42.900          24.700

 106844582.304 8  83255655.16446                  20331825.109
                  20331833.910                          49.200          41.100

 116216271.482 8  90558263.59545                  22115220.773
                  22115229.582                          48.400          34.100

 109321773.945 8  85185908.084 8                  20803211.930
  20803219.883    20803220.523                          49.300          48.900

 113277250.065 8  88268090.39546                  21555914.688
                  21555922.164                          48.800          37.800

 116461016.096 7  90749061.738 7  86967858.654 8  22161798.859
  22161811.891    22161811.938    22161811.926          47.000          46.400
        51.300
 116591701.133 7  90850712.402 7  87065293.811 8  22186614.414
  22186625.141    22186625.117    22186624.977          45.800          46.100
        49.900
 109458407.790 8  85292359.65746                  20829203.875
                  20829213.410                          48.600          37.100

 124010611.575 7  96631732.69544                  23598428.969
                  23598441.824                          42.900          27.200

 119939892.610 7  93459779.82145                  22823789.258
                  22823800.281                          45.100          33.000

 124192331.001 6  96773327.04744                  23632998.445
                  23633013.875                          40.500          26.200

 131527720.603 6 102489030.259 6                  25028854.070
  25028867.988    25028868.238                          39.500          36.000

 14  3 21  0  1 30.0000000  0 13G09G16G13G23G07G19G30G27G03G10G08G28
                                G05
 120294088.202 7  93735789.48544                  22891197.234
                  22891209.348                          44.600          28.100

 124249883.857 6  96818187.42744                  23643941.445
                  23643953.082                          41.600          25.200

 106885595.510 8  83287613.48246                  20339629.195
                  20339638.094                          49.900          41.100

 116312157.209 7  90632979.63245                  22133467.094
                  22133475.625                          47.600          33.500

 109281574.435 8  85154583.836 8                  20795562.617
  20795570.473    20795571.352                          49.100          48.800

 113232342.778 8  88233097.78846                  21547368.797
                  21547377.086                          48.500          38.400

 116393689.314 7  90696599.385 7  86917582.248 8  22148987.594
  22148999.609    22148999.707    22148999.984          47.200          46.000
        51.300
 116624013.953 7  90875891.209 7  87089423.514 8  22192763.148
  22192774.715    22192774.773    22192773.988          46.300          46.700
        49.700
 109464900.425 7  85297418.86246                  20830439.242
                  20830448.898                          47.700          37.100

 124069287.069 7  96677453.74944                  23609595.727
                  23609608.164                          44.100          27.000

 119868682.090 7  93404291.19545                  22810238.266
                  22810249.398                          46.300          31.900

 124110354.811 6  96709449.77644                  23617398.570
                  23617412.758                          41.600          25.900

 131499955.878 6 102467395.540 6                  25023570.875
  25023584.441    25023584.336                          40.300          36.800

 14  3 21  0  2  0.0000000  0 13G09G16G13G23G07G19G30G27G03G10G08G28
                                G05
 120203787.343 7  93665425.30444                  22874013.992
                  22874026.156                          43.700          27.800

 124350196.118 6  96896352.71344                  23663030.195
                  23663042.531                          40.800          24.200

 106927165.579 8  83320005.72546                  20347539.813
                  20347548.434                          50.000          40.600

 116408371.936 7  90707952.00945                  22151775.883
                  22151784.945                          47.200          33.400

 109241586.804 8  85123424.695 8                  20787952.648
  20787960.953    20787961.438                          49.300          48.400

 113188015.877 8  88198557.40746                  21538933.539
                  21538942.371                          48.400          38.200

 116326492.238 7  90644238.096 7  86867402.698 8  22136200.203
  22136212.191    22136212.188    22136212.820          46.700          45.500
        52.100
 116656901.483 7  90901517.831 8  87113982.374 8  22199021.273
  22199032.980    22199033.324    22199032.188          45.200          48.100
        49.800
 109472059.483 7  85302997.36246                  20831801.383
                  20831811.539                          47.800          37.600

 124128332.123 7  96723462.84544                  23620830.242
                  23620845.141                          42.400          26.900

 119797528.533 7  93348846.95345                  22796697.930
                  22796708.918                          45.300          31.400

 124028603.921 7  96645748.06544                  23601842.672
                  23601856.355                          42.600          27.400

 131472700.287 6 102446157.485 6                  25018383.805
  25018398.328    25018398.047                          39.500          37.000

 14  3 21  0  2 30.0000000  0 13G09G16G13G23G07G19G30G27G03G10G08G28
                                G05
 120113563.700 7  93595121.27744                  22856843.945
                  22856856.594                          42.600          26.500

 124450568.165 6  96974564.55743                  23682131.266
                  23682142.363                          39.800          22.000

 106969292.147 8  83352831.59846                  20355556.453
                  20355564.875                          50.200          40.200

 116504913.444 7  90783179.02245                  22170147.430
                  22170156.465                          46.300          32.700

 109201812.088 7  85092431.456 8                  20780384.023
  20780392.000    20780392.453                          46.300          48.200

 113144271.706 7  88164471.11546                  21530609.148
                  21530617.426                          45.900          38.100

 116259425.582 7  90591978.435 7  86817320.546 8  22123437.633
  22123449.758    22123449.816    22123450.504          46.200          45.200
        51.700
 116690362.654 7  90927591.464 7  87138969.605 8  22205389.031
  22205400.164    22205400.457    22205399.438          45.600          47.600
        49.300
 109479884.407 7  85309094.70646                  20833290.703
                  20833300.684                          47.800          37.100

 124187743.842 7  96769757.62744                  23632137.133
                  23632149.918                          44.300          26.700

 119726432.473 7  93293447.50945                  22783168.602
                  22783179.820                          45.300          32.400

 123947079.304 7  96582222.61344                  23586328.891
                  23586343.777                          43.400          26.800

 131445954.477 6 102425316.640 5                  25013293.703
  25013308.488    25013307.734                          37.500          35.400

 14  3 21  0  3  0.0000000  0 13G09G16G13G23G07G19G30G27G03G10G08G28
                                G05
 120023418.267 7  93524878.20944                  22839689.609
                  22839702.285                          42.900          28.500

 124550998.545 6  97052821.88243                  23701242.633
                  23701254.145                          39.700          23.600

 107011973.806 8  83386089.99846                  20363678.383
                  20363686.918                          49.300          40.700

 116601779.120 7  90858658.63945                  22188580.367
                  22188589.152                          46.800          33.200

 109162251.073 7  85061604.730 8                  20772855.680
  20772863.879    20772864.184                          47.300          48.800

 113101111.322 7  88130839.72646                  21522395.680
                  21522404.043                          45.600          38.300

 116192489.945 7  90539820.871 7  86767336.241 8  22110700.188
  22110711.531    22110711.918    22110712.898          45.800          45.500
        51.900
 116724396.230 7  90954111.130 7  87164384.302 8  22211865.320
  22211876.605    22211876.797    22211874.957          46.400          47.700
        48.800
 109488374.930 8  85315710.70446                  20834906.172
                  20834916.152                          48.300          37.000

 124247519.724 7  96816336.14644                  23643511.125
                  23643525.703                          42.400          26.500

 119655394.250 7  93238093.12245                  22769650.570
                  22769661.480                          46.600          32.100

 123865781.113 7  96518873.60344                  23570858.063
                  23570871.543                          43.700          25.800

 131419718.270 6 102404872.935 5                  25008301.805
  25008313.594    25008314.730                          36.700          32.300

 14  3 21  0  3 30.0000000  0 13G09G16G13G23G07G19G30G27G03G10G08G28
                                G05
 119933352.591 7  93454697.30344                  22822551.125
                  22822563.383                          43.500          27.700

 124651484.830 6  97131122.76643                  23720364.086
                  23720374.910                          40.400          22.800

 107055210.400 8  83419780.82246                  20371906.250
                  20371914.688                          48.800          41.100

 116698967.125 7  90934389.42745                  22207074.563
                  22207084.164                          47.000          34.000

 109122904.993 8  85030945.491 8                  20765368.195
  20765376.277    20765376.559                          48.300          48.700

 113058536.995 7  88097665.00446                  21514294.555
                  21514302.828                          47.300          38.300

 116125686.233 7  90487766.111 7  86717450.445 8  22097987.406
  22097999.121    22097999.090    22098000.309          46.800          44.700
        51.700
 116759001.264 7  90981076.071 7  87190225.725 8  22218449.781
  22218461.656    22218461.645    22218460.512          46.500          47.200
        49.400
 109497531.178 8  85322845.45646                  20836648.453
                  20836658.078                          48.300          37.500

 124307656.975 7  96863196.25744                  23654956.133
                  23654968.383                          44.600          25.900

 119584414.615 7  93182784.38745                  22756143.320
                  22756154.047                          45.800          32.000

 123784710.464 7  96455701.89844                  23555430.141
                  23555444.180                          42.900          24.000

 131393993.179 6 102384827.462 5                  25003406.211
  25003420.551    25003419.770                          38.100          34.100

 14  3 21  0  4  0.0000000  0 13G09G16G13G23G07G19G30G27G03G10G08G28
                                G05
 119843367.296 7  93384579.01044                  22805426.453
                  22805439.063                          43.000          27.500

 124752025.293 6  97209465.85943                  23739495.711
                  23739507.277                          39.500          22.600

 107099000.445 8  83453902.90746                  20380238.898
                  20380247.301                          48.600          40.700

 116796474.828 7  91010369.33745                  22225629.953
                  22225639.652                          47.200          33.300

 109083774.435 7  85000454.184 8                  20757921.688
  20757930.180    20757930.625                          47.700          48.400

 113016550.599 8  88064948.41946                  21506304.398
                  21506313.184                          48.700          38.000

 116059014.766 7  90435814.399 7  86667663.405 8  22085300.180
  22085312.184    22085312.090    22085313.305          46.300          45.100
        51.900
 116794176.138 7  91008485.070 7  87216492.684 8  22225143.773
  22225155.344    22225155.055    22225155.504          46.900          46.400
        50.100
 109507352.146 7  85330498.16646                  20838517.367
                  20838527.539                          47.600          37.300

 124368152.390 7  96910335.45244                  23666467.336
                  23666480.457                          43.200          25.000

 119513493.825 7  93127521.49045                  22742647.727
                  22742658.410                          46.900          32.100

 123703867.832 7  96392707.85943                  23540046.297
                  23540058.605                          42.600          22.900

 131368778.892 6 102365180.019 6                  24998607.586
  24998621.926    24998621.484                          38.700          36.100

 14  3 21  0  4 30.0000000  0 13G09G16G13G23G07G19G30G27G03G10G08G28
                                G05
 119753463.611 7  93314524.32244                  22788319.211
                  22788331.035                          43.200          27.300

 124852617.960 6  97287849.63543                  23758637.961
                  23758649.223                          39.000          22.900

 107143343.567 8  83488455.96146                  20388677.844
                  20388685.656                          49.100          41.100

 116894299.996 7  91086596.62445                  22244245.461
                  22244255.016                          46.100          31.100

 109044860.294 7  84970131.515 8                  20750516.680
  20750524.848    20750525.406                          46.600          48.500

 112975154.014 7  88032691.39846                  21498426.930
                  21498435.914                          46.900          38.000

 115992476.410 7  90383966.403 7  86617975.763 8  22072638.633
  22072650.699    22072650.375    22072651.301          47.600          45.100
        51.200
 116829919.839 7  91036337.307 7  87243184.400 8  22231945.414
  22231957.023    22231957.078    22231957.348          46.900          46.300
        49.600
 109517837.628 7  85338668.68746                  20840512.898
                  20840522.465                          46.300          37.200

 124429003.306 7  96957751.67744                  23678048.141
                  23678059.555                          44.500          25.200

 119442632.573 7  93072305.00245                  22729163.555
                  22729173.551                          47.100          31.800

 123623254.295 7  96329892.33143                  23524705.961
                  23524718.891                          42.200          22.600

 131344076.082 6 102345931.112 6                  24993907.555
  24993921.406    24993921.363                          41.700          37.500

 14  3 21  0  5  0.0000000  0 13G09G16G13G23G07G19G30G27G03G10G08G28
                                G05
 119663642.848 7  93244534.26044                  22771226.125
                  22771238.191                          43.400          28.300

 124953261.342 6  97366272.91543                  23777790.820
                  23777801.621                          40.300          22.200

 107188239.084 8  83523439.45446                  20397221.094
                  20397229.418                          48.800          41.000

 116992440.550 7  91163069.66345                  22262921.227
                  22262930.684                          47.200          31.400

 109006164.204 7  84939978.749 8                  20743153.008
  20743161.086    20743161.535                          47.600          48.600

 112934349.306 7  88000895.58946                  21490661.906
                  21490669.871                          47.300          38.600

 115926072.201 7  90332222.947 7  86568388.301 8  22060001.977
  22060014.148    22060014.254    22060014.648          47.000          45.900
        50.800
 116866231.449 7  91064632.061 7  87270300.209 8  22238855.781
  22238867.168    22238866.945    22238866.395          46.700          46.400
        50.000
 109528987.928 7  85347357.23846                  20842634.859
                  20842644.500                          47.000          37.500

 124490207.209 7  97005442.92744                  23689693.508
                  23689705.813                          42.300          25.400

 119371831.674 7  93017135.55145                  22715690.195
                  22715700.238                          46.100          32.000

 123542870.743 6  96267255.96943                  23509409.094
                  23509423.020                          41.100          22.500

 131319885.590 6 102327081.415 6                  24989303.508
  24989317.969    24989318.152                          40.400          37.400

 14  3 21  0  5 30.0000000  0 13G09G16G13G23G07G19G30G27G03G10G08G28
                                G05
 119573905.484 7  93174609.17244                  22754150.641
                  22754162.137                          45.200          29.300

 125053953.364 6  97444734.12943                  23796950.773
                  23796962.867                          39.200          21.700

 107233685.818 8  83558852.46446                  20405869.211
                  20405877.637                          49.600          40.600

 117090894.246 7  91239786.72145                  22281656.383
                  22281665.938                          47.200          33.500

 108967686.677 7  84909996.301 8                  20735831.078
  20735838.684    20735839.109                          47.900          48.800

 112894138.550 7  87969562.60146                  21483010.109
                  21483017.332                          47.200          38.100

 115859802.609 7  90280584.395 7  86518901.370 8  22047391.500
  22047403.840    22047404.031    22047404.074          46.000          47.000
        51.200
 116903109.437 7  91093368.154 7  87297838.970 8  22245873.703
  22245884.660    22245884.719    22245883.699          46.200          45.800
        49.400
 109540801.993 8  85356563.00046                  20844883.516
                  20844892.512                          48.500          37.700

 124551761.327 7  97053407.11744                  23701406.813
                  23701420.582                          43.300          26.200

 119301091.435 7  92962013.37645                  22702228.734
                  22702238.980                          45.800          32.200

 123462717.514 6  96204799.10943                  23494156.289
                  23494170.188                          40.400          22.800

 131296207.688 6 102308631.135 6                  24984797.656
  24984812.027    24984812.449                          38.300          37.600

 14  3 21  0  6  0.0000000  0 13G09G16G13G23G07G19G30G27G03G10G08G28
                                G05
 119484252.686 7  93104749.97844                  22737089.984
                  22737101.590                          44.700          28.600

 125154692.480 6  97523232.03243                  23816120.375
                  23816132.344                          39.800          21.100

 107279683.179 8  83594694.54346                  20414621.906
                  20414630.316                          49.400          40.800

 117189658.785 7  91316745.98145                  22300450.992
                  22300459.629                          47.700          31.600

 108929428.989 7  84880185.148 8                  20728550.359
  20728558.684    20728559.281                          47.200          48.000

 112854523.591 7  87938693.86546                  21475471.531
                  21475479.023                          45.700          37.800

 115793668.389 7  90229051.326 7  86469515.525 8  22034806.484
  22034818.781    22034819.141    22034818.773          46.500          46.500
        51.000
 116940552.622 7  91122544.655 7  87325799.781 8  22252998.086
  22253010.113    22253010.148    22253008.719          46.000          46.700
        49.100
 109553279.742 8  85366285.92746                  20847257.586
                  20847266.734                          49.200          37.800

 124613662.870 7  97101641.95744                  23713187.539
                  23713200.680                          44.200          25.100

 119230412.618 7  92906939.04845                  22688778.344
                  22688789.031                          46.000          33.000

 123382795.418 7  96142522.32944                  23478948.320
                  23478960.641                          42.600          24.300

 131273042.941 6 102290580.723 6                  24980389.570
  24980404.516    24980404.578                          39.900          37.800

 14  3 21  0  6 30.0000000  0 13G09G16G13G23G07G19G30G27G03G10G08G28
                                G05
 119394685.430 7  93034957.43044                  22720045.180
                  22720058.004                          44.300          28.100

 125255476.475 6  97601764.92043                  23835300.195
                  23835311.059                          39.900          19.600

 107326230.349 8  83630965.02846                  20423479.359
                  20423487.992                          48.800          40.300

 117288731.723 8  91393945.53845                  22319303.977
                  22319312.297                          48.700          31.900

 108891391.637 8  84850545.699 8                  20721312.727
  20721320.043    20721320.484                          49.100          48.200

 112815505.885 7  87908290.52746                  21468046.422
                  21468054.371                          47.300          38.300

 115727670.081 7  90177624.163 7  86420231.178 8  22022247.336
  22022259.691    22022259.645    22022259.453          47.200          47.000
        51.600
 116978559.456 7  91152160.361 7  87354181.502 8  22260230.352
  22260241.785    22260242.598    22260241.813          46.600          47.000
        49.600
 109566420.080 8  85376525.16946                  20849758.125
                  20849767.383                          48.500          38.100

 124675908.717 6  97150145.18844                  23725031.781
                  23725045.078                          41.800          24.700

 119159795.383 7  92851912.71045                  22675341.094
                  22675350.914                          45.200          31.900

 123303105.282 6  96080426.30943                  23463782.820
                  23463796.199                          41.400          23.000

 131250391.168 6 102272930.051 6                  24976079.203
  24976093.059    24976094.465                          40.900          37.000

 14  3 21  0  7  0.0000000  0 13G09G16G13G23G07G19G30G27G03G10G08G28
                                G05
 119305204.886 7  92965232.47944                  22703017.125
                  22703029.805                          42.800          28.700

 125356303.524 6  97680331.34943                  23854486.609
                  23854498.109                          39.400          20.600

 107373325.619 8  83667662.60846                  20432441.813
                  20432450.008                          49.000          40.800

 117388110.606 8  91471383.50245                  22338215.391
                  22338224.039                          49.100          32.200

 108853575.626 8  84821078.714 8                  20714116.266
  20714124.539    20714124.813                          48.700          48.700

 112777087.166 7  87878353.93046                  21460735.789
                  21460743.926                          47.500          37.700

 115661808.326 7  90126303.394 7  86371048.797 8  22009714.023
  22009726.105    22009726.125    22009726.168          47.200          47.600
        50.900
 117017128.509 7  91182214.146 7  87382983.061 8  22267570.563
  22267582.051    22267582.672    22267582.180          46.500          46.900
        50.100
 109580222.891 8  85387280.60746                  20852384.258
                  20852393.926                          49.200          37.300

 124738495.936 7  97198914.34643                  23736941.773
                  23736956.188                          42.500          22.600

 119089240.224 7  92796934.72445                  22661914.305
                  22661924.930                          44.900          32.100

 123223647.444 7  96018511.36344                  23448663.719
                  23448675.723                          42.400          24.000

 131228252.877 6 102255679.480 5                  24971866.242
  24971880.281    24971881.707                          39.900          35.500

 14  3 21  0  7 30.0000000  0 13G09G16G13G23G07G19G30G27G03G10G08G28
                                G05
 119215812.324 7  92895576.07344                  22686006.797
                  22686018.938                          43.300          28.400

 125457171.797 6  97758929.85943                  23873681.164
                  23873692.762                          39.800          20.400

 107420968.267 8  83704786.72146                  20441507.906
                  20441516.211                          49.000          40.800

 117487793.223 8  91549058.14645                  22357184.250
                  22357193.844                          49.400          32.100

 108815981.953 8  84791784.973 8                  20706962.359
  20706970.426    20706970.855                          48.400          48.300

 112739269.508 7  87848885.68746                  21453539.109
                  21453547.660                          47.200          38.300

 115596083.956 7  90075089.691 7  86321969.014 8  21997206.938
  21997219.316    21997219.063    21997219.227          46.200          46.600
        51.300
 117056258.554 7  91212705.084 7  87412203.535 8  22275016.281
  22275027.246    22275027.430    22275027.176          46.700          45.900
        49.900
 109594687.454 8  85398551.68946                  20855137.070
                  20855146.664                          48.800          37.900

 124801422.090 7  97247947.61144                  23748918.227
                  23748928.809                          45.400          25.600

 119018747.637 7  92742005.51745                  22648499.977
                  22648510.863                          44.800          32.400

 123144422.744 7  95956778.00444                  23433586.742
                  23433598.844                          43.400          24.500

 131206628.431 6 102238829.298 5                  24967751.102
  24967764.367    24967765.352                          40.000          35.500

 14  3 21  0  8  0.0000000  0 13G09G16G13G23G07G19G30G27G03G10G08G28
                                G05
 119126508.905 7  92825989.12544                  22669012.531
                  22669025.246                          43.400          28.300

 125558079.721 6  97837559.30043                  23892884.281
                  23892895.844                          41.300          22.300

 107469158.065 8  83742337.17546                  20450677.930
                  20450686.801                          50.300          41.100

 117587777.457 8  91626967.80645                  22376210.820
                  22376220.168                          48.600          32.700

 108778612.264 8  84762665.766 8                  20699851.016
  20699859.094    20699859.465                          48.700          48.200

 112702054.650 7  87819887.16146                  21446457.109
                  21446465.781                          46.700          38.400

 115530498.070 7  90023983.894 7  86272992.645 8  21984726.016
  21984738.434    21984738.461    21984738.742          45.800          46.500
        51.100
 117095948.588 7  91243632.391 7  87441842.196 8  22282569.398
  22282580.313    22282579.820    22282579.328          47.500          45.400
        49.300
 109609813.393 8  85410338.13946                  20858015.695
                  20858025.461                          49.800          38.100

 124864684.505 6  97297242.87943                  23760954.734
                  23760968.246                          41.700          22.500

 118948318.708 7  92687125.91845                  22635097.773
                  22635108.570                          45.200          32.800

 123065432.323 6  95895227.23644                  23418554.242
                  23418567.449                          41.300          25.000

 131185518.411 6 102222379.988 5                  24963734.039
  24963748.066    24963747.762                          39.600          34.400

 14  3 21  0  8 30.0000000  0 13G09G16G13G23G07G19G30G27G03G10G08G28
                                G05
 119037295.755 7  92756472.53744                  22652036.109
                  22652048.461                          43.700          28.900

 125659025.968 7  97916218.60043                  23912093.328
                  23912105.332                          42.200          22.200

 107517894.393 8  83780313.50546                  20459952.727
                  20459960.961                          49.700          40.900

 117688061.056 8  91705110.73845                  22395294.297
                  22395303.922                          48.500          31.900

 108741467.195 8  84733721.589 8                  20692782.672
  20692790.648    20692790.984                          49.200          48.600

 112665444.646 7  87791359.94646                  21439490.664
                  21439498.719                          47.000          38.300

 115465051.457 7  89972986.621 7  86224120.277 8  21972272.086
  21972283.934    21972284.164    21972284.441          46.900          47.000
        51.800
 117136197.247 7  91274994.972 7  87471898.006 8  22290228.273
  22290239.191    22290239.461    22290238.676          47.600          45.200
        50.300
 109625600.318 8  85422639.63946                  20861019.766
                  20861029.297                          49.500          38.200

 124928280.087 7  97346797.79343                  23773056.930
                  23773069.707                          42.600          23.200

 118877954.317 7  92632296.61145                  22621707.617
                  22621719.070                          45.800          32.500

 122986676.607 7  95833859.34544                  23403568.852
                  23403580.219                          42.900          25.300

 131164923.317 6 102206331.925 5                  24959814.734
  24959828.918    24959829.121                          40.200          35.200

 14  3 21  0  9  0.0000000  0 13G09G16G13G23G07G19G30G27G03G10G08G28
                                G05
 118948173.309 7  92687026.61745                  22635076.508
                  22635088.496                          45.000          30.000

 125760007.579 7  97994905.46543                  23931310.117
                  23931322.152                          42.500          22.600

 107567174.658 8  83818713.68646                  20469329.867
                  20469338.309                          48.100          40.200

 117788641.155 7  91783484.70345                  22414433.852
                  22414443.832                          47.300          32.300

 108704546.650 7  84704952.364 8                  20685756.672
  20685764.676    20685764.898                          47.400          48.500

 112629440.473 7  87763304.82046                  21432639.188
                  21432647.359                          47.800          38.600

 115399744.151 7  89922097.902 7  86175351.942 8  21959844.422
  21959856.395    21959856.348    21959856.566          47.500          47.300
        51.800
 117177002.397 7  91306791.170 7  87502369.353 8  22297993.094
  22298004.352    22298004.699    22298004.617          46.800          45.000
        50.000
 109642046.933 8  85435455.18946                  20864149.383
                  20864158.563                          49.000          38.300

 124992205.466 7  97396609.69644                  23785221.109
                  23785235.797                          42.400          26.000

 118807654.034 7  92577517.27845                  22608330.367
                  22608340.770                          46.600          33.600

 122908155.421 7  95772674.20744                  23388625.602
                  23388636.797                          43.900          25.800

 131144842.946 6 102190684.930 5                  24955993.344
  24956008.137    24956008.047                          40.600          35.200

 14  3 21  0  9 30.0000000  0 13G09G16G13G23G07G19G30G27G03G10G08G28
                                G05
 118859143.188 7  92617652.64244                  22618134.164
                  22618146.500                          44.500          29.100

 125861023.456 6  98073619.01943                  23950532.813
                  23950544.957                          41.700          22.600

 107616998.558 8  83857537.47846                  20478810.859
                  20478819.441                          48.700          40.300

 117889515.823 7  91862088.20445                  22433629.969
                  22433639.266                          47.200          31.900

 108667853.166 7  84676360.076 8                  20678774.180
  20678782.395    20678782.645                          47.300          48.200

 112594044.241 7  87735723.40346                  21425903.391
                  21425911.824                          47.200          38.800

 115334577.503 7  89871318.796 7  86126688.646 8  21947443.508
  21947455.605    21947456.004    21947455.988          47.600          47.500
        51.700
 117218363.181 7  91339020.330 7  87533255.612 8  22305863.891
  22305874.836    22305874.703    22305875.383          46.300          45.200
        50.300
 109659153.227 8  85448784.76446                  20867404.398
                  20867414.203                          48.600          37.900

 125056458.301 7  97446676.79244                  23797448.188
                  23797460.906                          42.900          24.700

 118737419.076 7  92522788.83845                  22594964.938
                  22594975.695                          46.000          34.000

 122829870.798 7  95711673.44844                  23373728.578
                  23373740.383                          42.600          26.500

 131125277.987 6 102175439.594 6                  24952270.695
  24952284.453    24952284.387                          41.800          36.500

 14  3 21  0 10  0.0000000  0 13G09G16G13G23G07G19G30G27G03G10G08G28
                                G05
 118770206.848 7  92548351.73145                  22601210.117
                  22601222.188                          45.600          30.100

 125962072.104 6  98152358.13043                  23969762.016
                  23969773.969                          41.400          22.500

 107667365.389 8  83896784.31446                  20488395.367
                  20488404.086                          48.700          40.400

 117990682.558 7  91940919.28445                  22452881.773
                  22452891.246                          46.400          32.000

 108631387.581 7  84647945.357 8                  20671835.031
  20671842.742    20671843.344                          47.500          48.400

 112559257.668 8  87708617.03346                  21419283.750
                  21419291.996                          49.000          38.600

 115269552.256 7  89820649.868 7  86078130.935 8  21935069.617
  21935081.836    21935081.977    21935081.902          46.600          47.500
        51.300
 117260278.181 7  91371681.358 7  87564555.744 8  22313840.094
  22313851.285    22313851.105    22313851.086          46.900          45.300
        49.600
 109676918.465 8  85462627.80946                  20870785.305
                  20870794.691                          50.000          37.900

 125121036.031 7  97496996.98844                  23809736.398
                  23809750.617                          42.500          25.300

 118667250.204 7  92468111.89745                  22581611.641
                  22581622.414                          46.400          33.800

 122751823.000 7  95650857.16344                  23358876.047
                  23358888.938                          43.600          27.000

 131106228.510 6 102160595.942 6                  24948644.992
  24948659.543    24948659.449                          41.100          37.400

 14  3 21  0 10 30.0000000  0 13G09G16G13G23G07G19G30G27G03G10G08G28
                                G05
 118681364.942 7  92479124.40045                  22584304.063
                  22584315.508                          45.100          30.700

 126063151.413 6  98231121.11644                  23988996.609
                  23989009.227                          40.600          24.400

 107718273.925 7  83936453.27046                  20498082.922
                  20498092.070                          47.900          40.700

 118092138.970 7  92019976.10045                  22472187.953
                  22472197.527                          47.400          32.800

 108595150.182 7  84619708.442 8                  20664939.492
  20664947.152    20664947.613                          47.900          48.300

 112525082.087 8  87681986.77646                  21412780.516
                  21412788.508                          48.600          38.600

 115204668.910 7  89770091.511 7  86029679.192 8  21922722.430
  21922734.801    21922734.762    21922734.922          47.000          46.500
        51.700
 117302745.623 7  91404772.860 7  87596268.421 8  22321921.133
  22321932.766    22321933.219    22321931.906          47.400          45.700
        49.900
 109695341.927 8  85476983.76246                  20874291.281
                  20874300.445                          50.500          38.600

 125185935.447 7  97547567.86644                  23822087.555
                  23822101.516                          44.300          26.900

 118597147.528 7  92413486.54245                  22568271.367
                  22568282.500                          46.600          33.500

 122674012.061 7  95590225.55044                  23344069.750
                  23344082.629                          42.100          26.700

 131087694.305 6 102146153.736 6                  24945118.102
  24945133.211    24945132.730                          39.400          38.000

 14  3 21  0 11  0.0000000  0 13G09G16G13G23G07G19G30G27G03G10G08G28
                                G05
 118592619.090 7  92409971.91545                  22567416.203
                  22567427.434                          44.600          30.600

 126164259.707 6  98309906.70543                  24008237.570
                  24008249.773                          40.600          22.800

 107769723.073 8  83976543.47846                  20507873.727
                  20507882.148                          48.100          40.400

 118193883.006 7  92099257.02245                  22491549.867
                  22491558.285                          47.200          32.100

 108559142.518 7  84591650.551 8                  20658087.422
  20658095.258    20658095.699                          47.100          48.300

 112491519.511 7  87655834.17546                  21406394.008
                  21406401.832                          46.100          39.000

 115139928.566 7  89719644.584 7  85981334.238 8  21910403.242
  21910414.695    21910415.070    21910415.000          47.700          47.100
        52.000
 117345764.331 7  91438293.917 7  87628392.766 8  22330106.977
  22330118.758    22330119.176    22330118.043          46.100          45.500
        49.500
 109714422.796 8  85491851.98246                  20877921.984
                  20877931.285                          49.800          37.700

 125251153.487 7  97598387.01644                  23834498.203
                  23834511.652                          43.900          26.700

 118527111.933 7  92358913.45845                  22554944.000
                  22554954.949                          45.300          33.500

 122596439.156 7  95529779.31044                  23329307.461
                  23329319.590                          44.500          27.100

 131069676.250 6 102132113.711 6                  24941689.586
  24941703.965    24941703.867                          39.200          36.800

 14  3 21  0 11 30.0000000  0 13G09G16G13G23G07G19G30G27G03G10G08G28
                                G05
 118503970.118 7  92340894.91945                  22550547.492
                  22550558.602                          45.200          30.500

 126265395.425 6  98388713.66543                  24027482.875
                  24027495.781                          40.900          23.200

 107821711.635 8  84017054.01346                  20517766.961
                  20517775.516                          48.400          41.100

 118295911.878 8  92178759.90545                  22510965.203
                  22510974.387                          48.100          31.200

 108523365.347 7  84563772.267 8                  20651279.383
  20651287.344    20651287.742                          46.900          48.800

 112458571.097 7  87630160.15146                  21400124.398
                  21400132.125                          46.700          39.800

 115075331.795 7  89669309.525 7  85933096.488 8  21898110.711
  21898122.730    21898122.785    21898122.598          46.500          47.700
        51.700
 117389332.560 7  91472243.162 7  87660927.460 8  22338398.148
  22338410.117    22338410.211    22338409.133          46.400          45.700
        49.600
 109734160.264 8  85507231.83546                  20881677.820
                  20881687.512                          49.300          37.700

 125316687.346 7  97649452.28544                  23846968.000
                  23846981.953                          42.400          26.600

 118457144.048 7  92304393.11845                  22541629.641
                  22541640.426                          45.500          34.000

 122519104.424 7  95469518.71444                  23314591.719
                  23314602.539                          43.900          25.800

 131052174.210 6 102118475.816 5                  24938359.633
  24938373.910    24938373.086                          40.100          35.800

 14  3 21  0 12  0.0000000  0 13G09G16G13G23G07G19G30G27G03G10G08G28
                                G05
 118415419.001 7  92271894.16344                  22533696.086
                  22533707.492                          44.800          29.900

 126366556.958 6  98467540.71043                  24046733.469
                  24046745.750                          41.300          23.000

 107874238.581 7  84057984.06046                  20527762.094
                  20527770.516                          47.300          40.800

 118398223.472 7  92258483.08045                  22530434.672
                  22530443.715                          47.500          32.300

 108487819.931 7  84536074.571 8                  20644515.102
  20644523.250    20644523.699                          47.600          48.400

 112426238.382 7  87604965.88646                  21393971.281
                  21393978.973                          47.400          38.500

 115010879.427 7  89619086.975 7  85884966.564 8  21885845.680
  21885857.895    21885858.215    21885857.379          45.300          47.300
        51.400
 117433448.866 7  91506619.494 7  87693871.434 8  22346793.859
  22346804.914    22346805.250    22346803.879          45.800          46.300
        50.100
 109754553.267 8  85523122.49546                  20885558.758
                  20885568.125                          48.900          37.900

 125382534.195 7  97700761.39744                  23859498.539
                  23859512.023                          42.700          24.700

 118387244.590 7  92249926.10545                  22528327.844
                  22528338.914                          45.700          33.400

 122442009.008 7  95409444.51144                  23299921.180
                  23299932.645                          44.800          27.000

 131035188.197 6 102105240.084 6                  24935126.813
  24935140.984    24935141.070                          41.600          37.700

 14  3 21  0 12 30.0000000  0 13G09G16G13G23G07G19G30G27G03G10G08G28
                                G05
 118326966.841 7  92202970.53345                  22516863.922
                  22516875.586                          44.400          30.400

 126467742.024 6  98546386.11443                  24065987.953
                  24066000.188                          41.600          22.600

 107927302.448 7  84099332.49646                  20537860.070
                  20537868.055                          46.800          40.600

 118500815.296 7  92338424.62745                  22549957.000
                  22549966.785                          47.500          31.700

 108452506.961 7  84508558.002 8                  20637795.148
  20637803.340    20637803.594                          47.100          48.400

 112394523.010 7  87580252.67146                  21387935.719
                  21387943.355                          46.600          38.500

 114946572.121 7  89568977.465 7  85836944.960 8  21873608.578
  21873620.547    21873620.684    21873619.793          46.400          47.700
        51.300
 117478111.533 7  91541421.540 7  87727223.398 8  22355292.578
  22355304.172    22355304.176    22355302.980          46.700          46.400
        50.300
 109775601.069 8  85539523.37946                  20889563.750
                  20889572.816                          48.100          38.100

 125448691.086 7  97752312.09343                  23872088.578
                  23872102.492                          42.800          22.500

 118317414.067 7  92195512.81345                  22515039.836
                  22515050.410                          45.800          33.600

 122365153.193 7  95349557.09144                  23285294.625
                  23285306.672                          43.200          27.100

 131018718.371 6 102092406.516 6                  24931992.398
  24932007.441    24932006.367                          40.600          39.200

 14  3 21  0 13  0.0000000  0 13G09G16G13G23G07G19G30G27G03G10G08G28
                                G05
 118238615.108 7  92134125.14844                  22500051.023
                  22500062.965                          43.000          28.900

 126568949.771 6  98625249.21043                  24085247.289
                  24085259.637                          41.800          22.300

 107980902.588 7  84141098.80946                  20548060.328
                  20548067.906                          47.200          40.800

 118603685.104 7  92418582.77145                  22569533.117
                  22569542.195                          47.300          31.200

 108417427.802 7  84481223.609 8                  20631119.797
  20631127.945    20631128.465                          47.100          48.800

 112363426.599 7  87556021.75646                  21382018.406
                  21382026.363                          47.500          38.600

 114882411.005 7  89518981.866 7  85789032.527 8  21861398.531
  21861410.777    21861411.082    21861410.129          46.000          47.400
        51.500
 117523319.324 7  91576648.353 7  87760982.433 8  22363895.359
  22363906.840    22363907.313    22363906.234          46.000          46.600
        51.000
 109797303.168 7  85556434.11646                  20893693.516
                  20893702.988                          47.700          37.800

 125515155.225 7  97804102.23744                  23884736.164
                  23884750.195                          42.400          25.600

 118247653.177 7  92141153.77345                  22501764.586
                  22501775.438                          46.600          33.700

 122288537.642 7  95289856.85244                  23270715.531
                  23270727.313                          45.700          25.800

 131002765.051 6 102079975.358 6                  24928955.813
  24928971.477    24928971.309                          40.700          39.200

 14  3 21  0 13 30.0000000  0 13G09G16G13G23G07G19G30G27G03G10G08G28
                                G05
 118150365.272 7  92065359.17544                  22483258.242
                  22483269.219                          44.500          29.700

 126670178.110 7  98704128.33143                  24104510.219
                  24104522.297                          42.100          22.600

 108035038.321 8  84183282.46146                  20558361.844
                  20558370.445                          48.700          40.500

 118706830.653 7  92498955.78245                  22589160.352
                  22589170.113                          47.700          31.000

 108382583.763 7  84454072.436 8                  20624489.359
  20624497.090    20624497.387                          47.200          48.800

 112332950.921 7  87532274.52446                  21376219.070
                  21376226.508                          47.800          38.300

 114818397.080 7  89469100.952 8  85741230.015 8  21849217.727
  21849229.059    21849229.465    21849228.980          45.800          48.000
        51.500
 117569070.801 7  91612298.818 7  87795147.465 8  22372602.203
  22372613.246    22372613.504    22372612.660          45.700          46.700
        50.800
 109819658.879 7  85573854.16446                  20897947.734
                  20897956.926                          47.400          37.600

 125581923.996 7  97856129.68644                  23897442.398
                  23897455.945                          43.200          24.700

 118177962.836 7  92086849.70045                  22488503.211
                  22488513.527                          46.200          33.600

 122212163.335 7  95230344.64244                  23256181.656
                  23256193.723                          45.200          27.400

 130987328.704 6 102067947.066 6                  24926019.539
  24926033.918    24926033.754                          39.600          37.300

 14  3 21  0 14  0.0000000  0 13G09G16G13G23G07G19G30G27G03G10G08G28
                                G05
 118062217.833 7  91996672.96045                  22466483.508
                  22466495.027                          44.200          30.200

 126771424.985 6  98783021.90543                  24123776.656
                  24123788.352                          39.800          22.600

 108089706.787 8  84225881.22446                  20568764.469
                  20568773.434                          49.100          40.900

 118810249.173 8  92579541.51945                  22608841.195
                  22608850.102                          49.100          30.500

 108347975.120 7  84427104.694 8                  20617903.516
  20617911.504    20617911.789                          47.000          48.800

 112303096.697 7  87509011.54446                  21370537.813
                  21370545.410                          47.900          37.200

 114754530.519 7  89419334.870 7  85693537.539 8  21837063.891
  21837076.414    21837076.035    21837075.961          45.800          47.000
        51.700
 117615363.774 7  91648371.242 7  87829716.862 8  22381410.859
  22381422.563    22381423.133    22381422.410          46.600          45.800
        51.200
 109842666.531 7  85591782.20946                  20902325.719
                  20902335.352                          46.200          37.500

 125648993.929 6  97908391.90143                  23910203.891
                  23910218.641                          39.900          23.000

 118108343.040 7  92032600.59845                  22475255.117
                  22475265.508                          46.900          33.800

 122136030.174 7  95171020.29144                  23241693.930
                  23241705.391                          45.400          26.500

 130972408.618 6 102056321.103 6                  24923179.352
  24923194.730    24923194.199                          39.800          36.700

 14  3 21  0 14 30.0000000  0 13G09G16G13G23G07G19G30G27G03G10G08G28
                                G05
 117974174.581 7  91928067.95045                  22449729.984
                  22449740.703                          45.900          30.200

 126872689.255 6  98861929.04243                  24143046.820
                  24143059.297                          39.200          22.200

 108144907.953 8  84268895.09746                  20579268.938
                  20579278.043                          48.800          39.900

 118913938.439 7  92660338.22145                  22628572.063
                  22628582.246                          47.300          30.200

 108313603.500 7  84400321.645 8                  20611362.516
  20611370.422    20611371.027                          47.500          48.500

 112273865.929 7  87486234.38846                  21364974.641
                  21364982.965                          47.300          37.800

 114690812.680 7  89369684.667 7  85645956.118 8  21824938.734
  21824950.613    21824950.859    21824951.137          46.100          46.900
        51.800
 117662197.114 7  91684864.745 7  87864689.779 8  22390323.156
  22390333.922    22390334.422    22390333.637          45.900          45.300
        50.000
 109866325.929 8  85610218.11046                  20906827.938
                  20906837.918                          48.300          37.700

 125716362.319 7  97960886.58544                  23923024.219
                  23923040.250                          42.400          24.300

 118038795.212 7  91978407.57245                  22462020.430
                  22462030.734                          47.500          34.000

 122060139.317 7  95111884.80044                  23227252.391
                  23227263.527                          44.900          27.200

 130958005.310 6 102045097.826 6                  24920439.016
  24920453.430    24920453.348                          41.300          37.500

 14  3 21  0 15  0.0000000  0 14G09G16G13G23G07G19G30G27G03G10G08G28
                                G05G11
 117886236.401 7  91859544.82145                  22432995.617
                  22433006.570                          45.200          30.700

 126973969.397 6  98940848.57543                  24162319.430
                  24162331.957                          41.800          22.800

 108200640.489 8  84312323.01546                  20589874.695
                  20589883.535                          50.200          40.400

 119017896.219 7  92741344.13644                  22648353.922
                  22648365.070                          46.200          29.400

 108279469.967 8  84373724.116 8                  20604867.461
  20604875.105    20604875.617                          49.300          49.200

 112245259.866 7  87463944.00946                  21359531.500
                  21359539.500                          47.300          37.100

 114627244.291 7  89320150.923 7  85598486.294 8  21812842.078
  21812854.168    21812854.328    21812854.434          47.000          47.000
        51.600
 117709569.053 7  91721777.940 7  87900064.898 8  22399337.852
  22399349.141    22399348.992    22399348.383          46.100          45.400
        50.000
 109890636.228 7  85629161.19546                  20911453.891
                  20911463.457                          47.500          37.100

 125784026.169 7  98013611.55344                  23935900.992
                  23935916.535                          42.500          24.700

 117969319.897 8  91924271.05045                  22448799.898
                  22448809.992                          48.000          33.900

 121984491.079 7  95052938.33944                  23212857.070
                  23212868.797                          45.100          27.700

 130944118.737 6 102034277.146 6                  24917797.273
  24917810.879    24917810.711                          40.100          38.800

 131414411.59015                                  25007328.508
                                                        32.200

 14  3 21  0 15 30.0000000  0 14G09G16G13G23G07G19G30G27G03G10G08G28
                                G05G11
 117798404.492 7  91791104.49645                  22416281.984
                  22416292.695                          45.100          30.500

 127075263.594 6  99019779.04643                  24181595.422
                  24181608.023                          41.500          22.000

 108256902.808 8  84356163.74346                  20600581.445
                  20600589.996                          49.600          40.500

 119122119.766 7  92822557.15444                  22668187.414
                  22668198.051                          47.100          29.800

 108245575.347 8  84347312.761 8                  20598417.438
  20598425.051    20598425.770                          49.300          49.000

 112217279.558 7  87442141.23246                  21354207.039
                  21354214.758                          47.700          38.400

 114563826.007 7  89270734.139 7  85551128.556 8  21800774.445
  21800785.875    21800785.867    21800785.559          46.800          47.200
        52.100
 117757477.809 7  91759109.410 7  87935840.885 8  22408455.172
  22408466.051    22408465.965    22408464.715          47.100          46.400
        49.900
 109915595.593 7  85648610.06046                  20916203.563
                  20916213.703                          47.900          38.100

 125851982.762 7  98066564.66143                  23948832.594
                  23948847.742                          42.500          23.400

 117899917.513 7  91870191.36745                  22435592.883
                  22435602.781                          47.500          33.000

 121909085.999 7  94994181.33544                  23198507.852
                  23198519.617                          44.500          27.200

 130930748.819 6 102023859.065 6                  24915253.578
  24915266.742    24915266.461                          40.400          37.100

 131325925.45015                                  24990488.883
                                                        33.100

 14  3 21  0 16  0.0000000  0 14G09G16G13G23G07G19G30G27G03G10G08G28
                                G05G11
 117710680.157 7  91722747.96345                  22399588.133
                  22399598.945                          45.800          31.600

 127176570.288 6  99098719.25843                  24200873.672
                  24200886.691                          41.100          23.600

 108313693.899 8  84400416.49746                  20611388.469
                  20611396.898                          49.100          40.900

 119226606.755 7  92903975.46744                  22688071.266
                  22688081.609                          46.800          29.700

 108211920.708 8  84321088.393 8                  20592012.836
  20592020.652    20592021.211                          48.300          49.500

 112189926.489 8  87420827.20646                  21349001.930
                  21349009.441                          48.400          38.700

 114500558.830 7  89221435.101 7  85503883.658 8  21788734.836
  21788746.387    21788746.684    21788746.492          47.600          46.800
        51.800
 117805921.789 7  91796857.942 7  87972016.557 8  22417673.039
  22417684.188    22417684.711    22417683.168          46.100          46.500
        49.900
 109941203.520 8  85668564.29746                  20921076.914
                  20921086.387                          48.400          37.900

 125920229.073 7  98119743.46844                  23961819.422
                  23961834.375                          42.400          24.600

 117830588.873 7  91816169.13945                  22422399.586
                  22422409.820                          47.400          33.200

 121833924.728 7  94935614.35044                  23184204.266
                  23184217.133                          43.000          26.500

 130917895.441 6 102013843.517 5                  24912806.859
  24912820.535    24912820.316                          39.900          35.200

 131237395.30415                                  24973641.297
                                                        32.800

 14  3 21  0 16 30.0000000  0 14G09G16G13G23G07G19G30G27G03G10G08G28
                                G05G11
 117623064.838 7  91654476.38445                  22382915.672
                  22382926.480                          45.400          31.400

 127277887.918 6  99177667.98543                  24220154.563
                  24220166.539                          40.000          21.800

 108371012.345 8  84445080.18346                  20622295.766
                  20622304.488                          48.700          40.500

 119331354.642 7  92985597.07044                  22708004.414
                  22708014.926                          46.400          29.800

 108178507.569 8  84295052.208 8                  20585654.406
  20585662.719    20585663.160                          48.800          49.500

 112163202.008 8  87400002.98646                  21343916.828
                  21343924.438                          48.000          38.800

 114437443.533 7  89172254.408 7  85456752.172 8  21776724.484
  21776735.852    21776735.902    21776735.656          46.900          46.600
        51.900
 117854899.247 7  91835022.170 7  88008590.605 8  22426993.156
  22427004.629    22427004.988    22427003.617          46.700          46.400
        50.000
 109967458.924 8  85689023.05546                  20926073.055
                  20926082.094                          49.300          37.600

 125988762.215 6  98173145.79744                  23974859.797
                  23974875.813                          41.600          24.900

 117761334.587 7  91762204.84345                  22409220.648
                  22409231.273                          47.800          34.000

 121759007.529 7  94877237.50344                  23169947.539
                  23169960.066                          44.600          25.700

 130905558.664 6 102004230.507 5                  24910458.414
  24910473.094    24910473.539                          38.800          35.400

 131148823.76415                                  24956786.664
                                                        33.200

 14  3 21  0 17  0.0000000  0 14G09G16G13G23G07G19G30G27G03G10G08G28
                                G05G11
 117535559.589 7  91586290.57045                  22366263.625
                  22366274.320                          45.400          31.100

 127379214.192 6  99256623.43443                  24239435.602
                  24239448.441                          39.400          20.400

 108428856.658 8  84490153.64046                  20633303.055
                  20633311.688                          48.100          40.600

 119436361.083 7  93067420.11345                  22727986.469
                  22727996.695                          47.500          30.600

 108145336.274 8  84269204.468 8                  20579342.141
  20579350.621    20579350.957                          48.100          48.700

 112137107.615 8  87379669.74046                  21338951.039
                  21338958.660                          49.200          38.300

 114374480.832 7  89123192.638 7  85409734.636 8  21764742.695
  21764754.859    21764754.984    21764754.621          47.200          47.200
        51.100
 117904408.341 7  91873600.665 7  88045561.656 8  22436414.328
  22436425.949    22436426.082    22436425.180          47.200          46.600
        50.300
 109994360.311 8  85709985.17746                  20931192.172
                  20931201.977                          49.000          38.400

 126057578.979 7  98226769.12844                  23987956.875
                  23987972.176                          43.400          26.900

 117692155.384 7  91708299.05645                  22396056.367
                  22396066.395                          47.900          33.800

 121684335.114 7  94819051.42144                  23155738.164
                  23155750.988                          45.600          28.700

 130893738.522 6 101995020.030 6                  24908209.289
  24908223.711    24908224.156                          37.700          37.500

 131060213.66415                                  24939924.578
                                                        31.000

 14  3 21  0 17 30.0000000  0 14G09G16G13G23G07G19G30G27G03G10G08G28
                                G05G11
 117448165.407 7  91518191.30845                  22349632.984
                  22349644.359                          43.700          30.400

 127480547.968 6  99335584.72443                  24258719.734
                  24258731.738                          39.000          21.100

 108487225.328 8  84535635.67446                  20644410.586
                  20644419.168                          49.200          41.200

 119541623.479 7  93149442.59945                  22748017.305
                  22748028.141                          47.300          30.000

 108112407.859 7  84243545.998 8                  20573075.758
  20573084.465    20573084.848                          47.900          48.800

 112111643.791 8  87359827.84246                  21334105.047
                  21334112.754                          49.500          38.500

 114311671.489 7  89074250.362 7  85362831.631 8  21752790.328
  21752801.906    21752801.996    21752802.039          47.100          47.200
        51.400
 117954447.205 7  91912591.932 7  88082928.304 8  22445936.422
  22445948.059    22445948.199    22445947.648          45.900          45.500
        50.200
 110021906.702 8  85731449.89046                  20936434.656
                  20936444.207                          49.300          37.700

 126126676.250 7  98280611.02944                  24001105.359
                  24001120.152                          44.100          26.500

 117623052.018 7  91654452.35845                  22382906.484
                  22382916.895                          47.100          33.600

 121609907.523 7  94761056.09044                  23141574.641
                  23141588.336                          44.600          28.300

 130882434.504 6 101986211.727 6                  24906059.133
  24906072.855    24906072.598                          38.100          38.400

 130971567.59714                                  24923055.719
                                                        29.900

 14  3 21  0 18  0.0000000  0 14G09G16G13G23G07G19G30G27G03G10G08G28
                                G05G11
 117360884.136 7  91450180.03245                  22333024.078
                  22333034.984                          44.400          31.100

 127581887.882 6  99414550.77943                  24278004.305
                  24278015.598                          40.500          21.300

 108546117.754 8  84581525.83246                  20655617.148
                  20655626.023                          48.800          40.700

 119647139.696 7  93231662.87345                  22768096.656
                  22768107.199                          47.600          31.800

 108079724.052 7  84218078.133 8                  20566856.422
  20566864.621    20566865.094                          47.700          49.100

 112086812.336 8  87340478.70746                  21329380.141
                  21329387.715                          49.000          38.600

 114249016.796 7  89025428.582 7  85316044.106 8  21740867.750
  21740879.758    21740879.258    21740879.535          46.400          47.800
        51.500
 118005014.493 7  91951994.979 7  88120689.548 8  22455558.977
  22455570.070    22455570.035    22455570.305          47.300          45.400
        50.000
 110050097.417 7  85753416.67846                  20941798.633
                  20941808.469                          47.500          37.400

 126196051.755 7  98334669.73844                  24014307.422
                  24014321.898                          44.700          26.600

 117554025.526 7  91600665.57345                  22369770.938
                  22369781.340                          47.500          34.000

 121535725.843 7  94703252.33044                  23127458.680
                  23127470.688                          46.800          26.700

 130871646.954 6 101977805.871 6                  24904005.422
  24904020.383    24904020.113                          38.300          38.100

 130882888.41915                                  24906181.133
                                                        30.100

 14  3 21  0 18 30.0000000  0 14G09G16G13G23G07G19G30G27G03G10G08G28
                                G05G11
 117273716.703 7  91382257.43845                  22316435.844
                  22316447.148                          44.300          30.700

 127683232.221 6  99493520.30543                  24297289.133
                  24297300.984                          40.800          21.700

 108605532.089 8  84627822.67346                  20666923.430
                  20666932.633                          48.500          40.700

 119752907.350 7  93314079.07145                  22788223.273
                  22788233.621                          47.200          32.500

 108047285.978 7  84192801.741 8                  20560683.914
  20560691.852    20560692.340                          46.800          49.200

 112062614.391 8  87321623.22546                  21324775.203
                  21324782.574                          49.000          39.300

 114186517.444 7  88976727.856 7  85269372.580 8  21728974.578
  21728985.945    21728985.770    21728985.813          46.200          47.600
        51.900
 118056108.333 7  91991808.340 7  88158843.997 8  22465281.688
  22465293.148    22465292.754    22465293.730          46.800          44.700
        50.300
 110078931.015 7  85775884.41346                  20947285.570
                  20947294.234                          47.000          37.700

 126265702.048 7  98388942.54344                  24027562.102
                  24027575.652                          45.300          26.200

 117485076.504 7  91546939.14945                  22356650.352
                  22356661.473                          47.900          34.000

 121461790.330 7  94645640.42144                  23113388.383
                  23113401.543                          45.800          28.500

 130861375.641 6 101969802.284 6                  24902050.914
  24902065.434    24902065.402                          38.400          36.300

 130794179.31715                                  24889300.813
                                                        33.200

 14  3 21  0 19  0.0000000  0 14G09G16G13G23G07G19G30G27G03G10G08G28
                                G05G11
 117186663.915 7  91314424.18445                  22299870.242
                  22299882.336                          44.800          31.800

 127784579.073 6  99572491.82243                  24316574.141
                  24316586.879                          41.500          21.300

 108665466.073 8  84674524.44546                  20678328.336
                  20678337.184                          48.100          40.000

 119858923.308 7  93396688.75045                  22808397.680
                  22808407.891                          47.800          30.800

 108015093.511 7  84167716.732 8                  20554557.641
  20554565.848    20554566.375                          47.000          49.100

 112039050.728 8  87303261.97746                  21320291.273
                  21320298.625                          48.800          38.800

 114124173.869 7  88928148.510 7  85222817.399 8  21717110.813
  21717121.930    21717122.121    21717121.816          47.000          47.100
        51.900
 118107726.325 7  92032030.122 7  88197389.856 8  22475104.508
  22475115.922    22475115.648    22475116.625          46.600          45.200
        50.400
 110108405.810 7  85798851.78346                  20952894.289
                  20952904.051                          47.600          37.800

 126335623.781 7  98443426.88944                  24040866.250
                  24040881.543                          42.600          25.900

 117416205.142 8  91493273.24145                  22343544.875
                  22343555.180                          48.400          34.800

 121388101.120 7  94588220.43644                  23099365.859
                  23099379.180                          44.900          28.500

 130851620.308 6 101962200.777 5                  24900194.414
  24900208.500    24900208.793                          39.700          35.800

 130705442.654 5                                  24872414.352
                                                        33.600

 14  3 21  0 19 30.0000000  0 14G09G16G13G23G07G19G30G27G03G10G08G28
                                G05G11
 117099727.757 7  91246681.82945                  22283327.195
                  22283338.582                          44.300          31.300

 127885927.417 7  99651464.48543                  24335860.828
                  24335872.719                          42.300          20.400

 108725919.492 8  84721630.96846                  20689832.711
                  20689840.910                          48.200          40.000

 119965185.910 7  93479490.62245                  22828618.789
                  22828629.730                          47.300          31.700

 107983148.939 7  84142824.894 8                  20548479.148
  20548486.680    20548486.844                          45.700          49.200

 112016123.158 8  87285396.38046                  21315928.016
                  21315936.004                          49.400          38.700

 114061987.586 7  88879691.740 7  85176379.683 8  21705276.984
  21705288.234    21705288.203    21705287.781          46.300          47.600
        51.400
 118159867.473 7  92072659.558 7  88236326.388 8  22485026.758
  22485038.102    22485038.484    22485037.992          47.100          45.900
        50.300
 110138521.761 7  85822318.75246                  20958625.258
                  20958635.234                          47.500          37.600

 126405814.794 7  98498121.02343                  24054224.594
                  24054238.781                          44.100          23.200

 117347412.695 7  91439668.82345                  22330453.617
                  22330464.348                          47.900          34.200

 121314659.469 7  94530993.36544                  23085390.641
                  23085402.574                          45.800          29.100

 130842380.357 6 101955000.875 6                  24898435.438
  24898449.797    24898450.070                          37.800          37.000

 130616681.205 5                                  24855523.391
                                                        34.400

 14  3 21  0 20  0.0000000  0 14G09G16G13G23G07G19G30G27G03G10G08G28
                                G05G11
 117012909.441 7  91179031.28345                  22266806.203
                  22266817.203                          44.100          31.600

 127987275.546 6  99730436.99443                  24355146.922
                  24355158.789                          40.600          21.700

 108786890.958 8  84769141.14346                  20701435.078
                  20701443.289                          48.700          40.100

 120071692.588 7  93562482.68145                  22848886.508
                  22848897.043                          47.300          31.500

 107951453.483 7  84118127.176 8                  20542447.422
  20542455.367    20542455.676                          46.200          49.000

 111993832.687 8  87268027.21746                  21311686.492
                  21311693.742                          48.800          39.100

 113999959.579 7  88831358.302 7  85130060.148 8  21693474.078
  21693484.629    21693484.910    21693484.367          47.200          47.400
        51.300
 118212529.948 7  92113695.225 7  88275652.235 8  22495049.141
  22495059.539    22495060.145    22495058.891          46.600          46.000
        50.700
 110169277.346 7  85846284.12946                  20964477.789
                  20964487.813                          46.800          37.900

 126476271.976 7  98553022.61843                  24067631.055
                  24067645.941                          42.700          22.600

 117278700.113 7  91386126.62945                  22317378.242
                  22317388.777                          47.000          33.900

 121241465.684 7  94473959.40944                  23071461.820
                  23071474.555                          46.700          28.500

 130833656.371 6 101948202.983 6                  24896775.734
  24896790.230    24896789.871                          38.800          38.300

 130527898.108 6                                  24838629.953
                                                        36.700

 14  3 21  0 20 30.0000000  0 14G09G16G13G23G07G19G30G27G03G10G08G28
                                G05G11
 116926209.960 7  91111473.36445                  22250308.211
                  22250319.012                          44.400          31.500

 128088622.033 6  99809408.22643                  24374431.945
                  24374444.137                          41.100          21.100

 108848378.653 8  84817053.58546                  20713135.664
                  20713144.676                          48.800          39.800

 120178440.447 7  93645662.67945                  22869200.070
                  22869210.609                          47.000          30.300

 107920007.684 7  84093623.994 8                  20536463.523
  20536471.492    20536472.258                          47.800          49.100

 111972179.826 8  87251154.89846                  21307566.125
                  21307573.313                          48.800          39.200

 113938090.310 7  88783148.540 7  85083859.151 8  21681700.430
  21681711.484    21681711.785    21681711.188          46.200          47.500
        51.700
 118265711.498 7  92155135.348 7  88315365.694 8  22505168.492
  22505179.844    22505180.203    22505178.891          46.000          46.500
        50.000
 110200670.941 7  85870746.67846                  20970451.656
                  20970461.074                          47.600          37.800

 126546992.075 6  98608129.09543                  24081089.172
                  24081103.051                          39.900          22.800

 117210067.836 7  91332647.02045                  22304317.953
                  22304328.316                          46.700          34.000

 121168519.985 7  94417118.79144                  23057581.516
                  23057592.652                          45.200          28.700

 130825447.549 6 101941806.486 6                  24895214.422
  24895228.277    24895227.902                          40.800          38.800

 130439096.023 5                                  24821728.945
                                                        34.000

 14  3 21  0 21  0.0000000  0 14G09G16G13G23G07G19G30G27G03G10G08G28
                                G05G11
 116839630.774 7  91044009.16445                  22233832.648
                  22233842.984                          44.500          31.400

 128189965.268 6  99888376.88743                  24393717.672
                  24393729.820                          40.800          21.700

 108910380.891 8  84865366.98346                  20724934.758
                  20724943.199                          49.200          39.900

 120285427.471 7  93729029.01745                  22889559.375
                  22889569.652                          47.200          30.000

 107888812.813 7  84069316.330 8                  20530527.570
  20530535.301    20530536.227                          47.400          48.900

 111951165.997 8  87234780.53646                  21303567.000
                  21303574.172                          48.800          38.400

 113876380.883 7  88735063.341 7  85037777.515 8  21669956.891
  21669968.875    21669969.027    21669968.484          47.100          47.900
        52.100
 118319410.423 7  92196978.643 7  88355465.508 8  22515387.406
  22515398.832    22515398.863    22515398.551          46.500          46.000
        50.300
 110232701.453 7  85895705.50946                  20976547.227
                  20976557.141                          47.000          36.700

 126617972.402 7  98663438.28043                  24094597.406
                  24094610.730                          42.600          23.300

 117141516.893 7  91279230.77645                  22291272.977
                  22291283.082                          47.100          33.900

 121095822.875 7  94360471.86744                  23043746.680
                  23043758.531                          43.400          28.000

 130817754.171 6 101935811.661 6                  24893749.953
  24893764.246    24893764.168                          39.800          37.500

 130350277.957 5 101571671.97352                  24804826.078
                  24804840.094                          33.300          15.600

 14  3 21  0 21 30.0000000  0 14G09G16G13G23G07G19G30G27G03G10G08G28
                                G05G11
 116753173.055 7  90976639.63445                  22217379.773
                  22217390.688                          45.100          32.300

 128291303.633 7  99967341.78243                  24413002.422
                  24413013.898                          42.500          21.800

 108972896.337 8  84914080.26946                  20736830.563
                  20736839.414                          49.200          39.700

 120392650.823 7  93812579.52444                  22909963.148
                  22909973.617                          46.800          29.300

 107857869.814 7  84045204.927 8                  20524639.016
  20524646.684    20524647.594                          47.900          48.900

 111930791.898 8  87218904.65746                  21299689.797
                  21299697.539                          49.000          38.100

 113814832.043 7  88687103.281 7  84991815.804 8  21658244.773
  21658255.906    21658256.230    21658255.984          47.600          47.300
        52.200
 118373624.737 7  92239223.536 7  88395950.187 8  22525703.922
  22525715.324    22525715.406    22525715.676          46.300          46.600
        50.900
 110265367.342 8  85921159.43746                  20982763.492
                  20982773.203                          48.400          37.900

 126689209.483 7  98718947.55443                  24108153.133
                  24108167.340                          43.400          22.200

 117073047.835 8  91225878.34545                  22278243.016
                  22278253.781                          48.100          34.100

 121023374.769 7  94304018.98444                  23029959.852
                  23029971.406                          44.900          27.900

 130810575.455 6 101930217.873 6                  24892383.875
  24892397.219    24892397.992                          38.200          36.400

 130261446.57215 101502453.04452                  24787921.992
                  24787936.770                          33.700          16.300

 14  3 21  0 22  0.0000000  0 14G09G16G13G23G07G19G30G27G03G10G08G28
                                G05G11
 116666838.276 7  90909365.90645                  22200950.641
                  22200961.285                          44.400          32.500

 128392635.805 6 100046301.85443                  24432284.703
                  24432297.438                          41.900          22.000

 109035923.423 8  84963192.24846                  20748823.828
                  20748833.121                          48.300          39.600

 120500108.171 7  93896312.36944                  22930411.891
                  22930421.547                          47.000          26.500

 107827180.092 8  84021290.888 8                  20518798.820
  20518806.742    20518807.199                          48.000          49.200

 111911059.019 8  87203528.43246                  21295934.773
                  21295942.883                          48.700          38.600

 113753444.899 7  88639269.202 8  84945974.834 8  21646562.727
  21646574.863    21646574.938    21646574.570          47.800          48.300
        51.900
 118428352.735 7  92281868.685 7  88436818.449 8  22536118.305
  22536129.844    22536130.168    22536130.496          45.500          46.400
        50.600
 110298667.500 8  85947107.61046                  20989100.047
                  20989109.941                          48.300          37.400

 126760700.483 7  98774654.75743                  24121756.891
                  24121771.730                          43.000          22.600

 117004661.587 7  91172590.42745                  22265229.539
                  22265239.699                          47.200          34.100

 120951176.177 7  94247760.53644                  23016221.258
                  23016231.480                          45.400          27.500

 130803911.628 6 101925025.319 6                  24891115.102
  24891129.719    24891129.805                          38.800          37.700

 130172604.72415 101433225.87352                  24771015.313
                  24771030.621                          35.500          16.300

 14  3 21  0 22 30.0000000  0 14G09G16G13G23G07G19G30G27G03G10G08G28
                                G05G11
 116580627.919 7  90842189.13945                  22184545.289
                  22184556.199                          44.500          32.800

 128493960.407 6 100125256.01143                  24451565.453
                  24451578.391                          41.600          21.100

 109099460.834 8  85012701.87146                  20760915.070
                  20760924.047                          48.700          40.000

 120607797.167 7  93980225.72844                  22950904.250
                  22950914.535                          46.000          26.300

 107796744.812 8  83997575.126 8                  20513007.250
  20513015.391    20513015.480                          48.000          48.800

 111891968.185 8  87188652.50746                  21292301.703
                  21292309.492                          49.400          38.100

 113692220.456 7  88591561.916 7  84900255.357 8  21634912.258
  21634924.098    21634924.676    21634924.133          46.800          47.800
        52.300
 118483592.584 7  92324912.684 7  88478068.946 8  22546629.992
  22546641.070    22546641.633    22546641.551          45.200          46.600
        50.400
 110332600.679 8  85973549.05146                  20995557.500
                  20995566.883                          48.900          37.700

 126832442.722 7  98830557.62143                  24135409.359
                  24135423.895                          45.100          23.000

 116936359.051 7  91119367.76145                  22252232.813
                  22252242.215                          47.200          34.400

 120879227.592 7  94191696.90644                  23002529.516
                  23002539.848                          44.800          27.600

 130797762.149 6 101920233.531 6                  24889945.508
  24889959.301    24889959.840                          38.800          38.400

 130083755.591 6 101363992.99642                  24754109.148
                  24754122.781                          37.100          16.900

 14  3 21  0 23  0.0000000  0 14G09G16G13G23G07G19G30G27G03G10G08G28
                                G05G11
 116494543.361 7  90775110.39645                  22168164.094
                  22168174.645                          44.600          32.800

 128595275.949 6 100204203.06543                  24470845.047
                  24470857.992                          41.700          21.100

 109163506.927 8  85062607.86846                  20773102.883
                  20773111.590                          49.500          39.200

 120715715.221 7  94064317.54044                  22971440.734
                  22971451.277                          45.500          24.900

 107766564.807 8  83974058.274 8                  20507264.242
  20507271.926    20507272.238                          49.000          49.500

 111873520.151 8  87174277.46546                  21288791.211
                  21288798.941                          49.300          38.900

 113631159.513 8  88543982.031 8  84854657.977 8  21623292.578
  21623304.219    21623304.578    21623304.270          48.300          48.200
        52.100
 118539342.192 7  92368353.912 7  88519700.119 8  22557238.570
  22557250.254    22557250.656    22557250.398          45.300          46.600
        49.500
 110367165.452 8  86000482.64246                  21002134.906
                  21002144.629                          49.600          37.400

 126904432.879 7  98886653.70743                  24149109.508
                  24149121.621                          43.600          22.800

 116868140.986 7  91066210.89445                  22239250.961
                  22239261.289                          47.700          34.800

 120807529.102 7  94135828.14044                  22988885.930
                  22988896.563                          46.800          26.400

 130792126.875 6 101915842.450 6                  24888872.508
  24888887.066    24888887.016                          38.500          38.400

 129994901.336 6 101294756.19243                  24737200.773
                  24737213.820                          36.700          18.300

 14  3 21  0 23 30.0000000  0 14G09G16G13G23G07G19G30G27G03G10G08G28
                                G05G11
 116408585.697 7  90708130.53345                  22151807.430
                  22151817.516                          45.300          32.800

 128696580.396 6 100283141.53943                  24490122.141
                  24490135.922                          41.400          21.300

 109228060.042 8  85112908.95846                  20785386.789
                  20785395.504                          50.200          40.400

 120823859.633 7  94148585.75444                  22992019.727
                  22992030.551                          45.600          26.800

 107736640.836 8  83950740.917 8                  20501569.742
  20501577.438    20501577.906                          48.900          48.600

 111855715.725 8  87160403.92946                  21285403.047
                  21285411.004                          49.500          38.800

 113570262.769 7  88496530.094 7  84809183.214 8  21611704.352
  21611715.660    21611715.934    21611715.918          47.600          47.600
        52.200
 118595599.404 7  92412190.659 7  88561710.340 8  22567944.063
  22567955.230    22567955.629    22567955.375          45.200          46.300
        49.600
 110402360.101 8  86027907.03746                  21008832.328
                  21008841.531                          49.000          38.100

 126976667.986 7  98942940.65243                  24162854.641
                  24162867.766                          42.300          22.300

 116800008.082 8  91013120.38845                  22226285.820
                  22226295.965                          48.700          34.500

 120736081.151 7  94080154.56944                  22975289.203
                  22975300.063                          45.800          28.200

 130787005.128 6 101911851.490 6                  24887898.625
  24887912.754    24887912.879                          36.500          38.900

 129906045.118 6 101225517.82443                  24720292.266
                  24720304.742                          38.100          19.000

 14  3 21  0 24  0.0000000  0 14G09G16G13G23G07G19G30G27G03G10G08G28
                                G05G11
 116322756.592 7  90641250.85145                  22135473.977
                  22135484.316                          44.300          31.800

 128797872.852 6 100362070.67043                  24509398.461
                  24509410.207                          40.800          21.300

 109293118.626 8  85163603.90846                  20797766.992
                  20797776.035                          50.500          40.100

 120932228.251 7  94233028.68244                  23012641.727
                  23012652.816                          45.400          27.800

 107706975.163 7  83927624.830 8                  20495924.992
  20495932.281    20495932.547                          47.400          49.300

 111838556.416 8  87147033.09146                  21282137.961
                  21282145.273                          49.400          38.900

 113509531.458 7  88449207.059 7  84763831.986 8  21600147.250
  21600159.402    21600159.184    21600159.578          47.200          47.300
        52.500
 118652362.605 7  92456421.683 7  88604098.408 8  22578746.117
  22578757.066    22578757.207    22578756.836          44.900          46.600
        49.500
 110438183.117 8  86055821.06946                  21015648.914
                  21015658.949                          49.400          37.100

 127049144.994 6  98999416.13343                  24176646.492
                  24176661.137                          41.100          22.500

 116731961.384 7  90960097.05845                  22213337.000
                  22213347.465                          47.800          35.500

 120664884.753 7  94024677.01644                  22961741.133
                  22961752.246                          45.600          28.100

 130782396.311 6 101908260.209 6                  24887021.945
  24887034.973    24887035.688                          37.700          38.000

 129817190.265 6 101156280.50843                  24703383.172
                  24703397.281                          38.700          19.600

 14  3 21  0 24 30.0000000  0 14G09G16G13G23G07G19G30G27G03G10G08G28
                                G05G11
 116237057.032 7  90574472.11945                  22119165.359
                  22119175.898                          44.500          32.300

 128899151.642 6 100440989.13943                  24528671.961
                  24528683.020                          39.900          22.000

 109358680.730 8  85214691.20746                  20810243.000
                  20810252.359                          50.300          39.800

 121040818.126 7  94317644.00344                  23033306.273
                  23033316.473                          46.300          28.700

 107677567.796 7  83904710.030 8                  20490328.563
  20490336.402    20490336.977                          47.900          49.100

 111822042.388 8  87134165.05746                  21278995.359
                  21279002.652                          49.300          38.600

 113448966.298 8  88402013.485 7  84718604.832 8  21588621.977
  21588633.355    21588633.336    21588633.613          48.100          47.600
        52.400
 118709629.556 7  92501045.243 7  88646862.648 8  22589643.516
  22589655.113    22589655.125    22589655.223          43.900          46.400
        49.000
 110474633.235 8  86084223.75646                  21022585.023
                  21022594.730                          48.500          36.800

 127121861.144 6  99056077.90143                  24190484.531
                  24190499.188                          41.300          22.800

 116664001.315 7  90907141.22845                  22200404.172
                  22200414.852                          47.200          35.500

 120593939.651 7  93969395.32944                  22948240.773
                  22948251.570                          42.600          29.100

 130778300.236 6 101905068.474 6                  24886242.148
  24886255.672    24886255.512                          39.700          36.700

 129728339.109 6 101087046.07043                  24686474.563
                  24686489.336                          39.200          20.600

 14  3 21  0 25  0.0000000  0 14G09G16G13G23G07G19G30G27G03G10G08G28
                                G05G11
 116151488.180 7  90507795.24445                  22102882.297
                  22102893.008                          44.900          33.000

 129000415.182 6 100519895.67843                  24547941.273
                  24547952.875                          40.500          21.700

 109424744.840 8  85266169.70746                  20822814.664
                  20822823.434                          49.500          39.500

 121149626.785 7  94402429.80944                  23054011.406
                  23054022.547                          45.500          29.100

 107648419.518 7  83881997.112 8                  20484782.102
  20484789.801    20484790.484                          47.900          49.800

 111806173.866 8  87121800.02846                  21275975.219
                  21275982.984                          49.600          38.600

 113388568.135 7  88354950.046 7  84673502.377 8  21577129.109
  21577140.266    21577139.953    21577140.289          46.900          47.600
        52.200
 118767398.125 7  92546059.683 7  88690001.473 8  22600636.633
  22600647.836    22600648.160    22600648.082          45.200          46.400
        49.500
 110511708.950 7  86113113.91546                  21029640.469
                  21029649.957                          47.400          36.900

 127194813.147 6  99112923.50443                  24204366.891
                  24204382.047                          40.600          22.500

 116596128.740 8  90854253.56845                  22187488.289
                  22187499.438                          48.200          35.400

 120523246.086 7  93914309.61645                  22934787.484
                  22934799.945                          44.900          30.200

 130774716.445 6 101902275.935 6                  24885560.953
  24885573.320    24885573.355                          38.800          36.600

 129639493.907 6 101017816.27143                  24669567.273
                  24669583.676                          39.400          20.400

 14  3 21  0 25 30.0000000  0 14G09G16G13G23G07G19G30G27G03G10G08G28
                                G05G11
 116066051.646 7  90441221.46345                  22086624.445
                  22086634.719                          45.000          32.700

 129101662.270 6 100598789.41943                  24567208.539
                  24567219.609                          40.400          22.600

 109491309.847 8  85318038.49646                  20835481.578
                  20835490.828                          51.100          39.900

 121258651.950 7  94487384.30345                  23074759.453
                  23074769.637                          46.100          30.200

 107619532.601 8  83859487.860 8                  20479284.797
  20479292.801    20479293.465                          48.600          49.800

 111790952.742 7  87109939.45946                  21273078.844
                  21273086.574                          47.900          38.500

 113328338.129 8  88308017.633 7  84628525.494 8  21565667.406
  21565678.930    21565678.621    21565678.781          48.100          47.500
        52.500
 118825666.603 7  92591463.659 7  88733513.616 8  22611724.617
  22611736.559    22611736.992    22611736.324          45.000          46.800
        49.300
 110549408.443 7  86142490.13846                  21036814.219
                  21036824.156                          47.800          36.900

 127267998.254 6  99169950.66144                  24218294.023
                  24218307.918                          41.300          24.300

 116528344.947 8  90801435.09045                  22174589.906
                  22174600.285                          48.000          35.400

 120452805.166 7  93859420.81644                  22921383.586
                  22921395.043                          45.900          29.400

 130771644.704 6 101899882.387 6                  24884974.555
  24884989.836    24884989.504                          37.100          37.300

 129550658.644 6 100948594.19443                  24652663.086
                  24652678.559                          39.900          20.900

 14  3 21  0 26  0.0000000  0 14G09G16G13G23G07G19G30G27G03G10G08G28
                                G05G11
 115980748.918 7  90374751.94545                  22070391.164
                  22070402.082                          44.700          32.000

 129202891.413 6 100677669.16343                  24586471.883
                  24586483.359                          40.100          20.900

 109558373.427 8  85370295.78146                  20848243.586
                  20848252.645                          51.100          39.300

 121367891.055 7  94572505.50644                  23095546.797
                  23095557.680                          45.700          28.900

 107590907.978 7  83837182.989 8                  20473837.781
  20473845.582    20473846.066                          47.600          48.900

 111776379.695 8  87098583.87946                  21270306.398
                  21270313.129                          48.800          38.700

 113268277.273 7  88261217.033 7  84583674.921 8  21554237.961
  21554249.938    21554249.801    21554249.609          47.100          47.900
        52.100
 118884432.923 7  92637255.560 7  88777397.515 8  22622907.219
  22622919.609    22622919.824    22622919.277          44.900          46.800
        50.200
 110587730.742 8  86172351.64946                  21044106.852
                  21044116.227                          48.300          37.000

 127341413.229 6  99227157.00143                  24232263.891
                  24232278.570                          41.600          22.800

 116460650.583 7  90748686.29145                  22161707.719
                  22161718.461                          46.800          34.700

 120382616.638 7  93804728.62344                  22908026.125
                  22908038.875                          43.000          29.700

 130769084.239 5 101897887.180 6                  24884489.430
  24884502.422    24884502.094                          35.400          37.100

 129461835.976 6 100879381.93543                  24635759.961
                  24635775.930                          39.600          20.900

 14  3 21  0 26 30.0000000  0 14G09G16G13G23G07G19G30G27G03G10G08G28
                                G05G11
 115895581.419 7  90308387.79945                  22054184.023
                  22054194.953                          45.400          31.600

 129304101.382 6 100756533.99143                  24605730.930
                  24605744.020                          39.400          21.800

 109625934.137 8  85422940.45046                  20861099.422
                  20861108.754                          49.500          39.900

 121477341.664 7  94657791.52044                  23116373.539
                  23116385.844                          44.200          28.700

 107562546.538 7  83815083.191 8                  20468440.828
  20468448.965    20468449.000                          46.400          49.100

 111762454.610 8  87087733.20946                  21267656.359
                  21267663.320                          48.800          38.600

 113208386.368 7  88214548.862 8  84538951.264 8  21542841.391
  21542853.148    21542853.066    21542852.996          47.700          48.100
        52.400
 118943694.887 7  92683433.675 7  88821651.544 8  22634184.641
  22634196.496    22634196.770    22634196.750          43.800          45.500
        50.200
 110626673.806 8  86202696.88046                  21051517.453
                  21051526.984                          48.600          36.700

 127415054.980 6  99284540.04644                  24246277.430
                  24246292.434                          40.600          24.000

 116393046.385 7  90696007.76045                  22148843.016
                  22148853.176                          47.600          35.300

 120312680.723 7  93750233.30244                  22894717.867
                  22894729.352                          46.000          28.400

 130767034.635 6 101896290.125 5                  24884098.422
  24884111.969    24884112.105                          39.000          35.900

 129373028.504 6 100810181.53043                  24618859.922
                  24618875.953                          38.400          20.400

 14  3 21  0 27  0.0000000  0 14G09G16G13G23G07G19G30G27G03G10G08G28
                                G05G11
 115810550.387 7  90242129.98045                  22038004.008
                  22038014.043                          46.100          31.100

 129405290.656 6 100835382.70243                  24624986.617
                  24624999.051                          40.400          22.500

 109693990.372 8  85475971.24446                  20874050.648
                  20874059.375                          49.200          39.300

 121587001.156 7  94743240.28144                  23137242.430
                  23137253.613                          44.100          28.600

 107534449.128 7  83793189.129 8                  20463093.953
  20463101.605    20463101.824                          47.300          48.500

 111749178.741 8  87077388.41746                  21265129.875
                  21265136.957                          48.700          39.200

 113148666.506 7  88168013.963 7  84494355.329 8  21531476.789
  21531488.668    21531488.945    21531488.816          47.500          47.800
        52.500
 119003450.587 7  92729996.538 7  88866274.274 8  22645555.891
  22645567.566    22645567.488    22645568.055          45.800          45.200
        50.000
 110666236.613 8  86233525.03546                  21059046.109
                  21059056.332                          48.100          36.800

 127488920.571 6  99342097.51443                  24260332.891
                  24260348.816                          40.900          23.400

 116325533.382 8  90643400.28945                  22135995.828
                  22136005.625                          48.000          35.400

 120242998.073 7  93695935.35344                  22881458.320
                  22881469.148                          44.000          28.900

 130765495.392 6 101895090.755 6                  24883805.820
  24883819.012    24883819.508                          37.300          37.200

 129284239.375 6 100740995.40443                  24601964.695
                  24601979.418                          38.100          21.100

 14  3 21  0 27 30.0000000  0 14G09G16G13G23G07G19G30G27G03G10G08G28
                                G05G11
 115725657.428 7  90175979.73845                  22021848.750
                  22021859.121                          45.400          32.300

 129506457.840 6 100914214.19843                  24644238.188
                  24644251.305                          40.900          21.100

 109762540.157 8  85529386.61346                  20887095.180
                  20887103.805                          49.600          39.200

 121696867.004 7  94828849.86944                  23158149.141
                  23158160.445                          44.200          28.300

 107506617.071 7  83771501.826 8                  20457798.148
  20457805.672    20457805.813                          47.900          48.600

 111736552.691 8  87067549.97546                  21262727.258
                  21262734.430                          48.000          39.200

 113089118.607 7  88121613.051 8  84449887.811 8  21520145.180
  21520157.027    21520157.156    21520156.730          47.200          48.300
        52.600
 119063697.896 7  92776942.475 7  88911264.105 8  22657020.734
  22657032.176    22657031.840    22657032.871          45.700          44.500
        50.200
 110706417.094 8  86264834.48046                  21066692.313
                  21066701.492                          49.800          37.300

 127563007.047 6  99399827.07343                  24274431.867
                  24274447.031                          40.700          23.800

 116258112.490 8  90590864.58945                  22123165.891
                  22123175.652                          48.100          35.600

 120173569.130 7  93641835.00444                  22868244.703
                  22868257.410                          42.800          28.900

 130764466.221 5 101894288.773 6                  24883609.258
  24883623.336    24883622.867                          35.200          38.900

 129195471.307 6 100671825.70143                  24585071.547
                  24585087.223                          37.800          22.500

 14  3 21  0 28  0.0000000  0 14G09G16G13G23G07G19G30G27G03G10G08G28
                                G05G11
 115640903.852 7  90109938.12645                  22005721.039
                  22005731.031                          45.900          32.100

 129607601.341 6 100993027.24543                  24663485.461
                  24663497.688                          40.100          21.500

 109831582.112 8  85583185.49546                  20900233.273
                  20900242.313                          50.300          39.500

 121806936.800 7  94914618.35244                  23179094.672
                  23179106.574                          44.000          27.900

 107479051.707 8  83750022.335 8                  20452552.281
  20452560.012    20452560.465                          48.100          48.500

 111724577.092 8  87058218.38146                  21260448.336
                  21260455.418                          49.000          39.000

 113029743.790 7  88075347.022 8  84405549.542 8  21508846.805
  21508858.227    21508858.250    21508857.707          47.600          48.400
        52.600
 119124434.852 7  92824269.943 7  88956619.577 8  22668578.398
  22668589.773    22668590.063    22668590.156          44.500          45.100
        50.000
 110747213.999 8  86296624.26646                  21074455.984
                  21074464.879                          48.800          36.700

 127637311.397 6  99457726.40943                  24288571.945
                  24288587.023                          40.600          23.600

 116190784.598 7  90538401.35745                  22110354.031
                  22110363.797                          47.700          34.800

 120104393.899 7  93587932.38744                  22855082.023
                  22855092.555                          44.700          28.300

 130763946.567 6 101893883.785 6                  24883510.547
  24883525.285    24883524.617                          37.600          38.400

 129106727.539 6 100602674.93343                  24568184.664
                  24568198.824                          39.000          22.200

 14  3 21  0 28 30.0000000  0 14G09G16G13G23G07G19G30G27G03G10G08G28
                                G05G11
 115556291.181 7  90044006.29645                  21989619.102
                  21989629.805                          46.100          32.700

 129708720.300 6 101071821.16443                  24682727.922
                  24682739.988                          39.200          20.100

 109901114.357 8  85637366.41646                  20913465.117
                  20913474.082                          50.100          39.600

 121917208.290 7  95000544.00944                  23200078.531
                  23200090.230                          43.800          27.300

 107451754.168 7  83728751.549 8                  20447357.305
  20447365.285    20447366.086                          46.100          49.100

 111713252.715 8  87049394.22946                  21258293.461
                  21258300.641                          48.800          38.800

 112970543.019 8  88029216.602 8  84361341.232 8  21497581.039
  21497592.902    21497593.023    21497592.363          48.300          48.300
        51.900
 119185659.349 7  92871977.301 7  89002339.131 8  22680229.828
  22680240.750    22680241.559    22680240.949          45.900          46.000
        49.900
 110788625.389 8  86328892.86846                  21082336.344
                  21082345.465                          48.300          37.400

 127711830.637 6  99515793.22843                  24302752.820
                  24302767.477                          41.800          23.800

 116123550.528 7  90486011.23445                  22097559.836
                  22097569.785                          47.800          35.800

 120035473.025 7  93534227.97244                  22841966.555
                  22841978.254                          44.100          29.000

 130763935.514 6 101893875.216 5                  24883509.234
  24883522.234    24883522.117                          38.100          35.000

 129018010.882 6 100533545.29943                  24551302.516
                  24551316.582                          37.900          21.700

 14  3 21  0 29  0.0000000  0 14G09G16G13G23G07G19G30G27G03G10G08G28
                                G05G11
 115471820.590 7  89978185.17645                  21973544.906
                  21973555.180                          45.300          33.000

 129809813.214 6 101150594.79143                  24701965.156
                  24701977.055                          37.200          19.300

 109971135.145 8  85691928.01946                  20926789.602
                  20926798.844                          49.600          39.600

 122027678.308 7  95086624.35344                  23221100.742
                  23221112.422                          44.900          26.000

 107424725.523 7  83707690.288 8                  20442214.594
  20442222.141    20442222.453                          47.200          49.300

 111702579.857 7  87041077.75246                  21256262.359
                  21256269.559                          47.700          38.700

 112911517.275 7  87983222.577 8  84317263.635 8  21486348.953
  21486360.367    21486360.301    21486359.820          47.900          48.300
        52.400
 119247369.240 7  92920062.890 7  89048421.167 8  22691972.461
  22691983.922    22691984.313    22691983.938          45.700          45.900
        49.200
 110830649.352 8  86361638.80046                  21090333.094
                  21090342.188                          48.300          37.100

 127786561.813 7  99574025.24243                  24316973.203
                  24316988.539                          42.000          22.500

 116056411.261 7  90433695.00545                  22084783.313
                  22084793.203                          47.900          35.700

 119966806.451 7  93480721.69644                  22828899.750
                  22828911.777                          45.100          28.700

 130764432.697 6 101894262.709 5                  24883603.203
  24883617.184    24883616.980                          38.300          35.500

 128929324.266 6 100464439.04443                  24534425.375
                  24534440.406                          36.800          20.600

 14  3 21  0 29 30.0000000  0 14G09G16G13G23G07G19G30G27G03G10G08G28
                                G05G11
 115387493.888 7  89912476.16945                  21957497.867
                  21957508.234                          46.700          32.200

 129910878.729 5 101229347.06343                  24721196.563
                  24721209.918                          35.700          18.300

 110041642.786 8  85746868.98446                  20940206.734
                  20940216.012                          49.600          39.200

 122138344.772 7  95172857.80044                  23242160.328
                  23242171.895                          45.400          27.100

 107397967.276 7  83686839.733 8                  20437122.078
  20437130.152    20437130.441                          47.000          49.000

 111692559.265 7  87033269.53646                  21254355.234
                  21254362.531                          47.700          38.900

 112852667.632 7  87937365.775 7  84273317.541 8  21475149.805
  21475161.578    21475161.754    21475161.328          46.300          47.900
        52.700
 119309562.524 7  92968525.134 7  89094864.161 8  22703807.344
  22703818.543    22703819.031    22703819.129          45.200          45.600
        49.600
 110873284.562 8  86394861.02546                  21098446.063
                  21098455.535                          48.900          36.500

 127861501.667 6  99632419.76743                  24331234.063
                  24331249.762                          41.400          23.600

 115989367.825 7  90381453.43446                  22072025.531
                  22072035.172                          47.500          36.000

 119898395.033 7  93427414.23144                  22815881.063
                  22815892.637                          43.900          28.800

 130765437.593 6 101895045.712 6                  24883793.992
  24883807.621    24883808.230                          38.600          37.800

 128840670.618 6 100395358.46643                  24517554.648
                  24517569.723                          37.300          22.000

 14  3 21  0 30  0.0000000  4  5
DSRC (COGO code)                                            COMMENT
   0.000      (antenna height)                              COMMENT
 +39.99147598 (latitude)                                    COMMENT
-105.26107939 (longitude)                                   COMMENT
1655.057      (elevation)                                   COMMENT
 14  3 21  0 30  0.0000000  0 14G09G16G13G23G07G19G30G27G03G10G08G28
                                G05G11
 115303312.220 7  89846880.16945                  21941478.750
                  21941489.027                          46.700          32.400

 130011915.432 6 101308076.90442                  24740423.336
                  24740436.469                          36.000          16.900

 110112635.217 8  85802187.72146                  20953716.180
                  20953725.480                          48.200          38.800

 122249205.019 7  95259242.28144                  23263256.203
                  23263267.594                          44.300          26.200

 107371479.922 8  83666200.263 8                  20432081.914
  20432089.297    20432089.754                          48.400          49.500

 111683191.196 8  87025969.78146                  21252572.484
                  21252579.992                          48.500          39.200

 112793994.795 8  87891646.738 8  84229503.486 8  21463985.352
  21463996.199    21463996.641    21463996.098          48.300          48.400
        53.000
 119372236.729 7  93017362.141 7  89141666.278 8  22715733.711
  22715745.418    22715745.430    22715745.582          43.800          45.500
        50.200
 110916529.121 8  86428558.06746                  21106675.352
                  21106684.898                          48.300          37.500

 127936646.980 6  99690974.41943                  24345534.133
                  24345549.043                          40.900          22.300

 115922420.902 7  90329287.06746                  22059285.656
                  22059295.559                          47.500          36.000

 119830238.797 7  93374305.62544                  22802910.727
                  22802922.508                          43.000          27.500

 130766949.203 6 101896223.539 6                  24884082.031
  24884095.953    24884096.000                          38.000          37.400

 128752052.902 6 100326305.90643                  24500691.133
                  24500706.859                          38.700          21.300

 14  3 21  0 30 30.0000000  0 14G09G16G13G23G07G19G30G27G03G10G08G28
                                G05G11
 115219277.047 7  89781398.30945                  21925487.047
                  21925497.520                          45.500          33.600

 130112921.632 5 101386782.99742                  24759644.070
                  24759657.453                          33.200          16.300

 110184110.790 8  85857882.92846                  20967317.398
                  20967326.457                          49.100          38.700

 122360256.354 7  95345775.61444                  23284388.430
                  23284400.352                          44.300          26.900

 107345264.664 8  83645772.810 8                  20427093.414
  20427100.723    20427101.113                          48.200          49.000

 111674476.189 8  87019178.89646                  21250914.109
                  21250921.410                          48.700          39.600

 112735499.941 7  87846066.389 8  84185822.329 8  21452853.805
  21452864.547    21452865.063    21452864.578          47.900          48.300
        52.400
 119435389.876 7  93066572.355 7  89188826.042 8  22727750.977
  22727762.750    22727762.586    22727762.684          43.500          45.100
        50.300
 110960381.309 8  86462728.60246                  21115020.313
                  21115029.996                          48.100          37.000

 128011994.889 7  99749686.96443                  24359872.859
                  24359887.500                          43.300          23.200

 115855571.445 7  90277196.64745                  22046564.352
                  22046574.512                          47.500          35.000

 119762337.823 7  93321395.90344                  22789989.891
                  22790001.910                          43.500          29.500

 130768967.089 6 101897795.962 6                  24884465.398
  24884479.719    24884480.246                          38.100          36.100

 128663474.013 6 100257283.62343                  24483835.875
                  24483850.168                          38.000          22.200

 14  3 21  0 31  0.0000000  0 14G09G16G13G23G07G19G30G27G03G10G08G28
                                G05G11
 115135390.225 7  89716032.04545                  21909523.688
                  21909534.563                          45.700          33.100

 130213896.826 5 101465464.86142                  24778858.859
                  24778871.977                          35.900          14.800

 110256067.884 8  85913953.33146                  20981010.445
                  20981019.016                          50.100          38.400

 122471496.393 7  95432456.00144                  23305556.672
                  23305567.781                          44.100          25.600

 107319323.305 8  83625558.779 8                  20422156.938
  20422164.121    20422164.250                          49.400          48.800

 111666415.138 8  87012897.59146                  21249380.094
                  21249387.199                          48.500          38.900

 112677184.409 8  87800625.765 8  84142275.081 8  21441756.555
  21441768.172    21441768.336    21441767.676          48.200          48.800
        52.800
 119499020.112 7  93116154.320 7  89236342.072 8  22739859.391
  22739871.410    22739871.570    22739870.785          44.500          45.500
        49.700
 111004839.619 8  86497371.43446                  21123480.375
                  21123489.945                          48.800          36.500

 128087542.600 7  99808555.16344                  24374249.180
                  24374264.363                          43.500          24.100

 115788820.863 8  90225183.27545                  22033862.094
                  22033871.852                          48.100          35.400

 119694692.794 7  93268685.62744                  22777117.039
                  22777128.848                          43.400          28.200

 130771490.672 6 101899762.406 6                  24884945.688
  24884959.465    24884960.563                          37.100          36.600

 128574937.211 6 100188294.10543                  24466986.805
                  24467001.609                          38.900          22.500

 14  3 21  0 31 30.0000000  0 14G09G16G13G23G07G19G30G27G03G10G08G28
                                G05G11
 115051652.803 7  89650782.20445                  21893589.000
                  21893600.281                          45.400          32.800

 130314838.902 6 101544121.02942                  24798068.445
                  24798081.434                          37.600          17.800

 110328504.071 8  85970397.06146                  20994794.867
                  20994803.473                          49.200          38.800

 122582922.547 7  95519281.40944                  23326761.180
                  23326772.000                          43.900          26.800

 107293656.461 7  83605558.670 8                  20417272.625
  20417280.195    20417280.723                          47.600          49.100

 111659007.944 8  87007125.78946                  21247970.594
                  21247977.848                          48.500          39.400

 112619048.745 7  87755325.298 8  84098862.149 8  21430693.797
  21430704.660    21430704.980    21430704.613          47.300          48.100
        52.500
 119563124.799 7  93166105.991 7  89284212.410 8  22752058.313
  22752070.004    22752070.527    22752069.863          44.200          45.000
        50.200
 111049901.918 8  86532484.90046                  21132055.266
                  21132065.129                          48.700          36.900

 128163286.848 7  99867576.52843                  24388662.641
                  24388677.352                          42.900          22.500

 115722169.528 8  90173247.24845                  22021179.352
                  22021188.797                          48.600          35.200

 119627303.572 7  93216174.64244                  22764293.523
                  22764304.609                          44.100          28.900

 130774518.814 6 101902121.996 6                  24885522.320
  24885536.703    24885537.512                          37.400          38.100

 128486444.938 6 100119339.27843                  24450148.000
                  24450162.086                          36.900          21.700

 14  3 21  0 32  0.0000000  0 14G09G16G13G23G07G19G30G27G03G10G08G28
                                G05G11
 114968066.437 7  89585650.06045                  21877683.055
                  21877693.895                          45.500          32.800

 130415747.273 6 101622750.91043                  24817270.836
                  24817282.586                          39.600          20.400

 110401417.646 8  86027212.78646                  21008669.680
                  21008678.297                          48.600          38.600

 122694532.170 7  95606249.79344                  23347999.570
                  23348010.652                          44.400          26.500

 107268265.528 7  83585773.550 8                  20412440.844
  20412448.410    20412449.078                          47.400          49.700

 111652254.940 7  87001863.74346                  21246685.797
                  21246693.023                          47.600          39.200

 112561094.120 7  87710165.901 8  84055584.412 8  21419665.469
  21419676.230    21419676.289    21419676.215          47.000          48.800
        52.800
 119627701.849 7  93216425.738 7  89332435.490 8  22764347.648
  22764359.109    22764359.418    22764359.102          44.600          45.100
        50.200
 111095566.609 8  86568067.77746                  21140744.953
                  21140754.461                          48.100          36.900

 128239224.629 6  99926748.72143                  24403113.102
                  24403128.082                          40.900          20.900

 115655618.556 8  90121389.40645                  22008514.625
                  22008524.371                          49.000          35.600

 119560170.619 7  93163863.36744                  22751519.438
                  22751529.527                          45.300          29.600

 130778051.012 6 101904874.341 6                  24886195.234
  24886209.449    24886209.691                          38.500          38.400

 128398000.447 6 100050421.70443                  24433317.188
                  24433330.941                          37.300          21.800

 14  3 21  0 32 30.0000000  0 14G09G16G13G23G07G19G30G27G03G10G08G28
                                G05G11
 114884632.622 7  89520636.77545                  21861806.203
                  21861816.527                          45.700          34.100

 130516620.186 6 101701353.14443                  24836466.258
                  24836478.887                          41.600          21.700

 110474807.000 8  86084399.24346                  21022635.523
                  21022644.133                          50.200          37.700

 122806323.098 7  95693359.43944                  23369272.398
                  23369283.691                          43.100          27.600

 107243151.786 8  83566204.431 8                  20407661.914
  20407669.273    20407669.969                          48.000          49.200

 111646156.708 8  86997111.89946                  21245525.133
                  21245533.305                          48.300          39.400

 112503321.603 8  87665148.409 8  84012442.667 8  21408671.469
  21408682.770    21408682.820    21408683.215          48.700          48.000
        52.800
 119692749.130 7  93267111.912 7  89381009.719 8  22776725.102
  22776737.641    22776737.711    22776737.688          45.100          45.200
        49.600
 111141831.826 8  86604118.59546                  21149548.883
                  21149558.789                          48.800          36.600

 128315353.041 6  99986069.40943                  24417599.352
                  24417615.105                          41.300          20.100

 115589169.135 8  90069610.71146                  21995870.047
                  21995879.551                          48.400          36.000

 119493293.982 7  93111751.82644                  22738792.328
                  22738803.262                          44.300          28.900

 130782086.588 5 101908018.920 6                  24886962.961
  24886976.859    24886977.703                          34.800          37.300

 128309606.836 6  99981543.76843                  24416496.688
                  24416509.852                          37.900          20.900

 14  3 21  0 33  0.0000000  0 14G09G16G13G23G07G19G30G27G03G10G08G28
                                G05G11
 114801352.455 7  89455743.20545                  21845958.180
                  21845969.105                          45.600          33.200

 130617456.133 7 101779926.56443                  24855654.852
                  24855668.137                          42.600          23.600

 110548669.442 8  86141954.33846                  21036690.953
                  21036700.086                          49.400          38.400

 122918292.205 7  95780607.89844                  23390579.352
                  23390591.203                          42.600          27.000

 107218315.392 8  83546851.427 8                  20402935.594
  20402943.215    20402943.590                          48.400          49.500

 111640713.116 8  86992870.18046                  21244488.773
                  21244497.016                          48.600          39.500

 112445731.872 8  87620273.348 8  83969437.408 8  21397712.664
  21397723.707    21397723.758    21397724.035          48.500          48.000
        53.400
 119758264.024 7  93318162.426 7  89429933.133 8  22789192.266
  22789204.160    22789204.879    22789204.387          44.600          45.400
        49.800
 111188695.279 8  86640635.55446                  21158466.898
                  21158477.734                          48.600          36.500

 128391668.767 6 100045536.06943                  24432122.234
                  24432137.770                          40.500          21.300

 115522821.722 8  90017911.49046                  21983244.359
                  21983253.965                          48.300          36.500

 119426673.692 7  93059840.04845                  22726114.906
                  22726126.074                          44.900          30.200

 130786624.454 6 101911554.954 6                  24887825.680
  24887840.117    24887840.887                          36.100          36.200

 128221266.467 6  99912707.31743                  24399685.750
                  24399699.313                          38.200          20.100

 14  3 21  0 33 30.0000000  0 14G09G16G13G23G07G19G30G27G03G10G08G28
                                G05G11
 114718227.902 7  89390970.90345                  21830140.000
                  21830151.008                          46.400          34.200

 130718254.336 6 101858470.59543                  24874835.617
                  24874848.914                          41.100          22.000

 110623004.046 8  86199877.36146                  21050836.313
                  21050845.070                          49.800          38.300

 123030437.131 7  95867993.36244                  23411920.773
                  23411932.262                          42.700          26.000

 107193758.406 7  83527716.149 8                  20398262.125
  20398269.664    20398270.164                          47.200          49.800

 111635925.117 7  86989139.29746                  21243577.680
                  21243585.207                          47.200          39.200

 112388326.487 7  87575541.937 7  83926569.818 8  21386788.477
  21386799.578    21386799.586    21386799.805          47.300          47.600
        53.400
 119824244.833 7  93369575.990 7  89479204.471 8  22801747.734
  22801759.859    22801760.422    22801759.930          45.200          45.700
        50.100
 111236155.482 8  86677617.50946                  21167498.086
                  21167508.242                          48.200          37.100

 128468169.188 6 100105146.60643                  24446680.297
                  24446694.945                          40.000          19.900

 115456577.667 7  89966292.81445                  21970638.758
                  21970647.914                          47.900          35.500

 119360310.305 7  93008128.44944                  22713486.047
                  22713497.766                          44.700          29.000

 130791664.204 6 101915482.036 6                  24888785.945
  24888799.379    24888800.039                          38.400          38.300

 128132982.948 6  99843915.23143                  24382885.719
                  24382898.797                          38.100          19.900

 14  3 21  0 34  0.0000000  0 14G09G16G13G23G07G19G30G27G03G10G08G28
                                G05G11
 114635260.624 7  89326321.14445                  21814352.055
                  21814363.031                          45.400          33.300

 130819013.434 6 101936984.13144                  24894010.336
                  24894023.297                          41.500          26.100

 110697808.665 8  86258166.61846                  21065071.742
                  21065080.066                          49.800          37.600

 123142755.426 6  95955513.92844                  23433294.359
                  23433305.996                          41.600          25.400

 107169481.937 7  83508799.458 8                  20393642.742
  20393650.395    20393650.766                          46.900          49.500

 111631792.870 7  86985919.39146                  21242791.656
                  21242798.953                          45.400          38.600

 112331106.356 7  87530954.889 8  83883840.567 8  21375899.859
  21375911.387    21375911.230    21375911.684          47.200          48.100
        53.200
 119890689.186 7  93421350.766 7  89528821.968 8  22814391.711
  22814403.902    22814404.355    22814403.980          44.600          46.000
        49.700
 111284210.788 8  86715063.18146                  21176643.258
                  21176651.852                          48.700          36.600

 128544850.928 6 100164898.53043                  24461271.836
                  24461287.477                          38.300          21.300

 115390438.082 7  89914755.53746                  21958052.734
                  21958062.012                          47.400          36.100

 119294203.943 7  92956617.11944                  22700906.047
                  22700917.852                          43.100          28.500

 130797204.917 5 101919799.440 6                  24889839.125
  24889854.078    24889853.875                          34.600          39.400

 128044759.174 6  99775169.63343                  24366097.531
                  24366110.977                          37.700          19.000

 14  3 21  0 34 30.0000000  0 14G09G16G13G23G07G19G30G27G03G10G08G28
                                G05G11
 114552451.995 7  89261795.02145                  21798593.984
                  21798604.828                          46.000          33.700

 130919732.269 7 102015466.32644                  24913176.422
                  24913190.082                          42.300          25.400

 110773081.145 8  86316820.44246                  21079395.375
                  21079404.402                          50.300          38.600

 123255244.793 7  96043167.80344                  23454700.039
                  23454712.223                          42.000          26.700

 107145487.334 7  83490102.399 8                  20389076.531
  20389084.246    20389084.535                          47.900          49.500

 111628316.813 8  86983210.80946                  21242130.352
                  21242137.246                          48.000          39.800

 112274072.604 7  87486513.060 8  83841250.494 8  21365046.883
  21365057.840    21365057.484    21365058.059          47.800          48.300
        53.200
 119957594.883 7  93473485.045 7  89578783.971 8  22827123.602
  22827135.527    22827135.879    22827135.738          44.400          45.500
        50.200
 111332859.057 8  86752970.91946                  21185900.344
                  21185909.234                          49.100          36.300

 128621711.110 6 100224789.35943                  24475897.570
                  24475913.469                          39.100          21.100

 115324403.601 7  89863300.16045                  21945486.508
                  21945496.168                          47.400          35.900

 119228355.201 7  92905306.52344                  22688375.523
                  22688386.613                          44.200          29.500

 130803245.638 5 101924506.458 6                  24890988.922
  24891003.129    24891003.430                          35.800          37.100

 127956598.248 6  99706473.00843                  24349319.992
                  24349335.363                          37.600          18.600

 14  3 21  0 35  0.0000000  0 14G09G16G13G23G07G19G30G27G03G10G08G28
                                G05G11
 114469803.492 7  89197393.65645                  21782866.039
                  21782877.051                          46.000          34.100

 131020409.576 7 102093916.14744                  24932335.023
                  24932348.148                          42.000          24.300

 110848819.494 8  86375837.28446                  21093808.078
                  21093817.371                          51.000          37.800

 123367901.997 7  96130952.45944                  23476137.781
                  23476150.496                          43.000          26.600

 107121775.474 8  83471625.662 8                  20384564.078
  20384572.238    20384572.574                          48.100          49.900

 111625496.541 7  86981013.23446                  21241593.250
                  21241600.250                          46.200          39.000

 112217226.219 8  87442217.232 8  83798800.336 8  21354228.695
  21354239.992    21354239.996    21354240.336          48.600          48.500
        53.400
 120024959.597 7  93525976.975 7  89629088.730 8  22839942.945
  22839954.766    22839955.141    22839955.355          43.900          45.100
        49.800
 111382097.963 7  86791338.88946                  21195269.977
                  21195279.566                          47.600          36.500

 128698746.470 6 100284816.77843                  24490557.430
                  24490571.422                          37.600          19.300

 115258475.518 8  89811927.69746                  21932940.688
                  21932950.914                          48.000          36.600

 119162763.999 7  92854196.61945                  22675894.547
                  22675904.953                          45.600          30.800

 130809785.684 6 101929602.652 6                  24892234.203
  24892247.484    24892247.492                          39.000          36.500

 127868503.155 6  99637827.70843                  24332555.531
                  24332571.426                          39.000          19.600

 14  3 21  0 35 30.0000000  0 14G09G16G13G23G07G19G30G27G03G10G08G28
                                G05G11
 114387316.671 7  89133118.28845                  21767169.594
                  21767179.852                          45.800          33.700

 131121044.045 6 102172332.59043                  24951485.070
                  24951498.141                          41.100          23.900

 110925022.206 8  86435215.96946                  21108308.703
                  21108317.797                          51.000          38.400

 123480725.189 7  96218866.46644                  23497607.859
                  23497620.145                          43.600          27.000

 107098347.709 7  83453370.290 8                  20380106.266
  20380113.879    20380114.754                          47.800          50.200

 111623332.551 8  86979327.04446                  21241181.203
                  21241189.375                          48.900          38.700

 112160568.320 7  87398068.279 8  83756490.934 8  21343447.047
  21343458.691    21343458.551    21343458.594          47.200          48.300
        52.900
 120092781.110 7  93578824.855 7  89679734.608 8  22852848.797
  22852860.500    22852860.965    22852860.883          45.100          44.500
        49.300
 111431925.874 8  86830165.81546                  21204752.031
                  21204761.668                          48.200          36.200

 128775954.189 6 100344978.46343                  24505250.688
                  24505265.711                          40.800          22.500

 115192654.923 8  89760638.98746                  21920415.281
                  21920425.168                          48.100          36.300

 119097430.510 7  92803287.51345                  22663461.320
                  22663472.910                          44.700          30.300

 130816824.061 6 101935087.138 6                  24893573.039
  24893586.645    24893586.750                          38.500          37.100

 127780476.692 6  99569235.83243                  24315805.234
                  24315819.852                          39.100          20.900

 14  3 21  0 36  0.0000000  0 14G09G16G13G23G07G19G30G27G03G10G08G28
                                G05G11
 114304992.626 7  89068969.75945                  21751503.711
                  21751514.344                          46.600          34.900

 131221634.181 6 102250714.50143                  24970625.938
                  24970639.453                          39.000          22.300

 111001686.234 8  86494954.11846                  21122897.586
                  21122906.270                          50.300          38.400

 123593711.390 7  96306907.49744                  23519108.445
                  23519120.973                          44.100          26.700

 107075204.641 7  83435336.757 8                  20375702.133
  20375709.777    20375710.535                          47.800          50.500

 111621824.794 8  86978152.19946                  21240894.430
                  21240901.832                          49.000          39.200

 112104099.572 8  87354066.716 8  83714322.777 8  21332701.930
  21332712.848    21332712.734    21332712.660          48.000          48.100
        52.600
 120161056.638 7  93632026.528 7  89730719.534 8  22865841.563
  22865853.105    22865853.352    22865852.863          44.500          45.700
        48.600
 111482340.568 7  86869449.97045                  21214345.492
                  21214355.168                          47.100          35.900

 128853331.007 5 100405271.95343                  24519972.359
                  24519989.922                          35.500          20.900

 115126942.415 8  89709434.51246                  21907910.758
                  21907920.570                          48.800          36.000

 119032354.694 7  92752579.20545                  22651077.992
                  22651089.137                          45.600          31.400

 130824359.702 6 101940958.969 5                  24895006.820
  24895020.434    24895019.473                          38.000          35.000

 127692521.932 6  99500699.89943                  24299067.758
                  24299082.195                          37.800          19.600

 14  3 21  0 36 30.0000000  0 14G09G16G13G23G07G19G30G27G03G10G08G28
                                G05G11
 114222833.595 7  89004949.80345                  21735870.086
                  21735879.898                          46.300          34.900

 131322179.361 6 102329061.37543                  24989759.227
                  24989772.344                          37.900          19.900

 111078810.301 8  86555050.74946                  21137573.602
                  21137582.953                          50.200          38.000

 123706858.067 7  96395073.57044                  23540639.617
                  23540652.277                          43.800          26.700

 107052347.826 8  83417526.286 8                  20371352.813
  20371360.184    20371360.754                          48.000          50.100

 111620973.720 8  86977489.05946                  21240732.422
                  21240739.773                          49.300          39.100

 112047821.467 8  87310213.702 8  83672296.987 8  21321992.180
  21322003.125    21322003.277    21322003.145          48.600          48.300
        53.100
 120229784.415 7  93685580.611 7  89782042.182 8  22878919.570
  22878931.590    22878931.996    22878931.211          44.600          45.100
        48.100
 111533340.321 7  86909190.00946                  21224050.797
                  21224060.313                          47.600          36.000

 128930874.083 6 100465694.99243                  24534729.805
                  24534745.059                          37.300          20.600

 115061339.369 7  89658315.32545                  21895426.797
                  21895436.609                          47.400          35.700

 118967537.026 7  92702072.03944                  22638743.695
                  22638753.813                          45.800          29.900

 130832391.845 6 101947217.763 5                  24896535.852
  24896549.574    24896547.520                          39.800          33.500

 127604641.867 6  99432222.10943                  24282344.055
                  24282358.629                          37.400          20.400

 14  3 21  0 37  0.0000000  0 14G09G16G13G23G07G19G30G27G03G10G08G28
                                G05G11
 114140840.960 7  88941059.51045                  21720266.953
                  21720277.195                          46.400          34.900

 131422678.277 5 102407372.18943                  25008883.867
                  25008896.590                          33.600          19.000

 111156392.558 8  86615504.39746                  21152337.586
                  21152346.750                          51.100          37.900

 123820162.870 7  96483362.86243                  23562200.891
                  23562212.746                          43.600          22.600

 107029778.785 8  83399940.053 8                  20367057.945
  20367065.566    20367066.020                          48.200          50.100

 111620779.394 8  86977337.69146                  21240695.656
                  21240702.828                          49.100          39.000

 111991735.166 8  87266510.139 8  83630414.417 8  21311319.141
  21311330.977    21311330.605    21311330.652          48.600          48.600
        53.400
 120298962.121 7  93739485.274 7  89833700.816 8  22892083.531
  22892096.719    22892096.773    22892095.227          44.300          45.500
        48.300
 111584923.183 7  86949384.44545                  21233866.578
                  21233875.801                          47.900          35.700

 129008580.332 6 100526245.15944                  24549516.797
                  24549532.785                          41.700          24.700

 114995846.924 7  89607282.31846                  21882963.742
                  21882973.625                          47.500          36.000

 118902977.650 7  92651766.14745                  22626458.141
                  22626468.785                          45.500          30.000

 130840919.526 6 101953862.701 5                  24898158.664
  24898172.191    24898170.469                          39.200          33.400

 127516839.674 6  99363805.00543                  24265635.398
                  24265649.695                          38.300          19.900

 14  3 21  0 37 30.0000000  0 14G09G16G13G23G07G19G30G27G03G10G08G28
                                G05G11
 114059016.234 7  88877300.06345                  21704696.469
                  21704706.820                          47.200          35.100

 131523129.430 5 102485645.68342                  25027997.367
                  25028010.867                          31.500          14.800

 111234430.598 8  86676313.19446                  21167187.359
                  21167197.105                          51.000          37.700

 123933623.196 7  96571773.35143                  23583792.094
                  23583803.234                          42.700          23.800

 107007498.253 8  83382578.628 8                  20362818.070
  20362825.938    20362825.848                          49.100          49.300

 111621241.585 8  86977697.88246                  21240783.375
                  21240791.145                          49.100          39.900

 111935841.552 8  87222956.729 8  83588675.744 8  21300683.164
  21300694.133    21300694.355    21300694.168          48.300          48.800
        53.000
 120368587.259 7  93793738.580 7  89885693.564 8  22905333.148
  22905345.344    22905345.770    22905344.691          44.100          45.700
        48.000
 111637086.935 7  86990031.51245                  21243793.055
                  21243802.574                          47.100          35.000

 129086446.645 6 100586919.99743                  24564333.117
                  24564352.102                          38.600          21.700

 114930465.872 7  89556336.10646                  21870521.797
                  21870531.719                          47.300          36.100

 118838676.743 7  92601661.64745                  22614221.781
                  22614232.234                          44.300          30.500

 130849941.932 6 101960893.102 5                  24899874.547
  24899888.672    24899887.762                          37.200          35.100

 127429118.122 6  99295450.75743                  24248942.328
                  24248956.816                          37.700          19.300

 14  3 21  0 38  0.0000000  0 14G09G16G13G23G07G19G30G27G03G10G08G28
                                G05G11
 113977360.955 7  88813672.65445                  21689157.805
                  21689168.125                          47.600          34.100

 131623531.871 5 102563881.38642                  25047104.875
                  25047117.406                          31.500          16.300

 111312922.416 8  86737475.59146                  21182124.055
                  21182133.563                          50.200          38.000

 124047236.232 7  96660302.82643                  23605412.555
                  23605422.973                          42.200          23.900

 106985507.880 8  83365443.305 8                  20358633.367
  20358641.113    20358641.465                          48.500          49.400

 111622360.470 8  86978569.76746                  21240996.281
                  21241004.371                          48.800          39.000

 111880141.722 8  87179554.324 8  83547081.784 8  21290083.625
  21290095.145    21290095.129    21290095.117          48.700          48.900
        52.800
 120438657.546 7  93848338.758 7  89938018.735 8  22918667.000
  22918679.586    22918679.785    22918679.234          42.700          45.600
        48.400
 111689829.720 7  87031129.76945                  21253829.688
                  21253839.297                          47.800          35.700

 129164470.187 6 100647717.41843                  24579182.930
                  24579197.559                          39.800          22.600

 114865197.348 8  89505477.59746                  21858101.609
                  21858111.445                          48.500          37.100

 118774634.379 7  92551758.61245                  22602034.977
                  22602045.711                          45.200          30.400

 130859457.955 6 101968308.158 6                  24901685.938
  24901699.570    24901699.023                          38.000          37.100

 127341480.572 6  99227161.96943                  24232265.742
                  24232279.828                          38.400          20.900

 14  3 21  0 38 30.0000000  0 14G09G16G13G23G07G19G30G27G03G10G08G28
                                G05G11
 113895876.713 7  88750178.52445                  21673651.859
                  21673662.281                          47.500          34.900

 131723884.78515 102642078.38552                  25066199.102
                  25066213.707                          31.800          15.600

 111391866.392 8  86798990.32646                  21197146.797
                  21197155.449                          50.700          37.900

 124160999.584 7  96748949.42243                  23627060.867
                  23627072.422                          43.100          23.800

 106963808.376 8  83348534.627 8                  20354504.094
  20354511.203    20354511.719                          48.500          49.400

 111624136.005 8  86979953.34546                  21241334.297
                  21241342.039                          49.300          39.300

 111824637.006 7  87136303.957 8  83505633.529 8  21279521.438
  21279532.707    21279532.730    21279532.480          47.400          49.100
        53.100
 120509170.746 7  93903284.068 7  89990674.660 8  22932084.828
  22932097.383    22932097.852    22932098.004          43.900          44.200
        48.900
 111743149.273 8  87072677.47245                  21263976.047
                  21263985.398                          48.200          35.800

 129242647.895 6 100708634.95643                  24594059.109
                  24594073.703                          41.200          21.300

 114800042.488 8  89454707.63246                  21845703.734
                  21845713.316                          48.900          36.900

 118710850.820 7  92502057.26145                  22589897.313
                  22589908.320                          46.600          30.700

 130869466.453 5 101976107.009 5                  24903589.500
  24903604.316    24903603.805                          35.300          35.100

 127253930.008 6  99158940.93743                  24215605.305
                  24215619.395                          39.400          21.700

 14  3 21  0 39  0.0000000  0 14G09G16G13G23G07G19G30G27G03G10G08G28
                                G05G11
 113814565.073 7  88686818.89945                  21658178.758
                  21658188.840                          47.800          34.600

 131824186.16315 102720235.30352                  25085287.672
                  25085300.840                          34.300          15.600

 111471259.751 8  86860855.22846                  21212254.453
                  21212263.945                          49.300          37.800

 124274910.502 6  96837711.02344                  23648736.680
                  23648748.422                          41.800          25.200

 106942400.770 8  83331853.393 8                  20350430.234
  20350437.980    20350438.383                          48.500          49.700

 111626568.191 7  86981848.59046                  21241797.070
                  21241804.504                          47.400          39.400

 111769328.153 7  87093206.214 8  83464331.529 8  21268996.172
  21269007.898    21269007.938    21269007.340          47.700          48.800
        53.400
 120580124.254 7  93958572.470 7  90043659.371 8  22945587.172
  22945599.125    22945599.148    22945599.887          42.700          44.300
        49.500
 111797043.238 7  87114672.75445                  21274232.070
                  21274241.066                          47.900          35.000

 129320976.533 6 100769670.13143                  24608965.125
                  24608978.051                          40.200          20.600

 114735002.154 8  89404026.93245                  21833326.734
                  21833335.809                          48.100          35.900

 118647325.999 7  92452557.53145                  22577808.844
                  22577819.688                          45.500          31.200

 130879966.461 5 101984288.796 6                  24905588.703
  24905602.133    24905601.922                          35.600          37.100

 127166469.203 6  99090789.87143                  24198962.430
                  24198976.344                          39.700          22.200

 14  3 21  0 39 30.0000000  0 14G09G16G13G23G07G19G30G27G03G10G08G28
                                G05G11
 113733427.386 7  88623594.83445                  21642738.430
                  21642748.258                          46.600          34.400

 131924435.237 6 102798351.49442                  25104364.719
                  25104377.793                          37.400          17.400

 111551100.212 8  86923068.50546                  21227447.773
                  21227457.043                          50.600          37.500

 124388966.286 7  96926585.48943                  23670441.234
                  23670452.789                          43.300          23.500

 106921286.175 8  83315400.488 8                  20346412.570
  20346419.930    20346420.438                          48.400          49.900

 111629656.877 7  86984255.39146                  21242384.703
                  21242392.047                          47.100          39.200

 111714216.255 8  87050261.928 8  83423176.601 8  21258509.438
  21258520.027    21258519.781    21258519.125          48.300          49.300
        52.600
 120651515.600 7  94014202.035 7  90096971.035 8  22959172.680
  22959184.121    22959184.523    22959185.027          43.600          43.600
        49.000
 111851509.846 7  87157114.25045                  21284596.664
                  21284605.410                          47.500          35.500

 129399452.635 7 100830820.19843                  24623899.125
                  24623912.574                          42.600          22.300

 114670077.467 8  89353436.32346                  21820971.891
                  21820980.992                          49.400          36.700

 118584059.827 7  92403259.32645                  22565770.125
                  22565780.492                          45.600          30.300

 130890956.715 6 101992852.632 6                  24907679.195
  24907693.457    24907694.246                          36.300          38.800

 127079101.240 6  99022711.16443                  24182337.203
                  24182350.773                          39.400          22.500

 14  3 21  0 40  0.0000000  0 14G09G16G13G23G07G19G30G27G03G10G08G28
                                G05G11
 113652465.626 7  88560507.84845                  21627331.898
                  21627341.777                          46.900          33.900

 132024631.137 6 102876426.27042                  25123431.125
                  25123444.293                          38.100          15.600

 111631386.202 8  86985628.95646                  21242725.516
                  21242735.730                          50.800          37.700

 124503164.823 7  97015571.20444                  23692172.945
                  23692184.109                          43.100          24.500

 106900466.213 8  83299177.160 8                  20342450.609
  20342458.387    20342458.867                          49.200          50.000

 111633401.995 7  86987173.69846                  21243097.609
                  21243104.660                          46.500          38.900

 111659302.611 8  87007472.134 8  83382169.726 8  21248059.227
  21248070.109    21248070.320    21248069.543          48.800          48.600
        52.600
 120723342.683 7  94070171.152 7  90150608.080 8  22972840.898
  22972852.734    22972852.793    22972853.238          44.200          43.600
        48.400
 111906546.810 8  87200000.18245                  21295069.453
                  21295078.770                          48.300          34.600

 129478073.686 7 100892083.10943                  24638860.922
                  24638875.113                          42.500          22.500

 114605269.472 8  89302936.65246                  21808639.383
                  21808648.469                          49.100          37.400

 118521052.749 7  92354163.01745                  22553779.984
                  22553789.777                          44.700          30.300

 130902436.333 6 102001797.780 6                  24909863.461
  24909878.266    24909879.023                          38.100          39.100

 126991829.335 6  98954707.25743                  24165729.297
                  24165742.855                          38.800          23.200

 14  3 21  0 40 30.0000000  0 14G09G16G13G23G07G19G30G27G03G10G08G28
                                G05G11
 113571681.361 7  88497559.16045                  21611959.211
                  21611969.148                          46.500          33.500

 132124772.460 6 102954458.53642                  25142486.852
                  25142501.180                          39.200          16.900

 111712115.597 8  87048534.91246                  21258088.094
                  21258098.238                          49.300          37.600

 124617503.192 6  97104665.86944                  23713930.008
                  23713942.648                          41.800          25.900

 106879941.987 8  83283184.275 8                  20338544.695
  20338552.520    20338553.023                          49.100          50.100

 111637803.421 8  86990603.41846                  21243935.297
                  21243942.199                          49.300          38.700

 111604588.308 8  86964837.674 8  83341311.714 8  21237647.602
  21237658.324    21237658.258    21237658.012          49.900          48.200
        52.800
 120795603.058 7  94126477.889 7  90204568.685 8  22986591.852
  22986603.117    22986603.082    22986603.352          43.600          43.500
        48.100
 111962151.865 7  87243328.78045                  21305650.727
                  21305659.832                          47.200          35.500

 129556836.650 6 100953456.68143                  24653848.531
                  24653862.555                          40.500          19.900

 114540579.381 8  89252528.85646                  21796329.070
                  21796338.809                          48.700          37.500

 118458304.645 7  92305268.50945                  22541838.625
                  22541849.504                          43.600          30.200

 130914404.361 6 102011123.502 6                  24912141.430
  24912155.918    24912156.918                          40.200          38.600

 126904656.398 6  98886780.51143                  24149140.633
                  24149154.777                          38.800          22.800

 14  3 21  0 41  0.0000000  0 14G09G16G13G23G07G19G30G27G03G10G08G28
                                G05G11
 113491076.292 7  88434750.10445                  21596620.430
                  21596630.551                          47.300          35.200

 132224858.161 6 103032447.56542                  25161533.078
                  25161545.789                          40.200          16.900

 111793286.183 8  87111784.66346                  21273534.508
                  21273544.258                          49.500          38.100

 124731979.302 6  97193867.85744                  23735715.242
                  23735726.297                          41.300          24.800

 106859714.695 8  83267422.775 8                  20334696.102
  20334703.254    20334704.129                          49.200          50.300

 111642861.061 8  86994544.47746                  21244897.539
                  21244904.832                          49.500          39.400

 111550074.586 8  86922359.497 8  83300603.475 8  21227273.953
  21227284.961    21227284.738    21227284.488          49.800          48.100
        52.400
 120868294.382 7  94183120.439 7  90258851.120 7  23000424.328
  23000435.953    23000436.355    23000435.805          44.300          44.300
        46.800
 112018323.065 8  87287098.54545                  21316340.242
                  21316349.324                          48.100          35.800

 129635738.789 7 101014938.72943                  24668863.391
                  24668877.352                          42.000          22.200

 114476008.503 8  89202213.93646                  21784041.414
                  21784051.027                          48.700          36.900

 118395816.078 7  92256576.22945                  22529948.141
                  22529958.496                          44.800          30.000

 130926859.523 6 102020828.816 6                  24914512.188
  24914526.695    24914527.680                          39.000          40.400

 126817585.822 6  98818933.50643                  24132571.633
                  24132584.793                          39.200          22.900

 14  3 21  0 41 30.0000000  0 14G09G16G13G23G07G19G30G27G03G10G08G28
                                G05G11
 113410651.840 7  88372081.79745                  21581316.055
                  21581325.754                          47.000          34.200

 132324887.385 6 103110392.40742                  25180568.250
                  25180581.125                          40.600          16.900

 111874895.783 8  87175376.51346                  21289064.281
                  21289073.684                          49.000          38.100

 124846590.307 6  97283174.95644                  23757525.117
                  23757536.305                          40.100          25.200

 106839785.700 8  83251893.709 8                  20330903.578
  20330910.855    20330911.191                          49.100          49.900

 111648574.693 8  86998996.68846                  21245984.477
                  21245991.980                          48.200          38.800

 111495762.543 8  86880038.479 8  83260045.840 8  21216938.813
  21216949.379    21216949.359    21216948.992          49.400          48.100
        52.700
 120941414.219 7  94240096.914 7  90313453.561 7  23014339.031
  23014350.242    23014350.563    23014350.016          43.700          44.300
        47.000
 112075057.908 7  87331307.51646                  21327136.383
                  21327145.828                          47.100          36.100

 129714776.949 7 101076526.72344                  24683904.555
                  24683919.480                          44.200          24.100

 114411558.019 7  89151992.84246                  21771776.758
                  21771786.574                          47.200          37.900

 118333586.926 7  92208086.11044                  22518105.945
                  22518116.660                          43.200          29.800

 130939800.655 6 102030912.763 6                  24916974.453
  24916989.266    24916990.730                          38.100          40.400

 126730620.417 6  98751168.47743                  24116022.000
                  24116035.895                          38.700          22.200

 14  3 21  0 42  0.0000000  0 14G09G16G13G23G07G19G30G27G03G10G08G28
                                G05G11
 113330409.733 7  88309555.58345                  21566046.227
                  21566055.816                          47.500          34.200

 132424858.579 6 103188292.20442                  25199591.484
                  25199604.703                          39.200          17.800

 111956942.151 8  87239308.68546                  21304676.906
                  21304686.469                          49.300          37.600

 124961333.401 6  97372584.98744                  23779359.883
                  23779372.184                          41.400          26.400

 106820155.852 8  83236597.736 8                  20327168.078
  20327175.402    20327175.953                          48.500          50.500

 111654943.953 7  87003959.78946                  21247196.586
                  21247203.910                          47.600          38.900

 111441653.146 8  86837875.378 8  83219639.544 8  21206641.945
  21206652.793    21206652.723    21206652.531          49.500          48.600
        53.100
 121014960.048 7  94297405.324 7  90368374.116 7  23028334.250
  23028345.996    23028346.082    23028345.242          44.100          44.100
        46.800
 112132354.402 7  87375954.11746                  21338039.555
                  21338049.164                          46.900          36.000

 129793947.881 6 101138218.24543                  24698968.836
                  24698985.941                          39.900          22.500

 114347228.495 8  89101865.99346                  21759535.133
                  21759545.105                          48.200          37.000

 118271617.055 7  92159797.99945                  22506313.461
                  22506324.488                          44.300          30.700

 130953226.561 6 102041374.497 6                  24919529.820
  24919543.824    24919545.414                          38.600          39.000

 126643763.312 6  98683487.82243                  24099494.266
                  24099507.668                          39.400          22.600

 14  3 21  0 42 30.0000000  0 13G09G13G23G07G19G30G27G03G10G08G28G05
                                G11
 113250351.483 7  88247172.63545                  21550811.766
                  21550820.766                          46.000          34.100

 112039423.028 8  87303579.43246                  21320372.531
                  21320381.855                          48.800          37.600

 125076206.293 6  97462096.15644                  23801219.656
                  23801231.371                          40.900          24.800

 106800825.970 7  83221535.514 8                  20323489.539
  20323497.457    20323498.016                          47.300          50.100

 111661968.671 7  87009433.63946                  21248533.352
                  21248540.316                          46.300          38.800

 111387747.492 8  86795871.039 8  83179385.396 8  21196384.031
  21196394.809    21196395.121    21196394.754          49.500          49.100
        53.400
 121088929.404 7  94355043.759 7  90423610.941 7  23042410.672
  23042422.477    23042422.492    23042420.832          44.600          43.800
        46.400
 112190210.217 7  87421036.56045                  21349048.875
                  21349059.074                          47.100          35.400

 129873248.534 6 101200010.73243                  24714060.234
                  24714076.828                          41.300          22.300

 114283021.240 8  89051834.41846                  21747317.180
                  21747326.691                          48.300          37.000

 118209906.735 7  92111712.15845                  22494570.805
                  22494580.828                          45.500          31.200

 130967136.286 6 102052213.263 6                  24922175.734
  24922189.922    24922191.555                          37.600          37.800

 126557017.411 6  98615893.85743                  24082986.211
                  24082999.555                          38.200          22.600

 14  3 21  0 43  0.0000000  0 13G09G13G23G07G19G30G27G03G10G08G28G05
                                G11
 113170479.266 7  88184934.63745                  21535612.688
                  21535621.793                          45.800          33.800

 112122336.642 8  87368187.37646                  21336150.875
                  21336160.086                          48.700          36.900

 125191206.316 6  97551706.39044                  23823103.781
                  23823115.715                          41.100          25.800

 106781797.943 8  83206708.496 8                  20319868.750
  20319876.105    20319876.832                          48.800          50.200

 111669649.165 7  87015418.46546                  21249994.852
                  21250002.180                          46.100          38.400

 111334047.201 8  86754026.711 8  83139284.592 8  21186165.188
  21186175.711    21186176.176    21186175.926          48.800          48.800
        53.700
 121163320.218 7  94413010.590 7  90479162.493 7  23056566.836
  23056578.398    23056578.969    23056577.129          45.400          43.600
        47.000
 112248623.203 7  87466553.16545                  21360164.359
                  21360174.535                          47.500          34.700

 129952676.034 6 101261902.19943                  24729174.773
                  24729189.535                          40.400          21.800

 114218937.643 7  89001899.19546                  21735122.141
                  21735131.965                          47.000          36.000

 118148456.155 7  92063828.70445                  22482875.938
                  22482886.766                          43.900          30.500

 130981528.733 6 102063428.112 6                  24924915.672
  24924928.820    24924929.383                          37.900          36.500

 126470386.137 6  98548389.21643                  24066501.414
                  24066514.289                          38.400          22.000

 14  3 21  0 43 30.0000000  0 13G09G13G23G07G19G30G27G03G10G08G28G05
                                G11
 113090794.099 7  88122842.40845                  21520448.430
                  21520457.816                          46.300          34.800

 112205680.228 8  87433130.37246                  21352010.617
                  21352020.375                          49.400          37.500

 125306330.609 6  97641413.45643                  23845010.875
                  23845022.688                          41.900          22.800

 106763072.470 7  83192117.240 8                  20316305.219
  20316312.809    20316313.438                          47.600          50.300

 111677984.253 7  87021913.37046                  21251580.961
                  21251587.949                          45.800          38.300

 111280552.910 8  86712342.903 8  83099337.625 8  21175985.234
  21175996.500    21175996.555    21175996.305          48.600          49.100
        53.700
 121238129.674 7  94471303.638 7  90535026.666 7  23070802.656
  23070813.828    23070814.582    23070813.215          45.000          43.200
        47.500
 112307591.144 7  87512502.20745                  21371385.891
                  21371395.813                          47.600          35.900

 130032227.129 6 101323889.86843                  24744312.930
                  24744328.941                          41.200          22.000

 114154978.659 8  88952061.08946                  21722951.289
                  21722960.918                          48.000          37.700

 118087265.192 7  92016147.54145                  22471232.367
                  22471242.180                          46.100          31.800

 130996402.373 6 102075017.968 6                  24927745.758
  24927759.117    24927759.590                          37.800          37.600

 126383872.270 6  98480976.04243                  24050038.000
                  24050050.250                          38.400          22.300

 14  3 21  0 44  0.0000000  0 13G09G13G23G07G19G30G27G03G10G08G28G05
                                G11
 113011298.330 7  88060897.76445                  21505321.508
                  21505330.781                          47.500          34.900

 112289452.171 8  87498407.13446                  21367951.820
                  21367961.574                          48.800          36.900

 125421577.301 6  97731215.92343                  23866942.547
                  23866954.508                          41.400          22.800

 106744651.591 8  83177763.335 8                  20312799.969
  20312807.453    20312807.418                          48.500          49.300

 111686974.256 7  87028918.60046                  21253291.664
                  21253298.777                          46.500          38.600

 111227266.372 8  86670820.985 8  83059545.800 8  21165844.664
  21165856.336    21165856.469    21165855.930          48.300          49.100
        53.000
 121313355.766 7  94529921.345 7  90591201.971 7  23085117.453
  23085128.711    23085129.176    23085128.801          46.200          42.400
        47.900
 112367112.090 7  87558882.15445                  21382712.102
                  21382721.879                          47.600          34.700

 130111899.330 6 101385971.87343                  24759474.648
                  24759490.363                          40.900          21.500

 114091146.057 7  88902321.46146                  21710803.906
                  21710814.008                          47.100          37.000

 118026334.338 7  91968669.06745                  22459637.789
                  22459647.242                          46.100          30.200

 131011756.229 6 102086981.994 6                  24930666.844
  24930681.207    24930681.461                          38.300          37.700

 126297479.318 6  98413657.05143                  24033598.117
                  24033610.047                          37.800          21.500

 14  3 21  0 44 30.0000000  0 13G09G13G23G07G19G30G27G03G10G08G28G05
                                G11
 112931993.309 8  87999101.73845                  21490230.195
                  21490239.480                          48.100          34.900

 112373650.086 8  87564015.84746                  21383974.281
                  21383984.160                          49.000          37.000

 125536943.297 7  97821111.36143                  23888895.508
                  23888907.836                          43.000          22.800

 106726536.203 8  83163647.467 8                  20309352.273
  20309360.277    20309360.688                          49.000          50.500

 111696618.719 7  87036433.79846                  21255126.438
                  21255134.055                          47.300          38.400

 111174188.408 7  86629461.603 8  83019909.734 8  21155744.438
  21155755.512    21155755.648    21155755.281          47.400          49.100
        53.300
 121388995.826 7  94588861.653 7  90647686.404 8  23099511.234
  23099522.801    23099522.629    23099523.016          46.500          43.000
        48.300
 112427183.494 7  87605691.02645                  21394143.367
                  21394153.184                          47.300          34.600

 130191689.338 7 101448145.76943                  24774658.461
                  24774673.684                          43.200          22.500

 114027440.522 7  88852680.84646                  21698681.227
                  21698691.398                          47.400          37.300

 117965663.212 7  91921392.95545                  22448091.883
                  22448102.000                          45.800          31.400

 131027588.912 6 102099319.101 6                  24933679.406
  24933694.758    24933694.504                          38.800          38.900

 126211210.254 6  98346434.60743                  24017181.313
                  24017193.809                          38.800          22.500

 14  3 21  0 45  0.0000000  0 13G09G13G23G07G19G30G27G03G10G08G28G05
                                G11
 112852880.282 8  87937455.30445                  21475175.328
                  21475184.613                          48.200          35.800

 112458271.295 8  87629954.39946                  21400077.555
                  21400087.320                          49.300          37.100

 125652425.912 7  97911097.67843                  23910871.398
                  23910883.246                          43.000          22.000

 106708726.560 8  83149769.854 8                  20305963.320
  20305971.121    20305971.977                          48.100          50.500

 111706916.756 7  87044458.26846                  21257086.367
                  21257093.785                          47.600          38.600

 111121319.837 8  86588265.379 8  82980430.029 8  21145683.906
  21145694.684    21145695.066    21145694.699          49.000          48.700
        53.200
 121465047.002 7  94648122.292 7  90704477.829 8  23113983.648
  23113994.891    23113995.023    23113995.414          45.200          42.200
        48.100
 112487802.688 7  87652926.74145                  21405678.742
                  21405688.008                          47.500          34.500

 130271593.703 6 101510408.76043                  24789863.906
                  24789880.379                          40.400          20.100

 113963862.987 8  88803139.97446                  21686583.320
                  21686592.945                          48.800          38.400

 117905251.461 7  91874318.97245                  22436596.570
                  22436606.145                          46.500          30.300

 131043898.643 6 102112027.994 6                  24936783.961
  24936797.645    24936797.324                          39.200          38.000

 126125067.688 6  98279310.73243                  24000788.750
                  24000801.590                          40.700          22.900

 14  3 21  0 45 30.0000000  0 13G09G13G23G07G19G30G27G03G10G08G28G05
                                G11
 112773961.154 8  87875959.96146                  21460157.656
                  21460166.496                          48.000          36.400

 112543313.494 8  87696221.00846                  21416260.078
                  21416269.531                          49.200          36.000

 125768022.781 7  98001173.02443                  23932868.625
                  23932880.609                          42.800          22.500

 106691224.048 8  83136131.563 8                  20302632.617
  20302640.406    20302641.125                          48.600          50.200

 111717868.220 8  87052991.91846                  21259169.813
                  21259177.230                          48.200          37.900

 111068662.024 8  86547233.377 8  82941107.713 8  21135663.648
  21135674.305    21135674.379    21135674.363          50.400          48.000
        53.700
 121541506.972 7  94707701.464 7  90761574.530 7  23128533.586
  23128545.434    23128545.195    23128545.172          44.800          43.100
        47.800
 112548967.277 7  87700587.46045                  21417318.172
                  21417327.809                          47.600          34.500

 130351609.725 6 101572758.73042                  24805089.984
                  24805106.754                          36.900          15.600

 113900414.524 7  88753699.66746                  21674509.586
                  21674518.883                          47.300          37.800

 117845099.308 7  91827447.24845                  22425149.688
                  22425159.828                          43.600          30.500

 131060684.443 6 102125107.834 6                  24939978.695
  24939991.977    24939991.992                          40.700          38.200

 126039054.735 6  98212287.85043                  23984420.883
                  23984434.281                          39.500          22.600

 14  3 21  0 46  0.0000000  0 13G09G13G23G07G19G30G27G03G10G08G28G05
                                G11
 112695237.999 7  87814617.33646                  21445176.438
                  21445186.008                          46.600          36.000

 112628774.718 8  87762814.11046                  21432522.805
                  21432531.977                          49.300          36.400

 125883731.447 6  98091335.46243                  23954887.102
                  23954899.848                          41.900          21.700

 106674030.299 8  83122733.864 8                  20299360.930
  20299368.605    20299368.898                          48.500          50.100

 111729472.655 7  87062034.38046                  21261378.648
                  21261385.504                          47.800          38.500

 111016216.257 8  86506366.602 8  82901943.728 8  21125683.961
  21125693.855    21125693.973    21125694.191          50.600          49.000
        53.900
 121618373.404 7  94767597.351 7  90818974.747 8  23143159.977
  23143172.926    23143173.199    23143172.063          44.900          43.900
        48.000
 112610675.055 7  87748671.42745                  21429060.313
                  21429070.586                          47.200          34.200

 130431734.600 5                                  24820336.594
                                                        32.500

 113837096.588 8  88704361.08646                  21662460.320
                  21662469.789                          48.900          38.000

 117785207.141 7  91780778.13445                  22413752.672
                  22413762.219                          45.100          31.400

 131077945.516 6 102138557.965 6                  24943263.273
  24943276.645    24943276.109                          41.600          37.300

 125953175.110 6  98145368.90843                  23968077.914
                  23968091.824                          39.200          22.600

 14  3 21  0 46 30.0000000  0 13G09G13G23G07G19G30G27G03G10G08G28G05
                                G11
 112616712.415 7  87753428.65846                  21430233.289
                  21430243.484                          47.500          37.200

 112714652.817 8  87829732.05546                  21448864.953
                  21448873.824                          49.000          36.300

 125999549.313 6  98181582.99243                  23976926.945
                  23976939.641                          40.900          22.000

 106657146.638 8  83109577.796 8                  20296148.195
  20296155.984    20296156.410                          49.600          49.900

 111741729.802 8  87071585.43546                  21263711.188
                  21263718.598                          48.200          38.500

 110963983.856 8  86465666.089 7  82862939.091 9  21115743.805
  21115754.613    21115754.473    21115754.867          50.400          47.800
        54.000
 121695643.918 7  94827808.086 7  90876676.702 8  23157864.070
  23157876.824    23157877.059    23157875.691          44.700          44.100
        48.000
 112672923.902 7  87797177.00245                  21440906.484
                  21440916.246                          47.400          35.300

 130511965.45614                                  24835604.672
                                                        27.300

 113773910.586 8  88655125.30346                  21650436.430
                  21650445.461                          49.400          37.900

 117725575.070 7  91734311.70345                  22402404.953
                  22402414.418                          46.100          30.500

 131095680.189 6 102152377.132 5                  24946637.852
  24946650.902    24946650.656                          41.800          34.700

 125867431.475 6  98078555.90143                  23951760.344
                  23951774.746                          37.100          22.200

 14  3 21  0 47  0.0000000  0 12G09G13G23G07G19G30G27G03G08G28G05G11
 112538386.345 7  87692395.44546                  21415328.133
                  21415338.262                          47.000          36.600

 112800945.646 8  87896973.16045                  21465285.875
                  21465294.871                          49.300          35.900

 126115473.999 6  98271913.77243                  23998986.500
                  23998999.293                          40.600          21.500

 106640574.510 8  83096664.483 8                  20292994.438
  20293001.902    20293002.102                          48.300          50.400

 111754639.359 8  87081644.86646                  21266167.711
                  21266174.801                          48.800          38.500

 110911966.137 8  86425132.864 8  82824094.767 8  21105845.055
  21105855.555    21105855.563    21105855.551          50.700          48.200
        53.500
 121773316.150 7  94888331.867 7  90934678.649 7  23172645.102
  23172657.211    23172657.426    23172656.113          45.200          45.000
        47.500
 112735711.789 7  87846102.61045                  21452854.602
                  21452864.137                          47.100          35.200

 113710857.882 7  88605993.39146                  21638437.945
                  21638446.832                          47.900          37.600

 117666203.003 7  91688047.87245                  22391106.820
                  22391115.957                          44.500          30.900

 131113887.143 6 102166564.389 5                  24950101.961
  24950116.215    24950114.902                          40.200          35.000

 125781827.358 6  98011851.56843                  23935470.961
                  23935484.898                          39.000          21.100

 14  3 21  0 47 30.0000000  0 12G09G13G23G07G19G30G27G03G08G28G05G11
 112460260.919 7  87631518.56746                  21400461.711
                  21400471.570                          46.100          36.500

 112887650.346 8  87964535.21245                  21481785.375
                  21481794.559                          48.900          35.400

 126231502.528 6  98362325.45543                  24021065.805
                  24021078.793                          40.400          20.100

 106624314.246 8  83083994.170 8                  20289899.883
  20289907.754    20289908.055                          48.800          49.500

 111768200.215 8  87092211.80646                  21268748.094
                  21268755.313                          49.100          38.900

 110860163.895 8  86384767.544 8  82785411.361 8  21095987.320
  21095997.879    21095997.973    21095997.547          50.200          48.800
        53.200
 121851387.220 7  94949166.449 7  90992978.444 8  23187501.555
  23187513.617    23187513.992    23187513.090          45.100          44.800
        48.000
 112799035.660 7  87895445.87445                  21464904.711
                  21464913.871                          47.000          34.900

 113647939.263 8  88556965.96246                  21626464.305
                  21626473.949                          48.800          37.100

 117607090.698 7  91641986.44445                  22379857.477
                  22379867.387                          45.800          31.500

 131132564.920 6 102181118.490 5                  24953656.547
  24953669.906    24953668.641                          41.100          35.000

 125696365.575 6  97945258.17043                  23919207.953
                  23919220.680                          40.700          21.800

 14  3 21  0 48  0.0000000  0 12G09G13G23G07G19G30G27G03G08G28G05G11
 112382338.143 7  87570799.60346                  21385633.414
                  21385643.430                          46.100          36.400

 112974765.174 8  88032416.84146                  21498363.055
                  21498372.324                          48.400          36.000

 126347632.565 6  98452816.23843                  24043165.195
                  24043177.184                          40.800          21.100

 106608367.455 8  83071568.138 8                  20286865.891
  20286873.285    20286873.645                          48.900          49.900

 111782412.218 8  87103286.12446                  21271452.727
                  21271459.563                          49.600          38.600

 110808578.573 8  86344571.256 8  82746889.928 8  21086171.492
  21086181.730    21086181.695    21086181.328          50.800          49.100
        53.400
 121929854.780 7  95010309.982 7  91051574.311 7  23202433.305
  23202445.367    23202445.863    23202444.609          44.500          44.300
        47.800
 112862893.015 7  87945204.83645                  21477056.406
                  21477065.773                          46.400          34.200

 113585155.968 8  88508043.99046                  21614517.375
                  21614526.926                          49.500          37.300

 117548238.592 7  91596127.75045                  22368658.297
                  22368668.277                          46.300          32.300

 131151712.306 6 102196038.491 5                  24957300.336
  24957314.035    24957311.242                          40.300          33.800

 125611048.994 7  97878777.88543                  23902973.227
                  23902985.000                          42.300          22.000

 14  3 21  0 48 30.0000000  0 12G09G13G23G07G19G30G27G03G08G28G05G11
 112304619.652 7  87510239.81346                  21370844.063
                  21370854.031                          46.700          36.300

 113062287.150 8  88100615.73045                  21515017.688
                  21515027.223                          48.200          35.900

 126463861.161 6  98543383.82143                  24065282.438
                  24065295.391                          40.000          20.600

 106592735.193 8  83059387.186 8                  20283890.992
  20283898.434    20283898.891                          49.300          50.800

 111797274.287 8  87114866.99146                  21274281.047
                  21274287.797                          48.800          38.900

 110757211.102 8  86304544.721 8  82708531.176 8  21076395.977
  21076406.957    21076406.984    21076406.797          50.100          49.100
        53.500
 122008716.125 7  95071760.339 7  91110464.224 7  23217439.461
  23217452.563    23217452.883    23217451.453          43.500          45.300
        47.600
 112927281.812 7  87995377.91545                  21489309.195
                  21489318.684                          46.800          34.700

 113522509.155 8  88459228.35946                  21602595.930
                  21602605.305                          48.800          38.100

 117489645.999 7  91550471.30445                  22357508.633
                  22357518.102                          46.200          32.100

 131171327.913 6 102211323.385 5                  24961033.109
  24961046.297    24961044.457                          39.400          35.500

 125525881.006 7  97812413.40243                  23886766.141
                  23886776.586                          42.700          22.300

 14  3 21  0 49  0.0000000  0 12G09G13G23G07G19G30G27G03G08G28G05G11
 112227107.116 7  87449840.51346                  21356093.750
                  21356103.461                          47.500          36.900

 113150214.132 7  88169130.20645                  21531749.648
                  21531759.719                          47.800          35.700

 126580186.029 6  98634026.42743                  24087419.109
                  24087431.180                          40.900          22.000

 106577418.798 8  83047452.368 8                  20280976.227
  20280984.043    20280984.727                          48.500          49.900

 111812785.755 8  87126953.88346                  21277232.711
                  21277239.574                          48.800          38.800

 110706062.701 8  86264688.891 8  82670336.016 8  21066663.273
  21066673.734    21066673.719    21066673.531          50.300          49.200
        53.600
 122087968.774 7  95133515.596 7  91169646.339 7  23232520.883
  23232534.043    23232534.371    23232532.238          43.200          45.500
        46.600
 112992199.667 7  88045963.23945                  21501662.500
                  21501671.941                          46.800          34.600

 113460000.198 8  88410520.14746                  21590700.688
                  21590710.574                          49.200          38.400

 117431313.038 7  91505017.16445                  22346407.969
                  22346418.184                          47.000          32.100

 131191409.743 6 102226971.557 6                  24964854.539
  24964868.820    24964866.723                          40.200          36.500

 125440864.819 6  97746167.18243                  23870587.555
                  23870598.234                          41.600          22.300

 14  3 21  0 49 30.0000000  0 12G09G13G23G07G19G30G27G03G08G28G05G11
 112149802.727 7  87389603.39745                  21341383.469
                  21341393.004                          46.400          35.700

 113238544.189 7  88237958.77045                  21548558.148
                  21548567.809                          47.600          35.700

 126696604.801 6  98724742.22043                  24109573.195
                  24109584.957                          40.600          21.700

 106562419.449 7  83035764.596 8                  20278121.875
  20278129.465    20278129.879                          47.600          50.200

 111828946.782 7  87139546.91646                  21280307.695
                  21280314.801                          47.800          39.400

 110655135.023 8  86225005.042 8  82632305.677 8  21056971.438
  21056982.328    21056982.480    21056982.113          48.100          48.800
        53.800
 122167610.546 7  95195574.062 7  91229119.050 7  23247676.141
  23247689.117    23247689.391    23247687.668          43.000          44.300
        47.200
 113057644.135 7  88096958.91645                  21514116.000
                  21514125.586                          46.700          34.500

 113397630.605 8  88361920.53446                  21578832.344
                  21578842.094                          49.700          38.800

 117373240.085 7  91459765.62245                  22335356.625
                  22335366.801                          45.400          30.700

 131211956.719 6 102242982.121 6                  24968763.531
  24968778.758    24968777.852                          41.400          38.000

 125356003.489 6  97680041.63843                  23854438.508
                  23854449.699                          41.900          22.300

 14  3 21  0 50  0.0000000  0 13G09G26G13G23G07G19G30G27G03G08G28G05
                                G11
 112072708.012 7  87329529.67445                  21326712.594
                  21326722.559                          47.500          35.900

 128140602.60416                                  24384359.352
                                                        37.600

 113327274.639 7  88307099.32046                  21565443.250
                  21565453.012                          47.300          36.200

 126813114.710 7  98815529.02343                  24131744.297
                  24131756.445                          42.200          23.200

 106547738.269 8  83024324.753 8                  20275328.523
  20275336.078    20275336.574                          49.300          50.500

 111845756.268 8  87152645.24946                  21283506.609
                  21283514.234                          48.500          39.500

 110604428.955 8  86185493.887 8  82594440.831 8  21047322.586
  21047333.258    21047333.078    21047332.945          49.000          49.600
        53.500
 122247638.582 7  95257933.504 7  91288880.201 7  23262905.438
  23262918.055    23262918.059    23262917.219          43.400          44.100
        47.400
 113123612.723 7  88148362.99445                  21526669.813
                  21526679.027                          46.500          34.500

 113335401.449 8  88313430.36046                  21566990.461
                  21566999.879                          48.800          38.100

 117315427.006 7  91414716.60045                  22324355.672
                  22324365.070                          45.100          31.500

 131232967.149 6 102259353.869 6                  24972761.508
  24972776.797    24972776.648                          39.000          37.300

 125271300.030 6  97614039.10443                  23838319.547
                  23838331.191                          40.400          22.200

 14  3 21  0 50 30.0000000  0 13G09G26G13G23G07G19G30G27G03G08G28G05
                                G11
 111995823.546 8  87269619.76745                  21312082.039
                  21312091.781                          48.300          35.900

 128030167.568 6                                  24363348.586
                                                        39.100

 113416401.660 7  88376548.89745                  21582403.539
                  21582413.012                          47.300          35.700

 126929711.962 6  98906383.88943                  24153931.445
                  24153944.254                          40.500          22.600

 106533375.383 7  83013132.937 8                  20272595.203
  20272602.703    20272603.125                          47.700          50.000

 111863212.000 7  87166247.14246                  21286828.133
                  21286835.453                          47.700          38.600

 110553944.421 8  86146155.366 8  82556741.419 8  21037715.609
  21037726.219    21037726.234    21037726.277          50.200          49.100
        53.700
 122328049.133 7  95320591.031 7  91348926.995 7  23278206.742
  23278219.582    23278219.809    23278219.727          44.300          44.600
        47.200
 113190101.360 7  88200172.31245                  21539322.047
                  21539331.563                          46.000          34.700

 113273312.728 7  88265049.61546                  21555175.156
                  21555184.828                          47.600          38.300

 117257872.213 7  91369868.82945                  22313402.852
                  22313412.566                          44.700          31.400

 131254438.661 6 102276084.849 6                  24976847.992
  24976862.918    24976862.953                          37.500          37.100

 125186756.348 6  97548161.11843                  23822231.578
                  23822244.473                          40.900          22.600

 14  3 21  0 51  0.0000000  0 13G09G26G13G23G07G19G30G27G03G08G28G05
                                G11
 111919151.519 7  87209875.41446                  21297491.211
                  21297501.023                          46.700          36.300

 127919952.706 6                                  24342370.992
                                                        36.100

 113505923.942 7  88446306.45146                  21599439.008
                  21599448.691                          47.800          36.000

 127046394.417 7  98997305.14643                  24176136.211
                  24176148.313                          42.000          22.500

 106519332.123 7  83002190.169 8                  20269922.750
  20269930.641    20269931.254                          47.300          50.500

 111881314.037 8  87180352.65346                  21290273.070
                  21290280.434                          48.700          39.300

 110503683.489 8  86106991.059 8  82519208.978 8  21028151.414
  21028162.082    21028162.258    21028161.949          49.300          49.100
        53.600
 122408840.335 7  95383545.178 7  91409258.040 8  23293580.914
  23293593.828    23293593.734    23293593.949          43.700          43.900
        48.000
 113257108.476 7  88252385.64345                  21552073.227
                  21552083.348                          46.000          35.300

 113211366.389 8  88216779.80746                  21543386.977
                  21543397.137                          48.200          38.100

 117200576.509 7  91325222.95145                  22302499.500
                  22302509.383                          45.500          31.600

 131276370.321 6 102293174.440 6                  24981022.320
  24981036.613    24981036.414                          40.200          36.900

 125102376.305 6  97482410.61643                  23806174.063
                  23806188.012                          39.600          22.500

 14  3 21  0 51 30.0000000  0 13G09G26G13G23G07G19G30G27G03G08G28G05
                                G11
 111842694.982 8  87150298.96645                  21282942.531
                  21282952.172                          48.200          35.900

 127809962.49915                                  24321418.328
                                                        31.200

 113595839.761 8  88516370.67245                  21616549.898
                  21616559.164                          48.600          35.500

 127163160.921 6  99088291.90443                  24198356.313
                  24198368.230                          41.300          22.600

 106505610.851 7  82991498.303 8                  20267311.273
  20267319.285    20267319.984                          47.900          50.500

 111900062.941 8  87194962.21646                  21293840.852
                  21293847.313                          48.300          39.200

 110453648.410 8  86068002.732 8  82481845.180 8  21018630.242
  21018640.297    21018640.547    21018640.184          49.400          48.700
        53.600
 122490010.772 7  95446794.843 7  91469872.284 7  23309027.531
  23309039.559    23309040.066    23309039.984          42.600          43.600
        47.300
 113324632.583 7  88305001.81445                  21564922.688
                  21564932.004                          47.200          34.900

 113149564.878 8  88168622.85146                  21531627.000
                  21531636.285                          49.000          38.600

 117143541.128 7  91280779.93145                  22291646.180
                  22291656.336                          44.900          31.900

 131298762.059 6 102310622.492 6                  24985282.594
  24985297.664    24985297.422                          40.900          36.700

 125018164.053 6  97416790.90743                  23790149.297
                  23790163.301                          40.500          22.500

 14  3 21  0 52  0.0000000  0 12G09G13G23G07G19G30G27G03G08G28G05G11
 111766456.371 8  87090892.33146                  21268434.625
                  21268444.195                          48.300          36.100

 113686147.759 8  88586740.48346                  21633734.914
                  21633744.035                          49.000          36.000

 127280009.745 6  99179342.82243                  24220591.820
                  24220604.051                          41.600          22.600

 106492213.788 7  82981059.066 8                  20264761.977
  20264769.234    20264769.734                          47.600          50.000

 111919458.540 8  87210075.69246                  21297531.266
                  21297537.977                          48.000          39.200

 110403841.227 8  86029191.997 8  82444651.561 8  21009151.906
  21009162.719    21009162.891    21009162.234          49.900          49.900
        53.700
 122571558.680 6  95510338.625 7  91530768.390 7  23324544.508
  23324557.250    23324557.512    23324557.430          40.200          42.900
        47.800
 113392672.058 7  88358019.57245                  21577870.227
                  21577879.566                          47.500          34.200

 113087910.347 8  88120580.42446                  21519894.188
                  21519903.660                          48.700          38.600

 117086766.660 7  91236540.22745                  22280842.141
                  22280851.977                          46.200          31.600

 131321612.446 6 102328427.945 6                  24989631.344
  24989645.480    24989645.109                          38.700          36.100

 124934123.687 6  97351305.12143                  23774156.656
                  23774170.027                          40.100          22.600

 14  3 21  0 52 30.0000000  0 13G09G26G13G23G07G19G30G27G03G08G28G05
                                G11
 111690436.483 8  87031656.13446                  21253968.625
                  21253978.262                          48.500          36.600

 127590571.71615                                  24279686.297
                                                        33.000

 113776844.466 8  88657413.18246                  21650994.086
                  21651003.070                          48.700          36.100

 127396937.010 6  99270454.86643                  24242842.047
                  24242854.957                          41.400          22.000

 106479140.679 8  82970872.265 8                  20262274.289
  20262282.070    20262282.188                          48.600          49.800

 111939498.825 8  87225691.52046                  21301345.289
                  21301351.938                          49.100          39.100

 110354261.901 8  85990558.815 8  82407628.112 8  20999717.023
  20999728.051    20999727.949    20999727.406          48.800          50.000
        53.300
 122653480.177 6  95574173.513 7  91591943.466 7  23340133.672
  23340146.758    23340146.633    23340146.434          40.500          43.200
        46.500
 113461223.019 7  88411435.87745                  21590914.578
                  21590923.902                          46.500          33.900

 113026402.471 8  88072652.27346                  21508189.734
                  21508199.098                          48.200          38.200

 117030251.588 7  91192502.64045                  22270087.953
                  22270097.625                          46.300          33.000

 131344918.958 6 102346588.854 6                  24994066.820
  24994080.438    24994080.633                          41.100          37.100

 124850256.993 6  97285954.67143                  23758197.375
                  23758209.820                          39.400          23.300

 14  3 21  0 53  0.0000000  0 13G09G26G13G23G07G19G30G27G03G08G28G05
                                G11
 111614637.172 8  86972591.81145                  21239543.859
                  21239553.781                          48.000          35.800

 127481271.93915                                  24258889.508
                                                        35.800

 113867926.993 7  88728386.54345                  21668326.891
                  21668335.898                          47.400          35.700

 127513940.031 6  99361625.92443                  24265107.695
                  24265119.684                          40.600          22.600

 106466393.022 8  82960939.056 8                  20259848.773
  20259856.012    20259856.523                          48.300          50.100

 111960182.642 8  87241808.80546                  21305281.695
                  21305288.223                          50.300          39.200

 110304911.728 8  85952104.198 8  82370775.770 8  20990326.086
  20990336.922    20990336.910    20990336.426          48.700          49.500
        53.800
 122735772.733 6  95638297.524 7  91653395.634 7  23355794.711
  23355806.199    23355806.398    23355806.258          41.100          42.800
        46.600
 113530282.848 7  88465248.71545                  21604056.781
                  21604065.563                          46.200          34.600

 112965042.842 8  88024839.63846                  21496513.047
                  21496522.496                          48.700          38.100

 116973996.016 7  91148667.25345                  22259382.406
                  22259392.570                          45.000          33.300

 131368680.290 6 102365104.163 6                  24998588.258
  24998602.020    24998602.570                          39.400          38.200

 124766566.963 6  97220741.88444                  23742272.211
                  23742283.316                          40.400          24.900

 14  3 21  0 53 30.0000000  0 13G09G26G13G23G07G19G30G27G03G08G28G05
                                G11
 111539059.830 7  86913700.45046                  21225162.266
                  21225171.887                          46.700          36.200

 127372208.410 6                                  24238135.148
                                                        36.400

 113959392.863 7  88799658.60445                  21685731.867
                  21685741.477                          47.200          35.000

 127631016.118 6  99452853.94943                  24287386.109
                  24287399.098                          41.400          22.800

 106453971.635 8  82951260.082 8                  20257484.898
  20257492.469    20257492.820                          49.600          50.200

 111981509.204 8  87258426.94546                  21309339.680
                  21309346.383                          50.400          39.500

 110255791.628 8  85913828.860 8  82334095.245 8  20980978.680
  20980988.926    20980989.238    20980988.758          50.000          49.000
        53.500
 122818433.459 6  95702708.439 7  91715122.752 7  23371524.094
  23371536.652    23371536.617    23371535.773          41.400          43.300
        46.200
 113599848.953 7  88519456.05945                  21617294.484
                  21617304.293                          47.500          34.800

 112903832.426 7  87977143.27546                  21484864.766
                  21484874.406                          47.400          37.900

 116917999.499 7  91105033.73245                  22248727.039
                  22248736.723                          45.600          33.300

 131392893.863 6 102383971.857 6                  25003195.359
  25003209.516    25003210.602                          38.600          37.600

 124683056.780 6  97155669.24044                  23726380.023
                  23726391.816                          41.100          26.000

 14  3 21  0 54  0.0000000  0 13G09G26G13G23G07G19G30G27G03G08G28G05
                                G11
 111463706.294 7  86854983.48246                  21210822.797
                  21210832.352                          47.600          36.200

 127263383.663 5                                  24217425.250
                                                        34.000

 114051239.638 8  88871227.46845                  21703209.844
                  21703219.004                          48.100          35.300

 127748162.474 6  99544136.68743                  24309678.922
                  24309692.348                          40.900          21.700

 106441877.570 8  82941836.160 8                  20255183.023
  20255191.070    20255191.734                          49.100          50.300

 112003477.581 8  87275545.18746                  21313520.078
                  21313526.773                          50.000          39.200

 110206902.958 8  85875733.847 8  82297587.540 8  20971675.523
  20971685.668    20971685.930    20971685.797          50.400          49.400
        53.900
 122901459.867 7  95767404.294 7  91777122.941 7  23387323.273
  23387336.125    23387336.605    23387335.063          42.200          43.900
        46.300
 113669918.889 7  88574055.98545                  21630627.906
                  21630638.352                          47.000          34.200

 112842772.501 8  87929564.18846                  21473245.672
                  21473254.820                          49.500          37.600

 116862262.067 7  91061602.09745                  22238120.422
                  22238130.125                          46.000          32.600

 131417558.406 6 102403190.959 6                  25007889.352
  25007902.816    25007902.867                          37.700          36.100

 124599729.297 6  97090738.96344                  23710524.023
                  23710535.488                          41.400          25.900

 14  3 21  0 54 30.0000000  0 13G09G26G13G23G07G19G30G27G03G08G28G05
                                G11
 111388578.441 8  86796442.37446                  21196526.500
                  21196535.863                          48.600          36.800

 127154801.22915                                  24196760.813
                                                        33.100

 114143464.829 7  88943091.18645                  21720759.594
                  21720768.809                          46.900          34.400

 127865376.849 6  99635472.46743                  24331983.672
                  24331997.223                          41.000          21.300

 106430112.105 8  82932668.295 8                  20252944.633
  20252952.008    20252952.418                          49.100          50.000

 112026086.690 8  87293162.69746                  21317822.148
                  21317829.520                          50.000          39.400

 110158246.884 8  85837820.079 8  82261253.529 9  20962416.180
  20962426.598    20962426.828    20962426.637          50.700          49.100
        54.500
 122984849.275 7  95832383.001 7  91839394.208 7  23403192.273
  23403204.586    23403204.988    23403203.441          42.800          43.600
        45.800
 113740489.611 7  88629046.12745                  21644056.930
                  21644066.926                          47.700          34.600

 112781864.396 8  87882103.39046                  21461654.844
                  21461664.145                          48.600          38.100

 116806783.698 7  91018372.32045                  22227562.898
                  22227572.641                          46.000          32.700

 131442672.497 6 102422760.380 6                  25012669.273
  25012681.828    25012682.117                          37.900          36.500

 124516587.750 7  97025953.58044                  23694702.547
                  23694714.004                          42.200          25.900

 14  3 21  0 55  0.0000000  0 12G09G13G23G07G19G30G27G03G08G28G05G11
 111313677.748 8  86738078.28346                  21182273.445
                  21182282.844                          48.100          36.900

 114236065.694 7  89015247.62945                  21738381.063
                  21738389.777                          46.600          33.400

 127982656.285 6  99726858.91343                  24354301.320
                  24354315.684                          40.200          21.300

 106418675.682 8  82923756.819 8                  20250768.258
  20250775.273    20250775.855                          49.500          50.500

 112049335.227 8  87311278.46446                  21322246.273
                  21322252.879                          49.800          39.400

 110109824.340 8  85800088.285 8  82225093.908 8  20953202.031
  20953212.203    20953212.508    20953212.023          50.200          49.100
        53.600
 123068598.771 7  95897642.296 7  91901934.363 7  23419129.914
  23419141.504    23419141.938    23419140.746          42.700          42.900
        45.500
 113811558.417 7  88684424.39145                  21657581.156
                  21657591.438                          47.000          33.400

 112721109.204 8  87834761.74246                  21450093.828
                  21450103.125                          49.500          38.800

 116751563.474 7  90975343.70045                  22217054.883
                  22217064.961                          47.000          33.300

 131468233.916 6 102442678.337 6                  25017532.453
  25017545.523    25017546.234                          36.000          37.100

 124433635.426 7  96961315.64544                  23678917.070
                  23678928.969                          42.700          25.800

 14  3 21  0 55 30.0000000  0 13G09G26G13G23G07G19G30G27G03G08G28G05
                                G11
 111239006.799 8  86679893.20646                  21168063.828
                  21168073.508                          49.500          38.100

 126938383.96915                                  24155575.891
                                                        33.100

 114329040.564 7  89087695.52845                  21756073.344
                  21756082.723                          46.100          32.800

 128099999.274 6  99818294.91543                  24376631.906
                  24376645.273                          39.600          21.700

 106407570.730 8  82915103.631 8                  20248654.813
  20248662.258    20248662.789                          50.000          50.300

 112073223.351 8  87329892.61046                  21326791.922
                  21326798.652                          49.600          38.600

 110061637.464 8  85762540.138 8  82189110.277 8  20944032.094
  20944042.898    20944043.246    20944042.586          50.800          49.900
        53.800
 123152706.653 7  95963180.866 6  91964742.146 7  23435135.109
  23435146.953    23435147.258    23435146.121          42.000          41.800
        45.500
 113883123.599 8  88740189.44045                  21671200.180
                  21671209.563                          48.100          34.600

 112660509.245 8  87787541.05946                  21438561.891
                  21438571.457                          49.800          38.100

 116696602.500 7  90932517.09245                  22206595.875
                  22206605.484                          46.600          34.000

 131494242.082 6 102462944.402 6                  25022481.594
  25022496.145    25022495.840                          37.900          38.400

 124350875.513 7  96896827.62444                  23663167.500
                  23663179.891                          42.100          25.500

 14  3 21  0 56  0.0000000  0 13G09G26G13G23G07G19G30G27G03G08G28G05
                                G11
 111164567.168 8  86621888.38546                  21153898.852
                  21153908.492                          48.100          37.600

 126830544.74915                                  24135055.422
                                                        32.300

 114422386.410 7  89160432.49145                  21773836.344
                  21773846.254                          46.100          34.000

 128217402.821 6  99909778.06243                  24398972.234
                  24398986.477                          38.900          20.100

 106396797.947 8  82906709.272 8                  20246604.734
  20246612.547    20246612.836                          49.300          50.300

 112097749.511 8  87349003.93246                  21331459.164
                  21331465.883                          49.800          38.700

 110013687.321 8  85725176.454 8  82153303.427 9  20934907.391
  20934918.180    20934918.254    20934918.121          49.800          49.300
        54.200
 123237170.095 7  96028996.490 6  92027815.431 7  23451207.523
  23451219.410    23451219.672    23451219.121          43.000          41.800
        45.300
 113955182.080 7  88796338.89645                  21684912.258
                  21684921.723                          47.000          33.600

 112600065.475 8  87740442.09146                  21427059.914
                  21427069.148                          49.300          38.800

 116641900.409 7  90889892.21445                  22196186.297
                  22196195.582                          46.600          33.300

 131520694.805 6 102483556.926 6                  25027515.531
  25027530.344    25027530.328                          36.600          37.900

 124268311.166 7  96832491.98344                  23647455.805
                  23647467.496                          42.300          25.200

 14  3 21  0 56 30.0000000  0 13G09G26G13G23G07G19G30G27G03G08G28G05
                                G11
 111090360.558 7  86564065.12246                  21139777.672
                  21139786.945                          47.700          38.400

 126722960.19815                                  24114581.523
                                                        35.500

 114516100.924 7  89233456.72045                  21791670.063
                  21791679.926                          46.300          33.400

 128334863.947 6 100001306.05843                  24421323.328
                  24421338.480                          37.000          18.600

 106386358.381 8  82898574.562 8                  20244618.195
  20244625.414    20244626.012                          49.400          50.200

 112122912.625 8  87368611.58346                  21336247.188
                  21336254.750                          48.400          38.400

 109965974.850 8  85687997.975 8  82117674.056 9  20925828.344
  20925838.535    20925838.699    20925838.332          50.500          49.400
        54.000
 123321986.147 7  96095086.879 7  92091152.041 7  23467347.047
  23467359.039    23467359.480    23467358.695          43.600          42.400
        45.500
 114027731.190 7  88852870.64745                  21698717.609
                  21698727.578                          45.800          33.100

 112539779.002 8  87693465.69046                  21415587.578
                  21415597.191                          49.300          38.400

 116587456.682 7  90847468.66045                  22185825.852
                  22185835.316                          46.600          33.300

 131547590.406 6 102504514.530 6                  25032633.875
  25032648.469    25032648.156                          36.900          38.300

 124185945.595 7  96768311.22444                  23631782.273
                  23631793.621                          43.400          24.900

 14  3 21  0 57  0.0000000  0 13G09G26G13G23G07G19G30G27G03G08G28G05
                                G11
 111016388.666 8  86506424.75546                  21125701.078
                  21125710.465                          48.100          37.600

 126615633.19016                                  24094159.695
                                                        37.000

 114610182.023 7  89306766.59545                  21809573.078
                  21809582.902                          47.200          34.100

 128452380.239 6 100092877.15243                  24443687.000
                  24443700.988                          37.600          18.600

 106376253.302 8  82890700.501 8                  20242695.406
  20242702.281    20242702.730                          49.300          49.700

 112148711.499 8  87388714.63546                  21341156.992
                  21341163.781                          48.500          38.400

 109918501.396 8  85651005.728 8  82082223.174 9  20916794.547
  20916804.801    20916804.840    20916804.531          50.700          49.500
        54.500
 123407152.235 7  96161450.030 7  92154750.051 7  23483553.703
  23483565.992    23483566.195    23483565.410          44.100          42.400
        45.700
 114100768.366 7  88909782.71745                  21712616.094
                  21712625.922                          45.900          32.900

 112479651.251 8  87646612.97446                  21404145.930
                  21404155.047                          49.300          38.400

 116533271.195 7  90805246.33645                  22175514.258
                  22175524.227                          45.900          33.000

 131574927.215 6 102525815.862 6                  25037835.945
  25037850.758    25037850.309                          38.300          39.000

 124103781.735 7  96704287.62944                  23616146.750
                  23616158.402                          43.200          26.500

 14  3 21  0 57 30.0000000  0 13G09G26G13G23G07G19G30G27G03G08G28G05
                                G11
 110942653.629 8  86448968.96646                  21111669.500
                  21111679.238                          49.000          38.400

 126508565.626 6                                  24073784.117
                                                        37.500

 114704626.530 7  89380359.65845                  21827545.289
                  21827555.512                          47.700          34.000

 128569949.536 6 100184489.49542                  24466059.359
                  24466074.844                          36.800          16.300

 106366483.709 8  82883087.857 8                  20240836.508
  20240843.992    20240844.438                          48.900          50.500

 112175145.134 7  87409312.29446                  21346186.961
                  21346193.719                          47.400          38.900

 109871268.455 8  85614200.899 8  82046951.895 9  20907806.609
  20907816.629    20907816.484    20907816.176          51.000          49.400
        54.000
 123492666.023 7  96228084.101 6  92218607.711 7  23499827.102
  23499838.789    23499839.301    23499838.691          43.000          41.600
        45.700
 114174291.107 7  88967073.15345                  21726607.492
                  21726616.512                          46.400          33.200

 112419683.821 8  87599885.17246                  21392734.781
                  21392743.441                          48.900          38.700

 116479344.300 7  90763225.51345                  22165252.461
                  22165262.625                          46.000          32.900

 131602703.049 6 102547459.331 5                  25043121.055
  25043136.160    25043135.719                          37.800          35.700

 124021822.980 7  96640423.85344                  23600550.508
                  23600562.063                          44.100          27.600

 14  3 21  0 58  0.0000000  0 13G09G26G13G23G07G19G30G27G03G08G28G05
                                G11
 110869157.040 8  86391698.96846                  21097683.172
                  21097692.992                          48.300          38.000

 126401761.797 6                                  24053460.109
                                                        36.900

 114799431.780 7  89454233.81945                  21845585.852
                  21845596.445                          47.800          34.400

 128687568.924 6 100276140.90042                  24488441.344
                  24488456.891                          36.300          17.800

 106357050.813 8  82875737.557 8                  20239041.219
  20239048.516    20239048.996                          50.100          50.200

 112202212.493 7  87430403.75846                  21351337.273
                  21351344.824                          45.900          38.800

 109824277.053 8  85577584.288 8  82011860.990 9  20898863.891
  20898874.047    20898874.133    20898873.883          50.200          49.500
        54.300
 123578524.595 7  96294986.853 6  92282722.859 7  23516164.883
  23516177.344    23516178.031    23516177.188          42.900          41.900
        46.000
 114248296.433 7  89024739.61745                  21740689.953
                  21740699.215                          45.500          33.400

 112359877.911 8  87553283.23546                  21381353.945
                  21381362.680                          49.500          38.800

 116425675.411 7  90721405.73645                  22155039.367
                  22155048.961                          46.700          33.100

 131630916.562 5 102569443.894 5                  25048490.383
  25048504.250    25048504.258                          35.100          34.200

 123940071.882 7  96576721.88344                  23584993.539
                  23585005.137                          43.900          26.900

 14  3 21  0 58 30.0000000  0 13G09G26G13G23G07G19G30G27G03G08G28G05
                                G11
 110795901.011 8  86334616.42346                  21083743.492
                  21083753.055                          48.400          38.000

 126295224.48416                                  24033185.758
                                                        36.200

 114894595.674 8  89528387.43245                  21863695.289
                  21863705.582                          48.100          34.700

 128805236.054 6 100367829.47342                  24510833.086
                  24510848.383                          37.800          17.400

 106347955.792 8  82868650.543 8                  20237310.484
  20237317.711    20237318.266                          50.000          50.300

 112229912.387 7  87451988.11946                  21356608.656
                  21356615.809                          47.800          38.300

 109777528.730 8  85541157.078 8  81976951.599 9  20889967.930
  20889978.500    20889978.391    20889978.379          50.200          49.800
        54.400
 123664725.600 6  96362156.422 6  92347093.698 7  23532568.719
  23532580.383    23532580.961    23532581.055          41.400          41.600
        45.800
 114322781.900 7  89082780.23145                  21754864.125
                  21754873.273                          46.400          32.600

 112300234.988 8  87506808.29846                  21370003.813
                  21370012.633                          49.000          38.600

 116372264.483 7  90679786.95445                  22144875.602
                  22144885.527                          46.200          33.100

 131659565.941 5 102591768.103 5                  25053942.078
  25053956.813    25053954.859                          35.900          35.700

 123858532.315 7  96513184.75444                  23569477.117
                  23569487.762                          42.000          25.600

 14  3 21  0 59  0.0000000  0 13G09G26G13G23G07G19G30G27G03G08G28G05
                                G11
 110722887.653 8  86277722.97746                  21069849.102
                  21069859.082                          48.000          37.700

 126188956.747 6  98329121.05752                  24012963.164
                  24012976.703                          36.000          16.900

 114990115.614 8  89602818.49945                  21881872.289
                  21881881.922                          48.500          34.200

 128922948.389 5 100459553.31142                  24533233.344
                  24533248.469                          35.300          15.600

 106339200.193 8  82861828.019 8                  20235644.320
  20235651.984    20235652.543                          49.600          49.900

 112258243.698 7  87474064.50246                  21362000.000
                  21362006.332                          47.500          38.100

 109731024.761 8  85504920.289 8  81942224.679 9  20881118.219
  20881129.016    20881129.164    20881128.973          49.800          50.000
        54.400
 123751266.430 6  96429590.788 6  92411718.288 7  23549037.078
  23549048.641    23549049.098    23549049.254          41.400          41.400
        46.200
 114397745.012 7  89141193.04645                  21769129.445
                  21769138.145                          45.800          32.300

 112240756.660 8  87460461.62646                  21358685.656
                  21358694.738                          49.300          38.800

 116319111.416 7  90638369.13045                  22134761.195
                  22134770.926                          46.800          33.900

 131688649.646 6 102614430.694 5                  25059477.016
  25059489.859    25059488.410                          39.400          33.300

 123777207.266 6  96449814.78043                  23554000.781
                  23554011.625                          40.700          23.000

 14  3 21  0 59 30.0000000  0 13G09G26G13G23G07G19G30G27G03G08G28G05
                                G11
 110650118.482 7  86221019.81646                  21056001.641
                  21056011.340                          47.900          37.100

 126082961.422 6  98246527.42242                  23992793.375
                  23992806.488                          37.200          17.400

 115085988.933 8  89677524.90745                  21900116.445
                  21900125.961                          48.100          34.500

 129040703.468 5 100551310.47642                  24555641.031
                  24555656.906                          35.200          16.300

 106330784.415 8  82855270.301 8                  20234042.961
  20234050.445    20234050.961                          48.700          50.200

 112287205.113 7  87496631.85346                  21367511.383
                  21367518.320                          47.500          39.000

 109684766.141 8  85468874.665 8  81907680.978 9  20872315.953
  20872326.250    20872326.535    20872326.344          49.300          49.100
        54.300
 123838144.127 6  96497287.651 6  92476594.430 7  23565568.977
  23565580.926    23565580.941    23565581.391          41.100          41.100
        45.700
 114473182.620 7  89199975.57845                  21783484.492
                  21783494.164                          45.900          32.100

 112181443.704 8  87414243.82246                  21347398.625
                  21347407.762                          49.700          39.400

 116266215.734 8  90597151.85045                  22124696.070
                  22124704.914                          48.500          33.800

 131718165.588 6 102637430.053 5                  25065093.734
  25065106.496    25065105.770                          41.000          34.600

 123696099.611 6  96386614.19844                  23538566.461
                  23538576.422                          41.100          24.200

 14  3 21  1  0  0.0000000  4  6
DSRC                                                        MARKER NUMBER
DSRC (COGO code)                                            COMMENT
   0.000      (antenna height)                              COMMENT
 +39.99147598 (latitude)                                    COMMENT
-105.26107939 (longitude)                                   COMMENT
1655.057      (elevation)                                   COMMENT
 14  3 21  1  0  0.0000000  0 13G09G26G13G23G07G19G30G27G03G08G28G05
                                G11
 110577595.378 8  86164508.39146                  21042200.914
                  21042210.656                          48.300          37.600

 125977241.561 6  98164148.49542                  23972675.492
                  23972688.539                          37.600          16.900

 115182212.995 7  89752504.62745                  21918427.203
                  21918437.082                          47.500          33.800

 129158498.199 5 100643098.50942                  24578056.148
                  24578072.148                          33.400          16.900

 106322709.754 8  82848978.371 8                  20232506.195
  20232513.813    20232514.465                          49.700          50.200

 112316795.191 8  87519689.08246                  21373142.164
                  21373149.406                          48.800          38.600

 109638754.290 8  85433021.330 8  81873321.544 9  20863560.031
  20863570.047    20863570.398    20863569.797          49.400          49.300
        54.100
 123925356.140 6  96565245.033 6  92541720.226 7  23582165.336
  23582177.184    23582176.977    23582177.480          41.000          40.800
        46.200
 114549092.103 7  89259125.82345                  21797929.641
                  21797939.039                          45.800          32.500

 112122297.724 8  87368156.12446                  21336143.727
                  21336152.539                          49.700          40.000

 116213577.230 7  90556134.97045                  22114678.805
                  22114687.188                          47.800          32.800

 131748111.513 6 102660764.490 5                  25070792.555
  25070805.453    25070805.109                          41.800          34.100

 123615212.241 7  96323585.28744                  23523173.180
                  23523184.211                          42.400          24.400

 14  3 21  1  0 30.0000000  0 13G09G26G13G23G07G19G30G27G03G08G28G05
                                G11
 110505320.172 8  86108190.13646                  21028447.523
                  21028456.992                          48.800          37.600

 125871800.350 6  98081986.71542                  23952610.648
                  23952623.770                          37.500          17.400

 115278785.298 8  89827755.69645                  21936804.891
                  21936814.754                          48.200          33.500

 129276330.556 5 100734915.92142                  24600480.234
                  24600494.258                          32.900          15.600

 106314977.432 8  82842953.213 8                  20231034.914
  20231042.465    20231042.840                          48.900          50.200

 112347012.898 8  87543235.37446                  21378892.273
                  21378899.332                          48.100          38.900

 109592990.409 8  85397361.208 8  81839147.267 8  20854851.531
  20854861.645    20854861.539    20854860.762          50.100          49.700
        53.900
 124012899.739 6  96633460.787 6  92607093.631 7  23598823.633
  23598836.320    23598836.379    23598836.418          40.600          41.100
        45.400
 114625470.630 7  89318641.54645                  21812463.961
                  21812473.258                          45.600          32.300

 112063320.223 8  87322199.68946                  21324920.438
                  21324929.270                          49.400          39.200

 116161195.968 8  90515318.52645                  22104710.297
                  22104718.629                          48.400          33.700

 131778485.977 6 102684432.821 5                  25076572.789
  25076585.988    25076585.313                          41.400          33.500

 123534548.636 6  96260730.74043                  23507823.594
                  23507835.066                          41.300          23.000

 14  3 21  1  1  0.0000000  0 13G09G26G13G23G07G19G30G27G03G08G28G05
                                G11
 110433294.936 8  86052066.65446                  21014741.195
                  21014750.605                          48.800          38.100

 125766641.036 5  98000044.53842                  23932598.836
                  23932612.129                          35.700          16.900

 115375703.373 7  89903276.21245                  21955247.195
                  21955257.961                          47.800          33.500

 129394198.012 5 100826760.69542                  24622908.992
                  24622924.414                          33.200          15.600

 106307588.655 8  82837195.751 8                  20229628.617
  20229636.027    20229636.523                          50.000          50.000

 112377857.128 8  87567269.85646                  21384761.641
                  21384768.469                          48.600          38.300

 109547476.023 8  85361895.503 8  81805159.313 9  20846190.195
  20846201.074    20846201.227    20846200.215          49.500          50.100
        54.400
 124100772.610 6  96701933.116 6  92672712.921 7  23615545.594
  23615557.863    23615557.629    23615557.430          39.900          41.400
        45.600
 114702315.787 7  89378520.87045                  21827087.195
                  21827096.566                          46.700          32.800

 112004512.940 8  87276375.89446                  21313729.859
                  21313738.578                          50.000          39.200

 116109071.931 8  90474702.53045                  22094791.805
                  22094800.195                          48.100          33.800

 131809287.151 6 102708433.651 5                  25082433.242
  25082448.438    25082447.160                          39.600          33.400

 123454112.148 6  96198053.13243                  23492517.156
                  23492528.137                          41.100          23.500

 14  3 21  1  1 30.0000000  0 13G09G26G13G23G07G19G30G27G03G08G28G05
                                G11
 110361521.568 8  85996139.43746                  21001083.648
                  21001092.145                          49.400          37.600

 125661766.536 6  97918324.35943                  23912641.766
                  23912655.730                          36.800          18.600

 115472964.461 8  89979063.99845                  21973755.617
                  21973766.574                          48.000          33.800

 129512098.025 5 100918630.74242                  24645344.453
                  24645359.934                          33.600          16.300

 106300544.578 8  82831706.888 8                  20228288.555
  20228295.273    20228295.805                          49.400          50.000

 112409326.178 8  87591791.22046                  21390750.000
                  21390757.047                          48.700          39.300

 109502212.365 8  85326625.161 8  81771358.578 9  20837576.984
  20837587.309    20837587.715    20837586.820          50.400          50.200
        54.600
 124188971.903 6  96770659.775 7  92738575.968 7  23632330.695
  23632342.125    23632342.016    23632341.113          39.900          42.000
        44.700
 114779624.858 7  89438761.67745                  21841798.656
                  21841807.910                          46.300          32.200

 111945877.002 8  87230685.61846                  21302571.477
                  21302580.031                          48.500          38.400

 116057204.457 8  90434286.43945                  22084921.484
                  22084929.961                          48.500          33.900

 131840512.827 6 102732765.302 5                  25088376.125
  25088389.527    25088389.844                          39.200          33.600

 123373905.736 7  96135554.78243                  23477255.109
                  23477265.063                          42.900          22.800

 14  3 21  1  2  0.0000000  0 13G09G26G13G23G07G19G30G27G03G08G28G05
                                G11
 110290001.968 7  85940409.96446                  20987473.633
                  20987482.922                          47.500          37.600

 125557179.970 6  97836828.49443                  23892739.883
                  23892753.023                          38.100          19.600

 115570565.988 8  90055117.06945                  21992328.578
                  21992339.613                          48.000          33.600

 129630027.897 5 101010524.13842                  24667784.758
                  24667800.082                          32.400          16.300

 106293846.402 8  82826487.549 8                  20227013.734
  20227020.691    20227021.086                          49.100          50.200

 112441418.890 7  87616798.55546                  21396856.969
                  21396864.473                          47.200          39.000

 109457200.693 8  85291551.183 8  81737746.016 9  20829011.375
  20829022.051    20829021.953    20829021.820          49.600          50.300
        54.400
 124277495.001 6  96839638.772 6  92804680.831 7  23649175.195
  23649186.953    23649186.910    23649185.895          40.400          41.600
        43.600
 114857394.866 7  89499361.67345                  21856598.188
                  21856607.016                          47.300          33.000

 111887413.768 8  87185129.91146                  21291446.086
                  21291454.945                          49.500          38.600

 116005593.550 8  90394070.26745                  22075100.141
                  22075109.285                          48.000          34.300

 131872161.349 6 102757426.484 5                  25094397.406
  25094409.488    25094411.113                          39.500          31.800

 123293932.552 7  96073238.17143                  23462036.063
                  23462046.586                          42.200          23.400

 14  3 21  1  2 30.0000000  0 13G09G26G13G23G07G19G30G27G03G08G28G05
                                G11
 110218737.889 8  85884879.59946                  20973912.383
                  20973921.527                          48.600          38.000

 125452884.168 6  97755559.24443                  23872892.711
                  23872905.992                          36.500          19.000

 115668505.376 7  90131433.41445                  22010966.039
                  22010976.234                          47.600          32.300

 129747985.229 5 101102438.97542                  24690228.797
                  24690247.035                          31.500          15.600

 106287494.867 8  82821538.329 8                  20225804.992
  20225812.211    20225812.594                          49.800          50.200

 112474133.733 7  87642290.65946                  21403082.359
                  21403089.434                          47.600          38.600

 109412442.211 8  85256674.480 8  81704322.526 9  20820494.055
  20820504.543    20820504.520    20820504.391          50.300          49.600
        54.600
 124366339.076 6  96908867.862 6  92871025.385 7  23666081.789
  23666093.629    23666093.391    23666092.434          40.300          40.500
        43.800
 114935623.266 7  89560318.85645                  21871483.992
                  21871493.539                          46.400          32.400

 111829124.821 8  87139710.02146                  21280353.836
                  21280362.797                          49.100          38.300

 115954238.747 7  90354053.64745                  22065327.172
                  22065336.750                          47.900          34.500

 131904231.110 6 102782415.790 5                  25100501.063
  25100514.539    25100514.125                          40.000          33.800

 123214195.679 7  96011105.71144                  23446863.031
                  23446873.063                          43.200          24.600

 14  3 21  1  3  0.0000000  0 13G09G26G13G23G07G19G30G27G03G08G28G05
                                G11
 110147731.392 8  85829549.95246                  20960399.844
                  20960409.211                          48.500          37.900

 125348882.789 6  97674519.37543                  23853101.266
                  23853115.313                          37.800          19.000

 115766780.274 8  90208011.17945                  22029667.680
                  22029677.082                          48.600          32.000

 129865967.459 5 101194373.18642                  24712681.914
                  24712697.000                          31.900          14.800

 106281491.641 8  82816860.517 8                  20224662.352
  20224670.063    20224670.469                          49.100          50.000

 112507469.812 7  87668266.86246                  21409426.094
                  21409432.559                          46.300          38.400

 109367938.619 8  85221996.410 8  81671089.385 9  20812025.461
  20812035.730    20812035.836    20812035.703          50.900          49.800
        54.500
 124455501.941 6  96978345.388 6  92937608.015 7  23683048.680
  23683060.121    23683060.016    23683059.230          40.500          40.200
        42.700
 115014307.335 7  89621631.09545                  21886457.375
                  21886466.594                          47.500          32.500

 111771011.855 7  87094427.24846                  21269295.586
                  21269304.508                          47.600          39.000

 115903140.486 7  90314236.92245                  22055603.211
                  22055613.082                          47.900          34.200

 131936719.749 6 102807731.518 5                  25106683.117
  25106697.391    25106696.309                          41.400          34.200

 123134698.246 7  95949159.84444                  23431734.531
                  23431744.730                          42.700          24.700

 14  3 21  1  3 30.0000000  0 13G09G26G13G23G07G19G30G27G03G08G28G05
                                G11
 110076984.399 8  85774422.52646                  20946937.383
                  20946947.051                          49.400          37.100

 125245178.595 6  97593711.09343                  23833367.188
                  23833381.172                          38.100          20.100

 115865387.664 7  90284848.05045                  22048431.359
                  22048441.152                          45.300          32.400

 129983972.28514 101286324.89752                  24735134.984
                  24735153.730                          28.600          15.600

 106275837.749 8  82812454.917 8                  20223586.547
  20223594.105    20223594.582                          49.100          50.500

 112541425.611 7  87694725.94346                  21415887.719
                  21415894.605                          46.000          38.000

 109323691.024 8  85187517.811 8  81638047.402 9  20803605.250
  20803615.648    20803615.723    20803615.301          50.900          49.900
        54.500
 124544980.649 6  97048069.046 6  93004426.510 7  23700076.141
  23700087.855    23700087.703    23700086.918          40.000          40.000
        43.300
 115093444.132 7  89683296.10145                  21901516.672
                  21901525.992                          44.400          32.800

 111713076.111 8  87049282.56946                  21258270.609
                  21258279.598                          48.100          38.800

 115852298.204 7  90274619.67445                  22045929.008
                  22045938.043                          45.500          33.900

 131969625.640 6 102833372.475 5                  25112944.945
  25112956.313    25112958.141                          39.400          30.400

 123055443.509 6  95887403.09643                  23416652.633
                  23416662.938                          41.800          23.300

 14  3 21  1  4  0.0000000  0 13G09G26G13G23G07G19G30G27G03G08G28G05
                                G11
 110006498.868 7  85719498.82346                  20933524.383
                  20933533.512                          47.500          37.700

 125141774.343 6  97513136.55043                  23813689.781
                  23813703.414                          39.100          21.100

 115964325.167 7  90361942.14245                  22067258.469
                  22067268.223                          45.600          31.900

 130101996.512 4 101378291.94052                  24757596.227
                  24757612.570                          28.000          13.900

 106270533.595 8  82808321.839 8                  20222577.594
  20222584.676    20222585.168                          48.400          50.600

 112575999.252 7  87721666.47346                  21422466.758
                  21422474.332                          47.200          38.700

 109279700.457 8  85153239.478 8  81605197.343 9  20795234.297
  20795244.465    20795244.441    20795243.840          49.300          50.300
        54.300
 124634772.335 6  97118036.581 6  93071478.724 7  23717162.984
  23717174.832    23717174.754    23717174.559          40.900          39.700
        44.600
 115173030.763 7  89745311.63445                  21916661.281
                  21916670.441                          45.300          32.600

 111655318.560 8  87004276.74146                  21247279.625
                  21247289.113                          48.500          38.800

 115801711.431 7  90235201.52245                  22036302.195
                  22036311.082                          47.300          33.500

 132002946.580 5 102859336.884 5                  25119284.438
  25119297.195    25119298.230                          35.500          32.300

 122976434.254 7  95825837.64144                  23401617.344
                  23401628.727                          42.700          25.300

 14  3 21  1  4 30.0000000  0 12G09G26G13G07G19G30G27G03G08G28G05G11
 109936276.652 7  85664780.29946                  20920161.516
                  20920170.949                          47.800          37.700

 125038673.556 6  97432798.47143                  23794070.094
                  23794084.379                          38.900          20.900

 116063589.936 7  90439291.23145                  22086147.914
                  22086157.363                          47.100          30.900

 106265580.799 8  82804462.553 7                  20221634.742
  20221641.820    20221642.285                          48.500          46.800

 112611189.478 8  87749087.45346                  21429163.297
                  21429170.113                          48.000          38.300

 109235968.600 8  85119162.734 7  81572540.471 9  20786912.164
  20786922.398    20786922.543    20786921.883          49.600          46.600
        54.400
 124724874.623 6  97188246.100 6  93138762.851 7  23734308.609
  23734320.879    23734320.523    23734321.379          40.700          40.000
        45.200
 115253064.650 7  89807675.69245                  21931891.188
                  21931900.703                          46.700          32.100

 111597741.034 8  86959411.19846                  21236322.586
                  21236331.984                          48.500          38.600

 115751380.209 7  90195982.49545                  22026724.375
                  22026733.047                          47.200          34.100

 132036680.927 6 102885623.227 6                  25125704.867
  25125719.598    25125719.738                          37.900          36.200

 122897673.681 7  95764465.96744                  23386629.578
                  23386641.340                          42.500          25.800

 14  3 21  1  5  0.0000000  0 12G09G26G13G07G19G30G27G03G08G28G05G11
 109866319.792 8  85610268.54546                  20906848.766
                  20906857.598                          49.000          37.200

 124935879.217 6  97352699.19243                  23774508.938
                  23774523.078                          37.600          21.500

 116163179.518 7  90516893.44045                  22105099.172
                  22105108.898                          46.400          31.200

 106260980.514 8  82800877.947 8                  20220758.992
  20220766.664    20220767.141                          49.500          49.900

 112646995.006 8  87776987.89246                  21435976.859
                  21435983.199                          48.600          38.800

 109192496.781 8  85085288.623 8  81540077.787 9  20778639.516
  20778650.031    20778650.211    20778649.672          50.000          49.200
        54.100
 124815284.839 6  97258695.596 6  93206276.933 7  23751513.875
  23751525.828    23751525.426    23751526.867          41.600          40.400
        45.500
 115333543.218 7  89870386.25045                  21947205.953
                  21947215.809                          47.100          32.800

 111540345.322 8  86914687.32346                  21225400.594
                  21225410.109                          48.600          38.800

 115701304.143 7  90156962.29045                  22017195.203
                  22017203.547                          47.800          34.000

 132070826.310 6 102912229.952 6                  25132203.219
  25132216.867    25132217.617                          40.200          36.400

 122819165.287 7  95703290.77644                  23371690.633
                  23371701.621                          42.800          27.200

 14  3 21  1  5 30.0000000  0 12G09G26G13G07G19G30G27G03G08G28G05G11
 109796629.892 8  85555964.81246                  20893587.461
                  20893595.766                          48.800          37.300

 124833394.364 6  97272841.02643                  23755006.680
                  23755020.480                          39.100          22.200

 116263091.053 7  90594746.50745                  22124111.789
                  22124122.027                          45.200          30.700

 106256733.490 8  82797568.604 8                  20219951.047
  20219958.637    20219959.129                          48.900          50.200

 112683414.092 7  87805366.42846                  21442907.234
                  21442914.383                          47.900          38.700

 109149286.071 8  85051617.989 8  81507810.103 9  20770416.844
  20770427.484    20770427.590    20770426.871          50.200          50.100
        54.100
 124906000.146 6  97329382.803 6  93274018.825 7  23768775.594
  23768788.184    23768787.887    23768789.270          40.800          41.100
        45.900
 115414463.052 7  89933440.62745                  21962604.234
                  21962614.508                          47.200          34.200

 111483132.421 8  86870105.89546                  21214513.578
                  21214522.238                          49.100          39.000

 115651482.687 8  90118140.48045                  22007714.664
                  22007722.793                          48.100          34.200

 132105380.620 6 102939155.396 6                  25138778.070
  25138792.285    25138793.027                          39.200          36.400

 122740911.920 7  95642314.31144                  23356799.172
                  23356809.895                          43.400          27.700

 14  3 21  1  6  0.0000000  0 12G09G26G13G07G19G30G27G03G08G28G05G11
 109727209.322 8  85501870.95146                  20880376.711
                  20880386.086                          48.600          38.100

 124731222.113 6  97193226.48343                  23735563.680
                  23735578.027                          39.600          22.500

 116363322.139 7  90672848.59845                  22143185.672
                  22143195.457                          46.200          31.700

 106252841.156 8  82794535.644 8                  20219210.313
  20219217.543    20219218.488                          49.300          50.000

 112720445.334 8  87834221.96146                  21449953.797
                  21449960.938                          48.100          38.200

 109106338.061 8  85018152.048 8  81475738.590 9  20762244.336
  20762254.625    20762254.957    20762254.238          50.500          49.600
        54.400
 124997018.116 6  97400305.867 6  93341986.754 7  23786096.172
  23786108.738    23786107.941    23786109.793          41.600          40.900
        46.100
 115495821.844 7  89996837.06145                  21978087.438
                  21978096.809                          46.200          34.200

 111426104.129 8  86825668.31046                  21203661.625
                  21203670.473                          49.300          39.600

 115601916.138 7  90079517.30645                  21998282.172
                  21998290.844                          47.700          34.000

 132140342.148 6 102966398.118 5                  25145431.297
  25145445.723    25145445.297                          39.900          34.400

 122662916.899 7  95581539.16044                  23341956.695
                  23341967.152                          44.600          29.300

 14  3 21  1  6 30.0000000  0 12G09G26G13G07G19G30G27G03G08G28G05G11
 109658059.962 8  85447988.41746                  20867218.469
                  20867227.129                          49.900          37.500

 124629365.686 6  97113858.04743                  23716180.492
                  23716194.426                          39.100          22.600

 116463870.136 7  90751197.63245                  22162318.867
                  22162329.371                          46.900          31.600

 106249304.950 8  82791780.196 8                  20218537.180
  20218544.512    20218544.902                          49.500          50.800

 112758087.067 8  87863553.20346                  21457116.938
                  21457123.730                          48.000          39.000

 109063654.116 8  84984891.876 8  81443864.261 9  20754121.563
  20754131.840    20754132.047    20754131.621          51.300          50.300
        54.700
 125088336.048 6  97471462.656 6  93410178.675 7  23803472.977
  23803485.648    23803486.023    23803486.820          41.800          41.600
        46.600
 115577616.737 7  90060573.31245                  21993652.625
                  21993662.063                          46.600          33.600

 111369262.105 8  86781375.86946                  21192844.578
                  21192854.027                          49.700          39.200

 115552604.292 7  90041092.59545                  21988898.078
                  21988907.211                          46.300          34.000

 132175709.063 6 102993956.751 5                  25152161.719
  25152175.055    25152175.715                          40.800          35.100

 122585183.331 7  95520967.74244                  23327164.586
                  23327175.496                          44.600          28.600

 14  3 21  1  7  0.0000000  0 12G09G26G13G07G19G30G27G03G08G28G05G11
 109589183.316 8  85394318.37646                  20854111.563
                  20854120.594                          48.400          38.300

 124527827.818 6  97034737.81643                  23696858.750
                  23696872.938                          39.500          22.800

 116564731.989 7  90829791.22045                  22181512.781
                  22181522.703                          46.200          32.700

 106246125.115 8  82789302.432 8                  20217932.078
  20217939.387    20217939.980                          50.000          50.500

 112796337.610 7  87893358.84346                  21464395.578
                  21464402.367                          47.700          38.300

 109021235.157 8  84951838.201 8  81412187.828 9  20746049.414
  20746059.242    20746059.461    20746059.211          50.300          50.000
        54.300
 125179950.946 6  97542850.850 7  93478592.354 7  23820907.625
  23820919.793    23820920.160    23820919.961          41.100          42.400
        46.400
 115659844.661 7  90124646.99045                  22009299.758
                  22009309.008                          46.200          34.200

 111312607.662 8  86737229.58946                  21182063.617
                  21182072.844                          49.800          39.900

 115503546.285 7  90002865.67645                  21979562.641
                  21979571.566                          46.900          33.600

 132211478.600 6 103021829.066 6                  25158967.844
  25158982.789    25158983.156                          39.400          37.000

 122507714.204 7  95460602.36044                  23312422.406
                  23312433.336                          43.600          27.700

 14  3 21  1  7 30.0000000  0 12G09G26G13G07G19G30G27G03G08G28G05G11
 109520581.928 8  85340862.83446                  20841057.086
                  20841066.137                          48.700          38.600

 124426612.111 6  96955868.65743                  23677597.734
                  23677611.672                          39.500          22.600

 116665905.550 7  90908627.69645                  22200765.039
                  22200776.305                          46.300          32.100

 106243303.369 7  82787103.696 8                  20217395.031
  20217402.559    20217402.945                          47.300          49.600

 112835195.767 7  87923637.94846                  21471789.633
                  21471796.961                          47.000          38.100

 108979083.150 8  84918992.534 8  81380710.740 9  20738027.969
  20738038.160    20738038.203    20738038.070          50.500          50.000
        55.000
 125271860.687 6  97614468.797 7  93547226.216 7  23838396.883
  23838410.316    23838410.359    23838410.160          40.100          42.200
        45.800
 115742503.108 7  90189056.12845                  22025028.609
                  22025038.539                          45.600          33.200

 111256142.699 8  86693230.96246                  21171318.773
                  21171327.586                          49.700          38.800

 115454742.202 7  89964836.61545                  21970275.406
                  21970284.418                          47.700          33.700

 132247649.337 6 103050013.999 6                  25165850.336
  25165865.641    25165866.086                          37.500          36.800

 122430512.508 7  95400445.38044                  23297731.109
                  23297741.926                          44.100          28.600

 14  3 21  1  8  0.0000000  0 12G09G26G13G07G19G30G27G03G08G28G05G11
 109452257.591 8  85287623.17746                  20828055.164
                  20828064.203                          48.100          38.700

 124325721.503 6  96877252.81943                  23658398.789
                  23658412.547                          38.300          22.300

 116767388.027 7  90987704.89345                  22220077.055
                  22220087.090                          46.500          32.100

 106240840.979 8  82785184.965 8                  20216926.602
  20216933.992    20216934.457                          48.200          50.300

 112874659.755 7  87954389.12446                  21479299.445
                  21479306.320                          47.200          37.900

 108937199.246 8  84886355.785 8  81349433.863 9  20730057.742
  20730067.961    20730067.879    20730067.457          49.100          50.200
        54.500
 125364062.496 6  97686314.302 7  93616078.183 7  23855942.336
  23855955.023    23855955.684    23855955.371          40.100          42.100
        46.200
 115825589.193 7  90253798.50145                  22040839.039
                  22040849.363                          46.300          32.900

 111199868.645 8  86649381.09746                  21160610.039
                  21160618.629                          50.100          39.200

 115406192.014 7  89927005.40645                  21961037.000
                  21961045.895                          47.400          34.400

 132284219.151 6 103078509.856 5                  25172811.000
  25172824.809    25172825.355                          40.300          35.600

 122353581.750 7  95340499.52744                  23283092.039
                  23283102.031                          44.000          29.800

 14  3 21  1  8 30.0000000  0 12G09G26G13G07G19G30G27G03G08G28G05G11
 109384211.911 8  85234600.63646                  20815106.555
                  20815115.820                          49.500          39.000

 124225158.581 6  96798892.30943                  23639261.797
                  23639275.906                          38.600          22.500

 116869176.318 7  91067020.37445                  22239446.531
                  22239457.215                          45.800          32.600

 106238737.929 7  82783546.255 8                  20216526.531
  20216533.883    20216534.500                          46.000          50.100

 112914727.585 7  87985610.82746                  21486924.031
                  21486931.273                          47.300          37.800

 108895584.327 8  84853928.620 8  81318357.864 9  20722138.492
  20722148.504    20722148.918    20722148.555          49.900          50.000
        54.700
 125456553.218 6  97758384.964 7  93685145.896 7  23873542.930
  23873555.918    23873556.035    23873556.129          39.900          42.200
        46.300
 115909099.684 7  90318871.57145                  22056730.875
                  22056741.176                          45.800          32.800

 111143786.461 8  86605680.74846                  21149938.188
                  21149946.883                          49.700          39.600

 115357894.559 7  89889371.12245                  21951845.453
                  21951854.543                          47.600          34.900

 132321185.693 6 103107314.974 5                  25179844.953
  25179857.027    25179859.336                          38.800          32.700

 122276924.738 7  95280766.98645                  23268504.523
                  23268514.512                          44.500          30.000

 14  3 21  1  9  0.0000000  0 12G09G26G13G07G19G30G27G03G08G28G05G11
 109316447.210 8  85181797.04746                  20802211.164
                  20802219.926                          49.100          38.600

 124124926.734 6  96720789.78843                  23620188.406
                  23620202.059                          39.700          22.300

 116971268.150 7  91146572.37745                  22258873.859
                  22258885.316                          46.600          31.700

 106236995.874 7  82782188.835 8                  20216194.711
  20216202.680    20216203.125                          47.600          50.600

 112955397.826 7  88017301.94146                  21494663.813
                  21494670.750                          47.500          38.300

 108854239.956 8  84821712.301 8  81287483.889 9  20714271.234
  20714281.367    20714281.426    20714280.883          50.700          50.000
        54.400
 125549330.339 6  97830678.786 7  93754427.465 7  23891197.953
  23891210.676    23891211.219    23891211.316          40.200          42.400
        46.200
 115993032.055 7  90384273.40145                  22072702.484
                  22072713.148                          45.900          32.800

 111087897.810 8  86562131.19546                  21139303.094
                  21139311.660                          49.900          40.100

 115309849.922 7  89851933.83645                  21942703.109
                  21942712.219                          47.200          35.000

 132358546.620 6 103136427.411 5                  25186954.242
  25186967.914    25186969.070                          39.300          35.900

 122200544.357 7  95221249.98644                  23253969.156
                  23253980.250                          43.600          29.100

 14  3 21  1  9 30.0000000  0 12G09G26G13G07G19G30G27G03G08G28G05G11
 109248965.336 8  85129213.83646                  20789369.891
                  20789378.648                          48.400          38.400

 124025029.215 6  96642947.75543                  23601178.680
                  23601191.285                          38.200          21.700

 117073660.608 7  91226358.63945                  22278358.398
                  22278369.375                          46.400          32.000

 106235616.236 8  82781113.813 8                  20215932.844
  20215939.902    20215940.293                          49.900          51.000

 112996668.862 8  88049461.20746                  21502517.078
                  21502524.113                          48.800          38.600

 108813167.758 8  84789708.052 8  81256813.167 9  20706455.484
  20706465.781    20706466.074    20706465.297          50.200          50.000
        54.900
 125642391.500 6  97903193.947 7  93823921.134 7  23908906.164
  23908919.141    23908919.746    23908919.723          40.500          42.600
        46.400
 116077383.603 7  90450001.84345                  22088754.844
                  22088764.434                          45.300          32.900

 111032204.574 8  86518733.91946                  21128704.836
                  21128713.418                          50.000          39.300

 115262058.307 8  89814693.69945                  21933608.391
                  21933617.406                          48.100          34.900

 132396300.263 6 103165845.818 6                  25194138.617
  25194153.852    25194154.242                          38.300          37.600

 122124444.074 7  95161951.24444                  23239487.930
                  23239499.055                          42.000          28.400

 14  3 21  1 10  0.0000000  0 11G09G26G13G07G19G30G27G03G08G28G11
 109181768.520 8  85076852.75146                  20776582.563
                  20776591.297                          48.800          38.200

 123925469.127 6  96565368.66743                  23582232.977
                  23582246.055                          36.900          21.700

 117176351.035 7  91306377.09245                  22297900.031
                  22297910.164                          46.300          30.500

 106234599.841 8  82780321.839 8                  20215739.133
  20215745.719    20215746.313                          49.300          50.500

 113038539.035 8  88082087.33346                  21510484.898
                  21510491.453                          48.500          38.300

 108772369.046 8  84757916.914 8  81226346.668 9  20698691.773
  20698701.723    20698701.793    20698701.195          51.000          50.700
        54.300
 125735733.964 6  97975928.304 7  93893624.872 7  23926669.406
  23926681.898    23926682.016    23926682.227          39.700          42.500
        46.100
 116162151.418 7  90516054.66745                  22104885.352
                  22104895.398                          46.300          32.600

 110976708.159 8  86475490.01646                  21118143.906
                  21118152.766                          49.000          39.000

 115214519.171 8  89777650.30845                  21924562.156
                  21924570.473                          48.400          33.700

 122048627.241 7  95102873.36744                  23225059.797
                  23225070.930                          42.900          27.300

 14  3 21  1 10 30.0000000  0 11G09G26G13G07G19G30G27G03G08G28G11
 109114858.779 8  85024715.35046                  20763849.945
                  20763858.473                          48.700          38.300

 123826249.625 6  96488054.92743                  23563352.078
                  23563364.547                          38.400          21.700

 117279336.972 7  91386625.81045                  22317497.961
                  22317507.777                          46.900          30.400

 106233947.991 8  82779813.921 8                  20215615.016
  20215622.492    20215622.926                          48.200          50.000

 113081006.613 8  88115178.97046                  21518566.172
                  21518572.918                          49.100          38.400

 108731845.272 8  84726340.006 8  81196085.488 9  20690980.195
  20690990.473    20690990.719    20690989.883          50.900          50.800
        54.600
 125829355.268 6  98048879.957 6  93963536.844 7  23944484.852
  23944497.305    23944497.223    23944497.609          40.400          41.300
        46.000
 116247332.647 7  90582429.62345                  22121094.750
                  22121104.355                          46.200          31.900

 110921410.306 8  86432400.83646                  21107621.086
                  21107629.633                          49.500          39.500

 115167232.188 8  89740803.39945                  21915563.852
                  21915571.852                          48.500          34.700

 121973096.626 7  95044018.53544                  23210687.258
                  23210697.527                          43.400          28.900

 14  3 21  1 11  0.0000000  0 11G09G26G13G07G19G30G27G03G08G28G11
 109048237.949 8  84972803.09546                  20751172.719
                  20751181.230                          48.600          38.800

 123727373.579 6  96411008.83143                  23544536.375
                  23544548.711                          39.400          22.200

 117382615.363 7  91467102.41944                  22337150.641
                  22337160.973                          46.600          29.700

 106233661.319 8  82779590.567 8                  20215560.211
  20215568.016    20215568.023                          49.100          50.200

 113124069.760 8  88148734.69746                  21526760.891
                  21526768.051                          48.500          38.100

 108691597.618 8  84694978.273 8  81166030.497 9  20683321.484
  20683331.305    20683331.648    20683330.875          50.200          50.900
        54.800
 125923252.502 6  98122046.599 6  94033654.865 7  23962352.398
  23962365.035    23962365.480    23962365.281          39.700          41.100
        45.400
 116332924.118 7  90649124.25245                  22137382.164
                  22137391.730                          45.600          32.400

 110866312.613 8  86389467.62046                  21097136.367
                  21097145.863                          49.200          39.400

 115120197.242 8  89704152.89645                  21906613.219
                  21906621.816                          49.400          34.000

 121897855.494 7  94985389.27544                  23196368.586
                  23196378.762                          43.200          27.500

 14  3 21  1 11 30.0000000  0 11G09G26G13G07G19G30G27G03G08G28G11
 108981907.795 8  84921117.32346                  20738550.469
                  20738558.621                          48.000          38.800

 123628843.966 6  96334232.66243                  23525786.242
                  23525799.371                          37.800          21.700

 117486183.576 7  91547804.85845                  22356858.805
                  22356869.871                          46.300          30.300

 106233740.839 8  82779652.548 8                  20215575.570
  20215582.969    20215583.496                          49.300          50.700

 113167726.277 8  88182752.77846                  21535068.313
                  21535074.578                          48.200          37.900

 108651627.198 8  84663832.556 8  81136182.536 9  20675715.055
  20675725.172    20675725.344    20675724.918          49.300          50.700
        54.800
 126017422.778 6  98195425.976 6  94103976.766 7  23980272.570
  23980285.473    23980285.988    23980284.969          39.800          41.000
        44.300
 116418923.106 7  90716136.41345                  22153746.664
                  22153756.523                          45.400          31.300

 110811416.360 8  86346691.37446                  21086690.383
                  21086698.895                          49.600          39.500

 115073413.685 8  89667698.26945                  21897710.719
                  21897718.578                          48.900          34.700

 121822906.700 7  94926987.80144                  23182106.523
                  23182116.789                          42.600          28.700

 14  3 21  1 12  0.0000000  0 11G09G26G13G07G19G30G27G03G08G28G11
 108915870.755 8  84869659.94746                  20725983.922
                  20725992.273                          48.900          38.600

 123530664.159 6  96257729.06943                  23507103.602
                  23507116.500                          39.100          21.800

 117590039.215 7  91628731.27045                  22376622.438
                  22376633.152                          47.500          30.000

 106234187.935 8  82780000.950 8                  20215660.680
  20215667.930    20215668.578                          49.700          50.700

 113211975.033 8  88217232.34546                  21543488.234
                  21543495.031                          48.400          37.800

 108611935.796 8  84632904.260 8  81106542.934 9  20668161.914
  20668172.031    20668171.871    20668171.738          50.300          50.000
        54.800
 126111863.751 6  98269016.312 6  94174500.844 7  23998244.289
  23998256.891    23998256.422    23998255.699          40.600          40.500
        43.000
 116505326.936 7  90783464.02845                  22170188.961
                  22170199.262                          44.100          30.900

 110756723.433 8  86304073.57846                  21076282.367
                  21076291.328                          50.000          39.700

 115026881.176 8  89631439.25645                  21888855.656
                  21888864.168                          48.600          34.900

 121748253.584 7  94868816.72544                  23167900.289
                  23167910.996                          42.500          28.300

 14  3 21  1 12 30.0000000  0 11G09G26G13G07G19G30G27G03G08G28G11
 108850128.649 8  84818432.39946                  20713473.078
                  20713482.266                          49.000          39.400

 123432837.338 6  96181500.55043                  23488487.422
                  23488499.902                          39.400          21.300

 117694179.252 7  91709879.27745                  22396440.320
                  22396450.371                          47.000          30.400

 106235004.007 8  82780636.877 8                  20215815.758
  20215823.270    20215823.883                          49.300          50.400

 113256814.078 7  88252171.88746                  21552021.023
                  21552027.969                          47.100          38.100

 108572524.746 8  84602194.421 8  81077112.687 9  20660661.961
  20660672.195    20660672.285    20660671.859          50.000          50.300
        54.600
 126206572.903 6  98342815.627 6  94245225.190 7  24016267.648
  24016278.602    24016279.223    24016277.734          41.500          39.900
        42.600
 116592132.839 7  90851104.95445                  22186707.773
                  22186717.191                          44.700          30.500

 110702235.392 8  86261615.43246                  21065913.242
                  21065922.566                          48.400          39.900

 114980599.792 7  89595375.92545                  21880048.930
                  21880057.492                          46.700          34.700

 121673899.537 7  94810878.69444                  23153750.406
                  23153761.965                          42.200          25.800

 14  3 21  1 13  0.0000000  0 11G09G26G13G07G19G30G27G03G08G28G11
 108784683.164 7  84767435.98046                  20701019.914
                  20701028.289                          47.400          38.900

 123335365.990 6  96105548.98643                  23469939.375
                  23469952.199                          39.300          22.000

 117798600.684 7  91791246.58044                  22416310.930
                  22416321.000                          46.800          29.300

 106236188.792 8  82781560.110 8                  20216041.258
  20216048.398    20216048.625                          48.800          50.200

 113302241.099 7  88287569.58746                  21560665.695
                  21560672.574                          47.100          37.600

 108533394.976 8  84571703.762 8  81047892.486 9  20653215.813
  20653225.605    20653225.555    20653225.070          48.100          50.100
        54.500
 126301546.969 6  98416821.382 6  94316147.364 7  24034340.563
  24034351.953    24034352.332    24034350.785          41.100          39.700
        42.200
 116679337.425 7  90919056.55045                  22203302.633
                  22203312.406                          45.200          31.600

 110647953.313 8  86219317.78546                  21055583.516
                  21055592.625                          48.200          39.900

 114934568.543 7  89559507.49145                  21871288.914
                  21871298.043                          47.400          35.000

 121599846.682 7  94753175.36544                  23139659.477
                  23139669.531                          42.100          26.400

 14  3 21  1 13 30.0000000  0 11G09G26G13G07G19G30G27G03G08G28G11
 108719536.813 8  84716672.64146                  20688622.547
                  20688631.402                          49.200          39.500

 123238253.708 6  96029877.27443                  23451459.766
                  23451471.871                          40.000          21.100

 117903301.185 7  91872831.32344                  22436234.680
                  22436244.430                          45.900          29.400

 106237744.341 8  82782772.243 8                  20216337.289
  20216344.434    20216344.941                          49.600          50.500

 113348254.547 7  88323424.23246                  21569422.055
                  21569428.703                          47.800          38.700

 108494548.188 8  84541433.598 8  81018883.595 9  20645823.586
  20645833.762    20645833.438    20645832.957          50.000          50.200
        54.500
 126396783.713 6  98491031.846 6  94387265.716 7  24052463.289
  24052475.027    24052475.074    24052474.172          41.400          38.200
        42.600
 116766938.159 7  90987316.85845                  22219972.750
                  22219982.383                          45.400          32.200

 110593879.197 8  86177182.18346                  21045293.570
                  21045302.477                          50.600          39.800

 114888787.518 8  89523834.04145                  21862577.164
                  21862585.945                          48.200          34.900

 121526098.691 7  94695709.55244                  23125625.164
                  23125635.152                          43.200          27.100

