     2.11           OBSERVATION DATA    G (GPS)             RINEX VERSION / TYPE
teqc  2014Jan16     NOAA/NOS/NGS/CORS   20140315 00:18:33UTCPGM / RUN BY / DATE
Solaris x86 5.10|AMD64|cc SC5.8 -xarch=amd64|=+|=+          COMMENT
   0.000      (antenna height)                              COMMENT
 +39.99147598 (latitude)                                    COMMENT
-105.26107939 (longitude)                                   COMMENT
1655.057      (elevation)                                   COMMENT
BIT 2 OF LLI FLAGS DATA COLLECTED UNDER A/S CONDITION       COMMENT
DSRC (COGO code)                                            COMMENT
DSRC                                                        MARKER NAME
DSRC                                                        MARKER NUMBER
Seth I. Gutman      ESRL                                    OBSERVER / AGENCY
5051K72749          TRIMBLE NETR9       4.60                REC # / TYPE / VERS
1441107284          TRM57971.00     NONE                    ANT # / TYPE
 -1288338.0320 -4721989.8640  4078321.1770                  APPROX POSITION XYZ
        0.0000        0.0000        0.0000                  ANTENNA: DELTA H/E/N
     1     1                                                WAVELENGTH FACT L1/2
    11    L1    L2    L5    C1    P1    C2    P2    C5    S1# / TYPES OF OBSERV
          S2    S5                                          # / TYPES OF OBSERV
    30.0000                                                 INTERVAL
    16                                                      LEAP SECONDS
 SNR is mapped to RINEX snr flag value [0-9]                COMMENT
  L1 & L2: min(max(int(snr_dBHz/6), 0), 9)                  COMMENT
teqc windowed: start @ 2014 Mar 14 00:00:00.000             COMMENT
teqc windowed: delta = 86400.000 sec                        COMMENT
teqc edited: all SBAS satellites excluded                   COMMENT
teqc edited: all Galileo satellites excluded                COMMENT
teqc edited: all Compass satellites excluded                COMMENT
teqc edited: all QZSS satellites excluded                   COMMENT
  2014     3    14     0     0    0.0000000     GPS         TIME OF FIRST OBS
                                                            END OF HEADER
 14  3 14  0  0  0.0000000  0 12G09G16G23G13G07G19G30G27G03G10G08G28
 125810715.351 6  98034487.41343                  23940989.391
                  23941003.141                          41.500          22.600

 118232983.111 7  92129749.45945                  22498959.211
                  22498966.605                          46.300          31.900

 111084594.605 8  86559574.16246                  21138674.734
                  21138680.691                          49.800          38.500

 105415868.125 8  82142412.51946                  20059954.102
                  20059960.309                          48.500          41.200

 112081140.786 8  87336103.259 7                  21328310.664
  21328318.203    21328318.477                          48.400          47.600

 116933955.551 7  91117428.54145                  22251768.625
                  22251775.973                          45.800          34.400

 120016440.603 7  93519396.238 7  89622744.908 8  22838353.336
  22838364.305    22838364.098    22838364.434          47.400          43.800
        48.800
 115729922.438 8  90179178.315 7  86421738.495 8  22022632.453
  22022641.203    22022641.203    22022640.773          48.600          47.100
        50.900
 110265138.440 7  85921009.14646                  20982737.383
                  20982745.172                          47.100          37.600

 121276657.147 7  94501429.65944                  23078186.344
                  23078197.711                          44.000          28.100

 124502298.988 7  97014918.43144                  23691994.430
                  23692006.891                          42.500          27.300

 129419964.412 6 100846863.86053                  24627819.773
                  24627835.215                          41.100          20.100

 14  3 14  0  0 30.0000000  0 12G09G16G23G13G07G19G30G27G03G10G08G28
 125717415.867 7  97961786.73944                  23923235.102
                  23923248.160                          42.700          26.500

 118325399.462 7  92201762.17145                  22516545.922
                  22516552.879                          45.800          31.400

 111156804.723 7  86615841.74046                  21152415.703
                  21152421.746                          47.200          38.200

 105422963.275 8  82147941.22246                  20061304.273
                  20061310.484                          48.000          41.700

 112029791.713 7  87296091.053 7                  21318539.313
  21318546.254    21318546.621                          46.000          47.200

 116858565.845 7  91058683.44145                  22237421.758
                  22237429.492                          45.900          34.900

 119946423.319 7  93464837.454 7  89570459.433 8  22825028.273
  22825039.949    22825040.609    22825040.242          46.400          44.500
        48.900
 115726965.347 7  90176874.102 7  86419530.305 8  22022069.570
  22022078.074    22022078.109    22022076.563          44.700          47.300
        50.200
 110233481.160 7  85896341.18046                  20976713.734
                  20976720.949                          45.800          36.700

 121309208.433 7  94526794.27344                  23084381.125
                  23084392.383                          42.700          27.200

 124428109.913 7  96957108.98044                  23677878.469
                  23677890.246                          43.500          29.200

 129326389.652 6 100773948.84843                  24610013.469
                  24610029.648                          40.900          21.800

 14  3 14  0  1  0.0000000  0 12G09G16G23G13G07G19G30G27G03G10G08G28
 125624146.063 6  97889109.22744                  23905486.164
                  23905499.215                          41.800          25.900

 118418010.666 7  92273926.70845                  22534168.852
                  22534176.547                          45.100          31.800

 111229458.775 8  86672455.23546                  21166241.750
                  21166247.602                          49.900          38.500

 105430618.095 8  82153906.01346                  20062760.625
                  20062766.980                          48.200          41.100

 111978607.631 7  87256207.408 7                  21308799.273
  21308806.652    21308806.906                          46.800          47.000

 116783597.491 7  91000266.65745                  22223156.352
                  22223162.441                          46.300          35.200

 119876511.124 7  93410360.558 7  89518252.437 8  22811724.938
  22811736.902    22811737.137    22811736.418          45.800          45.100
        48.900
 115724605.263 7  90175035.099 8  86417767.937 8  22021620.383
  22021629.289    22021630.066    22021627.645          46.000          48.000
        50.300
 110202452.159 7  85872162.78146                  20970808.805
                  20970816.656                          47.000          37.600

 121342267.141 7  94552554.29444                  23090671.586
                  23090683.605                          43.700          28.700

 124353957.095 7  96899327.71844                  23663766.156
                  23663778.508                          43.000          28.600

 129232978.437 6 100701161.21642                  24592237.203
                  24592253.012                          39.800          16.300

 14  3 14  0  1 30.0000000  0 12G09G16G23G13G07G19G30G27G03G10G08G28
 125530906.051 6  97816454.97644                  23887742.398
                  23887756.383                          40.800          25.100

 118510814.182 7  92346241.11645                  22551829.109
                  22551836.578                          43.400          32.100

 111302554.845 7  86729413.17246                  21180151.727
                  21180157.332                          47.000          37.400

 105438832.714 7  82160307.01646                  20064323.547
                  20064330.344                          46.700          40.900

 111927588.669 7  87216452.429 7                  21299089.953
  21299097.445    21299098.281                          45.700          47.300

 116709053.167 7  90942180.27145                  22208971.383
                  22208977.195                          43.700          35.400

 119806703.952 7  93355965.484 7  89466123.848 8  22798440.859
  22798452.887    22798452.891    22798451.820          44.500          44.900
        49.700
 115722842.107 7  90173661.238 7  86416451.337 8  22021285.070
  22021293.133    22021293.922    22021292.199          44.500          47.600
        50.000
 110172052.464 7  85848474.75846                  20965024.180
                  20965032.098                          47.000          37.500

 121375830.908 7  94578707.82744                  23097059.383
                  23097069.215                          43.200          26.000

 124279840.166 7  96841574.48144                  23649662.133
                  23649674.102                          43.000          27.600

 129139731.708 6 100628501.79443                  24574493.492
                  24574510.059                          39.900          22.200

 14  3 14  0  2  0.0000000  0 12G09G16G23G13G07G19G30G27G03G10G08G28
 125437696.997 6  97743824.76143                  23870004.555
                  23870019.008                          39.900          23.000

 118603807.526 7  92418703.43345                  22569525.164
                  22569532.008                          44.400          31.100

 111376091.989 8  86786714.80646                  21194144.797
                  21194150.797                          49.000          38.300

 105447608.471 8  82167145.28046                  20065993.648
                  20066000.570                          48.300          40.900

 111876736.070 8  87176827.078 7                  21289413.352
  21289420.645    21289421.102                          48.300          46.700

 116634936.600 7  90884427.20246                  22194866.586
                  22194873.305                          44.900          36.400

 119737002.655 7  93301652.914 7  89414074.324 8  22785176.734
  22785188.555    22785189.305    22785188.586          46.200          43.000
        49.600
 115721676.859 7  90172753.270 7  86415581.210 8  22021063.336
  22021071.586    22021071.480    22021070.813          44.600          47.600
        50.700
 110142284.056 7  85825278.63346                  20959358.969
                  20959366.992                          47.500          37.300

 121409898.603 7  94605254.06144                  23103541.898
                  23103552.410                          43.200          26.700

 124205759.737 6  96783849.65344                  23635563.781
                  23635576.160                          40.900          25.000

 129046651.191 6 100555971.91143                  24556779.039
                  24556796.488                          39.600          19.000

 14  3 14  0  2 30.0000000  0 12G09G16G23G13G07G19G30G27G03G10G08G28
 125344519.259 6  97671219.09844                  23852275.695
                  23852287.445                          40.200          24.700

 118696988.395 7  92491311.87645                  22587256.672
                  22587263.820                          44.100          30.700

 111450068.446 7  86844358.75146                  21208222.570
                  21208228.941                          47.600          37.800

 105456945.438 7  82174420.84946                  20067770.938
                  20067777.605                          47.500          39.400

 111826050.018 7  87137331.495 7                  21279768.633
  21279775.848    21279776.309                          45.400          46.900

 116561250.417 7  90827009.50445                  22180844.672
                  22180851.574                          44.100          34.900

 119667407.403 7  93247422.962 7  89362104.002 8  22771933.164
  22771944.473    22771944.914    22771944.781          47.100          43.800
        49.900
 115721109.470 7  90172311.176 7  86415157.533 8  22020955.016
  22020963.730    22020963.922    22020963.316          44.500          47.000
        50.500
 110113148.185 7  85802575.38846                  20953814.539
                  20953822.469                          45.900          37.300

 121444467.948 7  94632191.17544                  23110120.070
                  23110131.637                          42.400          29.800

 124131715.819 7  96726153.32744                  23621476.039
                  23621486.379                          42.000          25.600

 128953737.866 6 100483572.18743                  24539098.070
                  24539115.727                          37.400          22.300

 14  3 14  0  3  0.0000000  0 12G09G16G23G13G07G19G30G27G03G10G08G28
 125251373.557 5  97598638.17543                  23834545.789
                  23834562.551                          34.800          22.000

 118790353.940 7  92564064.21045                  22605023.492
                  22605030.680                          43.600          30.800

 111524482.773 7  86902343.88846                  21222383.188
                  21222388.523                          47.500          38.400

 105466843.859 8  82182133.90846                  20069653.992
                  20069660.484                          48.400          40.200

 111775531.523 7  87097966.476 7                  21270155.094
  21270162.824    21270163.379                          45.500          47.300

 116487997.838 7  90769929.67845                  22166905.211
                  22166912.254                          43.800          35.200

 119597918.511 7  93193275.909 7  89310213.101 8  22758710.555
  22758721.262    22758721.613    22758721.598          45.200          44.500
        49.800
 115721140.328 7  90172335.241 7  86415180.592 8  22020960.594
  22020969.469    22020970.230    22020968.684          44.300          47.400
        50.800
 110084646.172 7  85780366.07246                  20948390.719
                  20948398.449                          45.600          37.500

 121479537.146 7  94659517.79144                  23116794.203
                  23116805.879                          44.100          28.900

 124057708.633 6  96668485.56944                  23607390.875
                  23607402.414                          39.700          26.500

 128860992.959 6 100411303.87543                  24521449.984
                  24521467.160                          40.400          21.100

 14  3 14  0  3 30.0000000  0 12G09G16G23G13G07G19G30G27G03G10G08G28
 125158260.729 6  97526083.11543                  23816829.789
                  23816843.977                          38.600          22.600

 118883902.534 7  92636959.18845                  22622824.930
                  22622832.129                          43.400          30.400

 111599333.643 8  86960669.19446                  21236626.672
                  21236632.457                          50.300          38.100

 105477305.390 8  82190285.75446                  20071644.922
                  20071651.563                          48.200          41.100

 111725181.406 8  87058732.656 7                  21260573.867
  21260581.332    21260581.840                          49.000          46.700

 116415182.266 7  90713190.36545                  22153049.195
                  22153055.922                          45.500          35.000

 119528536.773 7  93139212.328 7  89258402.225 8  22745506.891
  22745518.152    22745518.660    22745518.469          46.800          44.600
        49.900
 115721770.088 7  90172825.975 7  86415650.892 8  22021080.789
  22021089.750    22021090.090    22021088.191          44.700          47.600
        50.800
 110056779.643 8  85758651.93546                  20943088.008
                  20943095.629                          48.000          36.900

 121515104.444 7  94687232.55644                  23123561.961
                  23123573.742                          43.700          28.500

 123983738.946 6  96610847.04344                  23593315.672
                  23593325.852                          41.900          26.400

 128768418.183 6 100339167.89543                  24503832.047
                  24503848.273                          38.800          20.100

 14  3 14  0  4  0.0000000  0 12G09G16G23G13G07G19G30G27G03G10G08G28
 125065181.156 6  97453553.86943                  23799116.266
                  23799130.879                          36.000          22.200

 118977631.327 7  92709994.58744                  22640661.484
                  22640668.336                          43.800          29.800

 111674619.050 8  87019333.08146                  21250952.977
                  21250958.484                          49.900          37.300

 105488329.733 8  82198876.15446                  20073742.688
                  20073749.441                          48.200          41.600

 111674999.912 8  87019630.237 7                  21251024.852
  21251032.359    21251032.996                          50.000          47.200

 116342806.256 7  90656793.55245                  22139275.758
                  22139283.316                          46.400          35.300

 119459262.203 7  93085232.295 7  89206671.375 8  22732324.242
  22732336.016    22732335.855    22732335.664          46.400          44.300
        49.500
 115722998.679 7  90173783.332 7  86416568.376 8  22021314.500
  22021323.164    22021323.258    22021322.414          44.700          46.800
        50.600
 110029549.828 8  85737433.95446                  20937906.297
                  20937913.973                          48.400          38.600

 121551167.606 7  94715333.68744                  23130425.453
                  23130436.156                          45.000          29.400

 123909806.269 7  96553237.37144                  23579248.703
                  23579257.320                          46.000          27.000

 128676014.555 7 100267165.50043                  24486250.109
                  24486265.758                          42.800          21.500

 14  3 14  0  4 30.0000000  0 12G09G16G23G13G07G19G30G27G03G10G08G28
 124972135.273 6  97381050.90643                  23781410.039
                  23781424.234                          37.000          21.700

 119071537.763 7  92783168.40644                  22658531.406
                  22658538.453                          45.100          29.900

 111750337.332 8  87078334.28746                  21265361.641
                  21265367.344                          50.600          38.300

 105499917.179 7  82207905.34046                  20075947.828
                  20075954.266                          47.900          41.000

 111624987.619 8  86980659.666 7                  21241507.648
  21241514.652    21241515.324                          49.800          47.900

 116270872.834 7  90600741.62745                  22125587.289
                  22125594.063                          45.500          35.800

 119390094.989 7  93031335.889 7  89155020.686 8  22719161.398
  22719173.824    22719173.879    22719173.453          44.800          44.600
        49.500
 115724826.120 7  90175207.337 7  86417933.043 8  22021662.063
  22021670.945    22021670.898    22021670.348          46.700          47.000
        50.900
 110002957.803 8  85716712.92646                  20932846.313
                  20932853.617                          49.200          37.900

 121587724.549 7  94743819.57144                  23137381.570
                  23137392.508                          44.700          28.900

 123835910.634 7  96495656.50344                  23565185.383
                  23565195.801                          44.500          26.200

 128583782.881 6 100195296.99842                  24468695.234
                  24468712.535                          36.800          15.600

 14  3 14  0  5  0.0000000  0 12G09G16G23G13G07G19G30G27G03G10G08G28
 124879124.029 5  97308574.87743                  23763709.133
                  23763725.008                          35.200          22.200

 119165619.554 7  92856478.85444                  22676434.008
                  22676442.137                          43.700          29.800

 111826486.947 8  87137671.60946                  21279852.820
                  21279858.184                          50.900          37.300

 105512068.291 8  82217373.74746                  20078259.758
                  20078266.465                          48.000          41.400

 111575145.314 8  86941821.542 7                  21232023.023
  21232029.652    21232030.215                          49.100          47.500

 116199385.016 7  90545036.93145                  22111984.008
                  22111989.863                          44.500          35.500

 119321035.622 7  92977523.553 7  89103450.536 8  22706021.328
  22706031.633    22706031.758    22706031.273          46.900          44.500
        49.100
 115727252.651 7  90177098.168 7  86419745.086 8  22022123.914
  22022132.246    22022132.504    22022131.660          46.200          47.000
        50.900
 109977004.888 8  85696489.90346                  20927907.148
                  20927914.879                          49.400          37.500

 121624773.289 7  94772688.67044                  23144431.586
                  23144442.238                          44.300          28.700

 123762052.444 6  96438104.80844                  23551128.664
                  23551141.242                          40.600          26.800

 128491724.897 6 100123563.68243                  24451179.430
                  24451194.074                          40.000          22.500

 14  3 14  0  5 30.0000000  0 12G09G16G23G13G07G19G30G27G03G10G08G28
 124786147.925 6  97236126.28043                  23746017.984
                  23746031.668                          39.500          21.500

 119259874.235 7  92929924.01545                  22694370.727
                  22694378.309                          45.000          31.300

 111903065.905 8  87197343.48246                  21294425.570
                  21294430.129                          50.000          37.300

 105524783.541 8  82227281.73446                  20080679.484
                  20080685.605                          48.100          41.300

 111525473.649 8  86903116.402 7                  21222570.484
  21222577.453    21222577.879                          49.600          47.000

 116128345.830 7  90489681.81545                  22098465.445
                  22098471.355                          46.200          34.700

 119252084.447 7  92923795.495 7  89051961.175 8  22692899.695
  22692910.578    22692910.488    22692910.242          46.000          44.100
        49.500
 115730278.500 7  90179455.991 7  86422004.665 8  22022699.953
  22022708.520    22022708.930    22022707.617          46.500          47.600
        50.700
 109951692.480 8  85676765.98546                  20923090.969
                  20923098.484                          48.700          38.100

 121662311.882 7  94801939.51844                  23151574.297
                  23151585.309                          42.700          27.900

 123688231.964 7  96380582.55944                  23537082.469
                  23537092.352                          44.300          26.400

 128399841.390 6 100051966.54043                  24433694.320
                  24433708.785                          40.900          19.300

 14  3 14  0  6  0.0000000  0 12G09G16G23G13G07G19G30G27G03G10G08G28
 124693208.190 7  97163706.01843                  23728333.000
                  23728344.684                          43.800          23.200

 119354299.886 7  93003502.40445                  22712339.172
                  22712346.980                          45.500          31.400

 111980073.831 8  87257349.61046                  21309079.211
                  21309085.066                          50.100          37.800

 105538063.972 7  82237630.12046                  20083206.813
                  20083213.250                          47.600          41.300

 111475973.660 8  86864545.023 7                  21213150.961
  21213157.832    21213158.316                          49.100          47.300

 116057758.764 7  90434679.00045                  22085032.914
                  22085039.047                          45.400          34.700

 119183242.405 7  92870152.481 7  89000553.317 8  22679798.898
  22679810.375    22679810.285    22679810.211          44.700          44.100
        49.900
 115733904.278 7  90182281.284 7  86424712.253 8  22023390.000
  22023398.438    22023398.988    22023397.617          46.800          47.800
        51.300
 109927021.942 8  85657542.22546                  20918396.242
                  20918403.543                          48.000          37.600

 121700338.773 7  94831570.82544                  23158811.586
                  23158822.129                          43.200          28.400

 123614449.559 7  96323089.93244                  23523040.977
                  23523051.734                          42.900          26.900

 128308134.033 6  99980506.51143                  24416241.727
                  24416256.848                          39.200          21.300

 14  3 14  0  6 30.0000000  0 12G09G16G23G13G07G19G30G27G03G10G08G28
 124600304.548 7  97091313.85243                  23710653.828
                  23710665.699                          44.300          20.900

 119448893.489 7  93077211.66645                  22730340.398
                  22730347.617                          45.400          30.800

 112057508.143 8  87317687.99146                  21323814.586
                  21323821.180                          49.300          37.900

 105551908.504 7  82248418.08346                  20085841.484
                  20085848.227                          47.800          41.300

 111426645.217 8  86826107.323 7                  21203763.930
  21203770.699    21203771.145                          49.100          46.700

 115987626.004 7  90380030.18245                  22071687.250
                  22071693.742                          47.200          35.800

 119114508.973 7  92816594.095 7  88949226.558 8  22666718.648
  22666731.055    22666731.117    22666731.102          45.900          44.700
        49.700
 115738129.224 7  90185573.476 7  86427867.257 8  22024193.656
  22024202.570    22024203.340    22024202.086          46.400          47.500
        51.000
 109902994.124 8  85638819.28146                  20913823.266
                  20913831.281                          48.000          38.100

 121738850.784 7  94861580.15944                  23166140.352
                  23166148.914                          44.500          26.500

 123540704.690 7  96265626.57044                  23509007.156
                  23509018.230                          43.100          27.600

 128216603.133 6  99909184.04942                  24398824.406
                  24398839.227                          39.200          17.400

 14  3 14  0  7  0.0000000  0 12G09G16G23G13G07G19G30G27G03G10G08G28
 124507438.491 7  97018950.88643                  23692980.289
                  23692993.832                          43.300          22.200

 119543652.907 7  93151050.13645                  22748372.305
                  22748379.477                          45.200          30.600

 112135367.512 8  87378357.55946                  21338630.805
                  21338637.133                          48.900          37.400

 105566318.761 7  82259646.86246                  20088583.320
                  20088589.996                          47.900          40.900

 111377489.691 8  86787804.376 7                  21194409.836
  21194417.078    21194417.578                          49.700          47.000

 115917950.869 7  90325737.95345                  22058428.383
                  22058435.410                          47.400          35.400

 119045885.205 7  92763121.157 7  88897981.702 8  22653660.609
  22653672.000    22653672.121    22653672.281          45.200          45.600
        49.700
 115742954.173 7  90189333.193 8  86431470.316 8  22025111.492
  22025120.930    22025121.250    22025120.406          46.600          48.000
        51.200
 109879610.644 7  85620598.41846                  20909373.469
                  20909381.824                          47.600          37.500

 121777846.798 7  94891966.59644                  23173561.188
                  23173570.500                          44.300          27.000

 123466998.335 7  96208193.24444                  23494981.984
                  23494993.297                          43.600          28.700

 128125250.803 6  99838000.83742                  24381439.430
                  24381455.848                          39.200          17.400

 14  3 14  0  7 30.0000000  0 12G09G16G23G13G07G19G30G27G03G10G08G28
 124414610.278 7  96946617.45244                  23675316.305
                  23675328.813                          44.000          24.000

 119638575.836 7  93225016.03444                  22766435.180
                  22766442.449                          45.900          29.800

 112213650.122 8  87439356.94746                  21353528.000
                  21353533.820                          49.100          37.000

 105581294.939 8  82271316.60846                  20091432.953
                  20091439.418                          48.300          41.500

 111328507.618 8  86749636.582 7                  21185089.156
  21185095.629    21185096.344                          48.700          47.000

 115848736.158 7  90271804.51045                  22045257.172
                  22045263.227                          47.100          35.500

 118977371.476 7  92709733.965 7  88846819.003 8  22640622.703
  22640634.426    22640634.551    22640634.535          45.700          45.800
        49.800
 115748379.034 7  90193560.380 7  86435521.381 8  22026144.016
  22026152.777    22026153.082    22026151.887          47.000          47.300
        50.900
 109856872.685 7  85602880.56446                  20905046.523
                  20905053.992                          46.600          37.100

 121817324.515 7  94922728.39144                  23181073.773
                  23181082.766                          44.700          28.000

 123393330.474 7  96150789.88344                  23480963.047
                  23480974.785                          43.200          28.000

 128034077.990 6  99766957.28343                  24364090.281
                  24364102.598                          39.500          20.100

 14  3 14  0  8  0.0000000  0 12G09G16G23G13G07G19G30G27G03G10G08G28
 124321820.612 7  96874314.04243                  23657658.039
                  23657671.406                          43.300          23.000

 119733659.761 7  93299107.37244                  22784529.281
                  22784536.047                          45.500          29.700

 112292353.743 8  87500684.39946                  21368504.422
                  21368510.148                          49.500          38.000

 105596836.684 8  82283427.06246                  20094391.125
                  20094397.551                          49.200          41.400

 111279699.599 8  86711604.409 7                  21175800.805
  21175807.492    21175808.273                          49.200          47.000

 115779985.184 7  90218232.42645                  22032173.922
                  22032180.000                          45.400          35.200

 118908967.739 7  92656432.486 7  88795738.438 8  22627606.203
  22627617.430    22627617.500    22627617.367          45.200          45.200
        49.400
 115754403.460 7  90198254.750 7  86440020.168 8  22027290.516
  22027299.266    22027299.402    22027298.383          45.300          47.100
        51.700
 109834780.568 7  85585665.95946                  20900842.938
                  20900850.320                          47.600          37.900

 121857281.634 7  94953863.75344                  23188676.711
                  23188687.320                          43.800          28.100

 123319701.018 7  96093416.44944                  23466952.383
                  23466963.563                          44.600          29.800

 127943085.687 6  99696054.54943                  24346774.602
                  24346788.547                          39.000          19.900

 14  3 14  0  8 30.0000000  0 12G09G16G23G13G07G19G30G27G03G10G08G28
 124229070.366 7  96802041.41344                  23640009.211
                  23640022.285                          42.700          24.700

 119828902.593 7  93373322.54544                  22802653.141
                  22802660.207                          45.200          29.300

 112371477.243 8  87562339.02946                  21383561.430
                  21383566.367                          48.400          36.500

 105612945.083 7  82295979.06446                  20097456.195
                  20097463.223                          47.900          41.800

 111231066.409 7  86673708.482 7                  21166546.156
  21166552.961    21166553.453                          47.600          47.500

 115711700.768 7  90165023.88545                  22019179.602
                  22019185.578                          45.200          34.900

 118840674.759 7  92603217.310 7  88744740.575 8  22614610.008
  22614621.773    22614621.691    22614621.211          45.400          45.900
        49.300
 115761027.812 7  90203416.612 7  86444966.954 8  22028551.297
  22028559.766    22028559.617    22028559.773          47.300          47.200
        51.300
 109813336.027 7  85568955.94946                  20896761.617
                  20896770.340                          46.000          38.100

 121897715.989 7  94985370.97944                  23196371.180
                  23196382.711                          42.400          27.900

 123246110.572 7  96036073.39244                  23452947.891
                  23452959.281                          44.500          29.600

 127852275.413 6  99625293.64643                  24329493.727
                  24329508.453                          38.900          18.600

 14  3 14  0  9  0.0000000  0 12G09G16G23G13G07G19G30G27G03G10G08G28
 124136360.059 7  96729799.83844                  23622366.117
                  23622379.559                          43.000          24.800

 119924301.912 7  93447659.64244                  22820807.273
                  22820814.066                          44.800          29.400

 112451018.711 7  87624319.33446                  21398697.398
                  21398703.305                          47.000          37.100

 105629619.743 8  82308972.32146                  20100628.797
                  20100635.953                          48.300          41.300

 111182608.749 8  86635949.326 7                  21157325.328
  21157332.340    21157332.996                          49.100          47.200

 115643885.510 7  90112180.91645                  22006275.742
                  22006281.641                          47.000          35.700

 118772492.802 7  92550088.644 7  88693825.620 8  22601635.766
  22601646.863    22601646.750    22601646.211          46.000          46.000
        49.600
 115768251.862 7  90209045.787 7  86450361.566 8  22029925.711
  22029934.742    22029934.418    22029934.633          47.400          47.500
        51.400
 109792540.058 8  85552751.33546                  20892804.969
                  20892812.594                          48.900          38.200

 121938625.289 7  95017248.31144                  23204156.555
                  23204167.238                          43.900          28.500

 123172559.323 7  95978760.89844                  23438952.148
                  23438962.637                          46.000          29.300

 127761647.741 6  99554674.98643                  24312248.195
                  24312261.852                          40.400          21.300

 14  3 14  0  9 30.0000000  0 12G09G16G23G13G07G19G30G27G03G10G08G28
 124043690.234 6  96657589.87843                  23604731.594
                  23604744.191                          40.600          22.900

 120019855.245 7  93522116.75144                  22838990.000
                  22838996.922                          43.700          29.100

 112530976.573 7  87686624.13846                  21413912.820
                  21413919.008                          47.900          38.000

 105646861.284 8  82322407.28446                  20103909.891
                  20103916.684                          48.600          41.300

 111134327.172 8  86598327.378 8                  21148137.414
  21148144.047    21148144.867                          49.100          48.000

 115576542.492 7  90059705.93046                  21993460.398
                  21993466.566                          46.700          36.000

 118704422.362 7  92497046.867 7  88642993.932 8  22588681.617
  22588693.602    22588693.348    22588692.746          45.700          44.900
        49.500
 115776075.706 7  90215142.291 8  86456204.070 8  22031414.648
  22031423.500    22031423.867    22031422.965          46.600          48.300
        51.900
 109772393.615 7  85537052.83746                  20888970.891
                  20888978.422                          47.800          38.300

 121980007.753 7  95049494.34944                  23212030.656
                  23212042.105                          43.400          27.800

 123099047.477 7  95921479.10245                  23424963.203
                  23424973.484                          45.200          30.300

 127671204.221 6  99484199.85343                  24295036.938
                  24295051.090                          40.600          20.600

 14  3 14  0 10  0.0000000  0 12G09G16G23G13G07G19G30G27G03G10G08G28
 123951061.911 6  96585412.24143                  23587104.898
                  23587117.277                          41.700          23.200

 120115560.615 7  93596692.32944                  22857202.508
                  22857209.297                          44.600          28.800

 112611349.048 8  87749252.01546                  21429207.336
                  21429213.723                          48.500          38.300

 105664670.194 8  82336284.36446                  20107299.328
                  20107305.750                          48.600          41.500

 111086222.728 8  86560843.455 7                  21138983.195
  21138990.957    21138991.563                          48.400          47.900

 115509674.809 7  90007601.33345                  21980735.391
                  21980741.945                          46.300          35.800

 118636464.048 7  92444092.446 7  88592245.984 8  22575749.688
  22575761.191    22575760.883    22575760.633          45.300          45.200
        50.400
 115784499.464 7  90221706.269 8  86462494.565 8  22033017.742
  22033026.656    22033027.051    22033026.090          46.500          48.100
        51.800
 109752897.920 8  85521861.42146                  20885261.023
                  20885268.090                          48.000          37.600

 122021861.254 7  95082107.41244                  23219995.125
                  23220006.332                          44.500          29.100

 123025575.393 7  95864228.29144                  23410981.992
                  23410991.984                          44.000          27.500

 127580946.140 6  99413869.20343                  24277861.906
                  24277873.984                          39.900          19.300

 14  3 14  0 10 30.0000000  0 12G09G16G23G13G07G19G30G27G03G10G08G28
 123858475.771 6  96513267.48943                  23569485.375
                  23569498.621                          39.400          22.900

 120211415.601 7  93671384.49744                  22875443.586
                  22875449.848                          45.600          29.400

 112692134.074 8  87812201.33746                  21444580.250
                  21444586.852                          49.100          38.100

 105683046.486 7  82350603.55546                  20110795.867
                  20110802.809                          47.300          40.900

 111038296.126 8  86523498.115 7                  21129863.125
  21129869.824    21129870.633                          48.500          47.500

 115443285.133 7  89955869.21046                  21968101.781
                  21968108.023                          46.100          36.400

 118568618.181 7  92391225.645 7  88541582.004 8  22562838.625
  22562850.855    22562850.539    22562850.406          44.600          45.500
        50.800
 115793522.939 7  90228737.578 8  86469232.896 8  22034734.539
  22034743.828    22034743.633    22034743.027          47.200          48.200
        52.200
 109734053.845 7  85507177.75746                  20881674.734
                  20881682.832                          47.600          37.600

 122064183.441 7  95115085.67744                  23228049.305
                  23228059.836                          44.300          29.000

 122952143.204 7  95807008.56944                  23397008.227
                  23397018.828                          43.800          28.700

 127490874.368 7  99343683.74543                  24260721.047
                  24260733.547                          42.100          21.500

 14  3 14  0 11  0.0000000  0 12G09G16G23G13G07G19G30G27G03G10G08G28
 123765932.946 6  96441156.41244                  23551874.484
                  23551887.102                          40.900          24.200

 120307418.210 7  93746191.70244                  22893712.031
                  22893718.352                          46.500          29.700

 112773330.712 8  87875471.39846                  21460031.430
                  21460037.703                          48.200          37.200

 105701990.625 7  82365365.22746                  20114400.453
                  20114407.535                          46.600          41.300

 110990548.227 8  86486292.021 8                  21120776.984
  21120783.785    21120784.629                          48.900          48.100

 115377376.246 7  89904511.71945                  21955559.906
                  21955565.250                          46.000          35.700

 118500885.458 7  92338447.010 7  88491002.511 8  22549949.484
  22549960.879    22549961.063    22549960.754          44.700          45.300
        50.800
 115803146.207 7  90236236.247 7  86476419.128 8  22036565.781
  22036574.668    22036575.137    22036573.648          46.500          47.600
        51.400
 109715862.397 7  85493002.61946                  20878213.227
                  20878221.023                          47.500          36.900

 122106972.464 7  95148427.69544                  23236191.055
                  23236203.098                          42.400          28.200

 122878751.256 7  95749820.20744                  23383041.703
                  23383052.281                          44.000          28.800

 127400990.266 6  99273644.52443                  24243615.633
                  24243628.730                          41.700          20.400

 14  3 14  0 11 30.0000000  0 12G09G16G23G13G07G19G30G27G03G10G08G28
 123673433.618 6  96369079.27244                  23534272.664
                  23534285.855                          39.500          26.400

 120403565.530 7  93821111.66444                  22912008.313
                  22912014.750                          47.000          29.200

 112854936.589 8  87939060.35446                  21475560.180
                  21475566.652                          48.100          37.400

 105721502.351 7  82380569.17446                  20118114.023
                  20118120.508                          47.800          41.100

 110942979.061 8  86449225.194 7                  21111724.844
  21111732.117    21111732.566                          50.000          47.500

 115311950.854 7  89853530.97545                  21943109.406
                  21943116.203                          46.800          35.700

 118433265.864 7  92285756.522 7  88440507.491 8  22537081.711
  22537093.582    22537093.777    22537093.703          45.800          45.900
        50.700
 115813368.726 7  90244201.871 8  86484052.863 8  22038511.359
  22038519.887    22038520.402    22038518.855          47.500          48.000
        51.900
 109698324.417 8  85479336.67946                  20874876.250
                  20874883.223                          49.200          37.800

 122150225.722 7  95182131.47744                  23244422.320
                  23244434.340                          43.600          28.100

 122805399.711 7  95692663.31444                  23369082.828
                  23369094.008                          42.700          28.900

 127311294.373 7  99203752.01743                  24226547.781
                  24226559.570                          42.600          21.100

 14  3 14  0 12  0.0000000  0 12G09G16G23G13G07G19G30G27G03G10G08G28
 123580978.554 6  96297036.62244                  23516679.492
                  23516691.129                          40.600          24.300

 120499855.830 7  93896143.03644                  22930331.867
                  22930337.871                          46.600          29.700

 112936949.879 8  88002966.75746                  21491166.867
                  21491173.172                          48.200          37.700

 105741582.138 7  82396215.76146                  20121934.891
                  20121941.363                          47.300          41.800

 110895589.849 8  86412298.591 7                  21102707.102
  21102713.441    21102713.973                          49.300          47.900

 115247011.986 7  89802929.35045                  21930751.969
                  21930758.879                          45.200          35.900

 118365759.954 7  92233154.642 7  88390097.372 8  22524235.688
  22524247.586    22524248.063    22524247.637          44.100          45.300
        50.700
 115824190.439 7  90252634.397 8  86492134.042 8  22040570.828
  22040578.730    22040579.801    22040578.430          46.300          48.200
        51.700
 109681440.793 7  85466180.65246                  20871662.898
                  20871670.242                          47.900          37.800

 122193940.981 7  95216195.29144                  23252740.781
                  23252752.441                          42.200          28.300

 122732088.603 7  95635537.94344                  23355132.945
                  23355143.672                          43.900          29.600

 127221788.600 7  99134007.60343                  24209515.320
                  24209527.734                          42.300          23.500

 14  3 14  0 12 30.0000000  0 12G09G16G23G13G07G19G30G27G03G10G08G28
 123488568.125 6  96225028.72544                  23499094.492
                  23499105.660                          41.700          26.200

 120596286.127 7  93971283.50444                  22948682.227
                  22948688.277                          46.100          29.000

 113019368.420 7  88067188.93146                  21506851.148
                  21506856.957                          47.800          36.700

 105762229.284 8  82412304.45446                  20125864.086
                  20125871.063                          48.500          41.900

 110848381.036 7  86375512.539 7                  21093723.914
  21093730.270    21093730.555                          47.900          47.000

 115182562.215 7  89752708.83345                  21918487.672
                  21918493.852                          46.300          35.800

 118298367.892 7  92180641.463 7  88339772.270 8  22511411.461
  22511423.285    22511423.566    22511423.203          45.700          45.500
        50.500
 115835610.850 7  90261533.446 7  86500662.289 8  22042744.117
  22042752.262    22042752.480    22042752.398          46.000          47.900
        51.600
 109665211.940 7  85453534.82246                  20868575.039
                  20868582.020                          47.400          37.700

 122238115.548 7  95250616.95544                  23261147.445
                  23261160.063                          43.800          28.000

 122658818.255 7  95578444.34445                  23341189.781
                  23341200.070                          43.700          30.800

 127132473.427 6  99064411.75543                  24192518.922
                  24192531.367                          41.700          21.500

 14  3 14  0 13  0.0000000  0 12G09G16G23G13G07G19G30G27G03G10G08G28
 123396203.830 6  96153056.83844                  23481517.969
                  23481529.199                          40.300          24.700

 120692854.894 7  94046531.86544                  22967058.047
                  22967065.168                          46.000          28.300

 113102191.288 8  88131726.17546                  21522611.625
                  21522618.160                          48.800          38.500

 105783445.358 8  82428836.46146                  20129900.852
                  20129908.012                          48.200          41.300

 110801354.176 8  86338868.276 7                  21084774.813
  21084781.508    21084781.719                          48.600          47.000

 115118604.967 7  89702872.09245                  21906317.227
                  21906323.125                          45.400          35.200

 118231090.960 7  92128217.995 7  88289533.135 8  22498609.258
  22498620.895    22498621.012    22498620.703          45.800          45.100
        50.200
 115847630.548 7  90270899.471 7  86509638.069 8  22045031.297
  22045039.680    22045039.844    22045039.531          47.300          47.800
        51.700
 109649639.364 8  85441400.37446                  20865611.531
                  20865618.965                          48.000          37.300

 122282748.028 6  95285395.43144                  23269640.703
                  23269650.828                          41.700          26.500

 122585589.666 7  95521383.27344                  23327254.297
                  23327265.059                          43.200          28.800

 127043350.713 6  98994965.89543                  24175558.102
                  24175571.039                          39.700          20.100

 14  3 14  0 13 30.0000000  0 12G09G16G23G13G07G19G30G27G03G10G08G28
 123303886.231 6  96081121.28943                  23463949.047
                  23463961.906                          39.400          23.500

 120789559.549 7  94121886.10044                  22985460.484
                  22985467.633                          45.800          29.900

 113185416.036 8  88196576.57546                  21538449.211
                  21538455.426                          49.000          37.300

 105805229.454 8  82445811.07946                  20134047.016
                  20134053.164                          48.500          41.500

 110754509.390 7  86302365.880 7                  21075859.977
  21075866.930    21075867.324                          46.800          47.000

 115055142.442 7  89653420.84746                  21894240.320
                  21894246.273                          45.400          36.200

 118163929.146 7  92075884.211 7  88239379.960 8  22485828.750
  22485840.063    22485840.234    22485840.160          45.000          45.600
        50.400
 115860248.840 7  90280731.921 8  86519060.845 8  22047432.398
  22047441.133    22047441.641    22047440.211          46.900          48.200
        51.200
 109634723.465 7  85429777.61846                  20862773.469
                  20862780.309                          46.800          38.100

 122327835.759 7  95320528.67844                  23278219.797
                  23278231.957                          42.300          26.500

 122512402.608 6  95464354.54644                  23313326.766
                  23313338.375                          41.900          28.800

 126954420.904 6  98925670.38243                  24158635.313
                  24158648.738                          39.400          20.600

 14  3 14  0 14  0.0000000  0 12G09G16G23G13G07G19G30G27G03G10G08G28
 123211615.831 6  96009222.51344                  23446390.469
                  23446402.734                          40.200          25.500

 120886397.780 7  94197344.42145                  23003888.500
                  23003895.582                          45.300          30.200

 113269040.716 8  88261738.60046                  21554362.375
                  21554368.742                          49.400          37.500

 105827581.528 8  82463228.29246                  20138300.211
                  20138306.633                          48.100          41.300

 110707847.402 7  86266005.935 7                  21066980.703
  21066987.148    21066987.551                          46.400          46.900

 114992177.587 7  89604357.40845                  21882258.609
                  21882265.070                          46.300          35.800

 118096882.645 7  92023640.295 7  88189312.898 8  22473070.055
  22473081.316    22473081.641    22473081.215          46.000          44.900
        50.500
 115873465.162 8  90291030.372 8  86528930.213 8  22049947.375
  22049956.180    22049956.496    22049954.949          48.000          48.100
        50.800
 109620465.138 7  85418667.27246                  20860059.703
                  20860067.566                          46.400          38.500

 122373376.439 6  95356014.83844                  23286886.773
                  23286897.090                          41.400          24.900

 122439256.993 7  95407358.10944                  23299407.688
                  23299418.887                          43.000          29.800

 126865685.044 6  98856525.96743                  24141748.703
                  24141761.074                          38.600          18.600

 14  3 14  0 14 30.0000000  0 12G09G16G23G13G07G19G30G27G03G10G08G28
 123119393.819 6  95937361.46644                  23428841.094
                  23428853.266                          40.100          25.600

 120983367.745 7  94272905.37744                  23022340.945
                  23022348.012                          44.300          29.800

 113353064.022 8  88327211.24746                  21570351.602
                  21570357.965                          49.100          37.100

 105850502.384 8  82481088.69746                  20142661.719
                  20142668.789                          48.200          41.900

 110661369.279 8  86229789.267 7                  21058135.906
  21058142.926    21058143.277                          48.400          47.200

 114929713.107 7  89555683.87046                  21870372.398
                  21870378.426                          46.300          36.600

 118029952.493 7  91971487.039 7  88139332.733 8  22460333.625
  22460344.863    22460345.188    22460344.473          44.900          46.100
        50.300
 115887279.817 7  90301795.038 7  86539246.360 8  22052575.836
  22052584.906    22052584.273    22052584.309          47.000          47.700
        51.600
 109606865.352 7  85408070.07146                  20857471.727
                  20857479.965                          47.800          38.400

 122419367.891 7  95391852.31344                  23295638.438
                  23295649.180                          42.500          26.400

 122366153.326 7  95350394.36644                  23285495.875
                  23285506.766                          43.600          29.400

 126777144.531 6  98787533.69343                  24124899.727
                  24124913.137                          38.900          21.700

 14  3 14  0 15  0.0000000  0 12G09G16G23G13G07G19G30G27G03G10G08G28
 123027220.559 6  95865538.36944                  23411301.781
                  23411313.648                          41.100          27.000

 121080467.028 7  94348567.12644                  23040818.516
                  23040825.387                          45.100          28.300

 113437483.598 8  88392992.68646                  21586416.109
                  21586421.938                          48.000          37.200

 105873991.178 8  82499391.64846                  20147131.695
                  20147138.031                          49.000          41.200

 110615075.873 8  86193716.532 7                  21049326.695
  21049333.188    21049333.539                          48.900          47.300

 114867751.681 7  89507402.31446                  21858580.883
                  21858586.891                          46.600          36.500

 117963138.668 7  91919424.431 7  88089439.418 8  22447619.203
  22447631.043    22447631.387    22447630.258          45.400          46.100
        50.000
 115901691.985 7  90313025.311 7  86550008.700 8  22055318.453
  22055327.254    22055327.242    22055326.988          47.500          47.900
        51.300
 109593924.773 8  85397986.53246                  20855009.188
                  20855016.484                          49.200          38.200

 122465807.520 7  95428038.98944                  23304475.313
                  23304487.258                          42.900          27.100

 122293091.836 7  95293463.48744                  23271593.063
                  23271602.742                          45.000          28.700

 126688800.072 6  98718694.22943                  24108088.766
                  24108099.289                          39.800          19.300

 14  3 14  0 15 30.0000000  0 12G09G16G23G13G07G19G30G27G03G10G08G28
 122935096.837 6  95793753.87444                  23393770.273
                  23393783.098                          40.900          27.000

 121177693.007 7  94424327.58344                  23059319.250
                  23059326.641                          43.800          27.800

 113522297.480 7  88459081.39045                  21602555.164
                  21602561.160                          47.700          35.400

 105898048.429 7  82518137.56046                  20151709.242
                  20151716.191                          47.300          41.400

 110568967.301 8  86157787.812 7                  21040552.555
  21040558.695    21040559.090                          49.100          47.100

 114806295.729 7  89459514.63746                  21846886.609
                  21846892.250                          46.200          37.000

 117896441.826 7  91867452.968 7  88039633.463 8  22434927.156
  22434939.309    22434939.688    22434938.324          45.800          46.300
        49.500
 115916701.390 7  90324720.964 8  86561217.039 8  22058174.781
  22058183.645    22058184.176    22058182.746          46.900          48.100
        51.000
 109581643.854 8  85388417.02646                  20852672.250
                  20852679.844                          48.700          37.700

 122512692.989 7  95464573.07344                  23313398.422
                  23313408.855                          43.900          28.300

 122220072.824 7  95236565.71144                  23257698.242
                  23257708.121                          44.500          29.800

 126600652.802 6  98650008.43543                  24091315.063
                  24091326.355                          41.200          19.900

 14  3 14  0 16  0.0000000  0 12G09G16G23G13G07G19G30G27G03G10G08G28
 122843023.737 6  95722008.79744                  23376249.609
                  23376262.699                          40.800          28.100

 121275043.843 7  94500185.32844                  23077845.094
                  23077851.848                          45.000          26.500

 113607503.866 7  88525475.92846                  21618769.672
                  21618775.766                          47.600          36.000

 105922673.708 7  82537326.09146                  20156395.453
                  20156401.863                          47.300          41.300

 110523044.683 8  86122004.008 7                  21031813.992
  21031820.484    21031820.871                          49.000          47.400

 114745347.955 7  89412022.95246                  21835288.383
                  21835294.254                          47.500          37.200

 117829862.331 7  91815572.951 7  87989915.130 8  22422257.469
  22422268.781    22422268.996    22422267.340          45.300          46.800
        48.500
 115932307.655 7  90336881.695 8  86572871.081 8  22061144.250
  22061153.098    22061153.590    22061151.691          46.700          48.300
        50.700
 109570023.119 8  85379361.94046                  20850460.813
                  20850468.129                          49.700          38.300

 122560022.036 7  95501452.79344                  23322404.578
                  23322415.934                          43.300          27.300

 122147096.607 7  95179701.28344                  23243812.016
                  23243821.063                          45.600          29.200

 126512703.752 6  98581477.08643                  24074577.563
                  24074590.262                          40.000          21.300

 14  3 14  0 16 30.0000000  0 12G09G16G23G13G07G19G30G27G03G10G08G28
 122751001.974 6  95650303.76544                  23358738.859
                  23358751.047                          40.300          26.900

 121372517.042 7  94576138.43044                  23096393.391
                  23096400.238                          44.700          26.700

 113693100.975 7  88592174.91445                  21635057.758
                  21635063.977                          47.800          35.200

 105947867.265 8  82556957.42446                  20161189.930
                  20161196.641                          48.700          41.800

 110477308.993 8  86086365.853 7                  21023110.430
  21023117.227    21023117.484                          48.100          47.200

 114684911.308 7  89364929.53346                  21823786.844
                  21823794.035                          47.500          36.900

 117763400.715 7  91763784.787 7  87940284.811 8  22409610.617
  22409621.281    22409621.637    22409620.039          45.600          46.700
        49.000
 115948510.397 7  90349507.237 8  86584970.548 8  22064227.984
  22064236.590    22064236.777    22064235.348          46.800          48.000
        50.900
 109559063.258 8  85370821.80546                  20848374.781
                  20848382.934                          48.900          37.200

 122607792.109 7  95538676.18644                  23331495.461
                  23331505.910                          44.500          28.100

 122074163.696 7  95122870.55445                  23229931.672
                  23229942.590                          43.300          30.500

 126424953.910 6  98513100.98043                  24057878.539
                  24057892.063                          39.400          21.100

 14  3 14  0 17  0.0000000  0 12G09G16G23G13G07G19G30G27G03G10G08G28
 122659032.236 6  95578639.20844                  23341236.297
                  23341249.023                          39.500          26.000

 121470110.471 7  94652185.23544                  23114965.438
                  23114971.543                          45.500          26.200

 113779086.768 8  88659176.77645                  21651421.141
                  21651426.500                          48.600          35.400

 105973628.994 8  82577031.50746                  20166091.984
                  20166098.328                          48.300          41.100

 110431760.620 8  86050873.657 8                  21014442.555
  21014449.465    21014450.039                          49.300          48.100

 114624988.540 7  89318236.54546                  21812384.703
                  21812390.859                          46.900          37.500

 117697057.536 7  91712088.912 7  87890742.927 8  22396985.555
  22396996.609    22396996.598    22396995.645          44.300          45.700
        49.200
 115965309.208 7  90362597.230 7  86597515.126 8  22067424.711
  22067433.395    22067433.488    22067432.414          47.100          47.800
        51.000
 109548765.069 8  85362797.28446                  20846415.234
                  20846423.059                          48.700          37.800

 122656000.896 7  95576241.43644                  23340668.617
                  23340679.941                          44.100          28.200

 122001274.132 7  95066073.64744                  23216062.383
                  23216072.770                          44.600          29.600

 126337404.411 6  98444880.96243                  24041218.977
                  24041232.781                          39.800          21.700

 14  3 14  0 17 30.0000000  0 12G09G16G23G13G07G19G30G27G03G10G08G28
 122567115.328 6  95507015.88144                  23323745.453
                  23323757.668                          40.800          25.300

 121567822.361 7  94728324.35444                  23133559.320
                  23133565.570                          45.800          27.400

 113865459.281 8  88726479.97145                  21667857.313
                  21667862.547                          48.200          35.300

 105999958.690 8  82597548.16446                  20171102.391
                  20171108.809                          48.000          40.800

 110386400.694 8  86015528.321 7                  21005810.836
  21005817.805    21005818.137                          48.600          47.500

 114565582.041 7  89271945.84346                  21801080.375
                  21801086.164                          47.900          37.900

 117630833.271 7  91660485.691 7  87841289.855 8  22384382.852
  22384394.145    22384394.301    22384394.113          45.100          45.800
        49.600
 115982703.700 7  90376151.378 8  86610504.524 8  22070734.477
  22070743.340    22070743.723    22070741.711          46.300          48.500
        50.500
 109539129.103 8  85355288.76846                  20844581.805
                  20844589.711                          49.500          37.600

 122704646.016 7  95614146.63344                  23349926.242
                  23349936.945                          43.700          27.800

 121928428.314 7  95009310.81145                  23202199.633
                  23202210.758                          43.000          30.000

 126250056.293 7  98376817.77543                  24024597.273
                  24024609.270                          42.200          23.000

 14  3 14  0 18  0.0000000  0 12G09G16G23G13G07G19G30G27G03G10G08G28
 122475252.074 6  95435434.31644                  23306264.492
                  23306275.785                          40.600          24.700

 121665650.259 7  94804553.85244                  23152175.305
                  23152181.453                          46.000          27.900

 113952216.573 8  88794083.00546                  21684366.438
                  21684372.301                          48.200          36.000

 106026856.213 8  82618507.27846                  20176220.578
                  20176227.109                          48.100          40.900

 110341230.099 8  85980330.512 7                  20997215.359
  20997221.887    20997222.176                          49.100          47.600

 114506694.489 7  89226059.51146                  21789874.148
                  21789879.758                          47.200          36.900

 117564728.433 7  91608975.535 7  87791925.978 8  22371804.008
  22371815.113    22371815.523    22371815.273          45.100          45.700
        50.300
 116000693.355 7  90390169.300 8  86623938.374 8  22074157.953
  22074166.438    22074166.977    22074165.434          46.900          48.000
        50.900
 109530155.737 8  85348296.56846                  20842874.336
                  20842882.102                          49.100          38.400

 122753725.092 6  95652390.04744                  23359264.477
                  23359275.922                          40.800          26.500

 121855626.745 7  94952582.44945                  23188346.594
                  23188356.336                          43.900          30.200

 126162910.600 6  98308912.30043                  24008013.133
                  24008025.711                          40.200          22.900

 14  3 14  0 18 30.0000000  0 12G09G16G23G13G07G19G30G27G03G10G08G28
 122383443.595 7  95363895.46544                  23288794.289
                  23288804.848                          43.100          24.000

 121763592.426 7  94880872.39644                  23170813.305
                  23170819.285                          45.900          27.700

 114039356.908 8  88861984.51046                  21700948.984
                  21700954.887                          48.900          36.300

 106054321.993 8  82639909.18646                  20181447.773
                  20181454.324                          48.400          41.100

 110296249.771 8  85945280.960 8                  20988656.227
  20988662.734    20988663.090                          49.600          48.100

 114448328.522 7  89180579.61446                  21778767.180
                  21778772.859                          47.100          37.300

 117498743.887 7  91557559.098 7  87742651.921 8  22359247.828
  22359258.598    22359258.484    22359258.238          45.000          46.400
        50.300
 116019277.957 7  90404650.820 7  86637816.504 8  22077694.563
  22077703.191    22077702.938    22077702.504          47.000          47.100
        51.300
 109521845.563 7  85341821.14746                  20841292.391
                  20841300.535                          47.600          37.800

 122803236.060 7  95690969.97344                  23368686.313
                  23368696.797                          42.200          24.800

 121782869.922 7  94895888.95545                  23174500.695
                  23174511.180                          44.100          30.700

 126075968.580 7  98241165.54544                  23991469.031
                  23991481.195                          42.300          24.400

 14  3 14  0 19  0.0000000  0 12G09G16G23G13G07G19G30G27G03G10G08G28
 122291690.215 7  95292399.52044                  23271334.203
                  23271344.473                          43.600          25.100

 121861646.115 7  94957277.85444                  23189472.563
                  23189478.715                          46.600          27.600

 114126878.052 7  88930182.76146                  21717603.539
                  21717609.770                          47.700          36.100

 106082355.060 8  82661753.13746                  20186781.773
                  20186788.465                          49.000          41.000

 110251460.141 8  85910379.995 7                  20980132.711
  20980139.102    20980139.648                          50.000          47.800

 114390486.392 7  89135507.89246                  21767760.344
                  21767766.043                          47.400          36.800

 117432879.504 7  91506236.296 7  87693467.588 8  22346713.992
  22346725.027    22346725.250    22346724.590          46.400          47.000
        51.000
 116038456.440 7  90419595.106 7  86652138.117 8  22081343.914
  22081352.434    22081352.840    22081351.938          46.300          47.600
        51.000
 109514198.773 7  85335862.62446                  20839837.273
                  20839845.625                          47.500          38.300

 122853175.717 6  95729883.92944                  23378189.773
                  23378200.723                          41.400          25.900

 121710157.802 7  94839230.29544                  23160664.219
                  23160673.945                          45.500          29.400

 125989230.522 7  98173577.73943                  23974964.297
                  23974974.344                          43.800          22.300

 14  3 14  0 19 30.0000000  0 12G09G16G23G13G07G19G30G27G03G10G08G28
 122199992.788 6  95220947.20444                  23253883.813
                  23253894.492                          40.700          24.600

 121959809.414 7  95033768.70444                  23208152.828
                  23208158.539                          43.900          27.200

 114214778.034 7  88998676.19545                  21734330.414
                  21734337.059                          46.900          35.100

 106110955.412 7  82684039.12446                  20192224.672
                  20192230.855                          46.100          41.000

 110206862.123 7  85875628.340 7                  20971645.906
  20971652.676    20971652.695                          46.300          47.800

 114333170.912 7  89090846.55246                  21756853.070
                  21756859.082                          46.300          37.100

 117367135.959 7  91455007.658 7  87644373.485 8  22334203.438
  22334213.680    22334214.066    22334213.406          46.500          46.400
        50.500
 116058228.341 7  90435001.792 8  86666902.856 8  22085106.102
  22085114.703    22085115.020    22085113.652          47.800          48.000
        51.300
 109507215.994 7  85330421.52246                  20838508.930
                  20838516.449                          46.200          38.100

 122903541.716 6  95769130.13044                  23387774.094
                  23387784.684                          40.800          25.000

 121637490.855 7  94782606.82745                  23146835.766
                  23146845.027                          42.600          30.900

 125902697.664 6  98106149.82443                  23958496.547
                  23958510.305                          41.500          22.200

 14  3 14  0 20  0.0000000  0 12G09G16G23G13G07G19G30G27G03G10G08G28
 122108352.516 7  95149539.40744                  23236445.766
                  23236456.133                          42.300          26.200

 122058079.991 7  95110343.15144                  23226852.391
                  23226858.973                          45.900          27.500

 114303054.840 8  89067463.26746                  21751128.883
                  21751135.199                          48.000          36.200

 106140123.037 8  82706767.13846                  20197774.969
                  20197781.141                          48.000          41.900

 110162456.442 8  85841026.555 7                  20963195.656
  20963202.543    20963202.609                          48.900          47.500

 114276384.552 7  89046597.51046                  21746046.953
                  21746052.582                          47.900          36.700

 117301513.885 7  91403873.661 7  87595370.092 8  22321715.695
  22321726.621    22321726.793    22321726.250          46.400          46.200
        50.500
 116078593.177 7  90450870.515 7  86682110.383 8  22088981.164
  22088990.648    22088990.605    22088989.527          45.800          47.900
        51.200
 109500897.903 7  85325498.37846                  20837306.367
                  20837313.738                          47.200          38.600

 122954331.737 7  95808706.73544                  23397438.688
                  23397450.355                          42.200          27.900

 121564869.223 7  94726018.67944                  23133016.344
                  23133025.719                          44.600          29.000

 125816371.208 6  98038882.72443                  23942067.773
                  23942081.832                          41.400          22.500

 14  3 14  0 20 30.0000000  0 12G09G16G23G13G07G19G30G27G03G10G08G28
 122016770.114 6  95078176.72344                  23219017.594
                  23219028.824                          41.100          26.000

 122156456.104 7  95186999.83244                  23245573.070
                  23245579.613                          46.100          26.800

 114391706.571 8  89136542.47046                  21767998.898
                  21768005.848                          48.100          36.200

 106169857.713 8  82729937.01446                  20203433.320
                  20203439.379                          48.300          41.300

 110118244.212 8  85806575.523 7                  20954782.211
  20954788.813    20954789.266                          49.100          47.400

 114220129.907 7  89002762.78446                  21735342.141
                  21735348.156                          47.800          37.600

 117236013.943 7  91352834.845 7  87546457.904 8  22309251.688
  22309262.379    22309262.520    22309261.859          47.500          45.900
        50.500
 116099550.527 7  90467200.913 7  86697760.354 8  22092969.789
  22092978.246    22092978.137    22092976.941          45.900          47.500
        51.100
 109495244.630 8  85321093.24746                  20836230.648
                  20836238.355                          48.600          38.600

 123005543.205 7  95848611.69444                  23407184.781
                  23407194.703                          43.100          27.300

 121492293.718 7  94669466.45845                  23119205.219
                  23119214.945                          44.600          30.200

 125730252.282 6  97971777.32943                  23925680.047
                  23925693.094                          39.200          22.600

 14  3 14  0 21  0.0000000  0 12G09G16G23G13G07G19G30G27G03G10G08G28
 121925246.409 6  95006859.77944                  23201600.523
                  23201612.594                          40.000          26.700

 122254935.416 7  95263736.94344                  23264311.953
                  23264319.516                          45.400          28.000

 114480731.429 7  89205912.43046                  21784939.977
                  21784945.848                          47.900          36.500

 106200158.970 7  82753548.40546                  20209199.219
                  20209205.910                          47.200          41.200

 110074226.153 8  85772275.781 7                  20946405.969
  20946412.383    20946412.750                          50.000          47.900

 114164409.513 8  88959344.38846                  21724738.898
                  21724745.148                          48.200          37.800

 117170636.463 7  91301891.445 7  87497637.177 8  22296810.742
  22296821.203    22296821.340    22296820.680          47.200          46.400
        51.200
 116121099.505 7  90483992.329 7  86713852.138 8  22097070.375
  22097079.086    22097079.105    22097077.270          46.400          47.000
        51.000
 109490256.280 8  85317206.24646                  20835281.328
                  20835289.422                          48.500          38.600

 123057173.771 7  95888843.24644                  23417009.977
                  23417021.008                          43.900          27.700

 121419764.446 7  94612950.27344                  23105403.313
                  23105413.074                          44.400          29.900

 125644341.527 6  97904834.15243                  23909332.180
                  23909343.914                          40.000          22.900

 14  3 14  0 21 30.0000000  0 12G09G16G23G13G07G19G30G27G03G10G08G28
 121833782.882 6  94935589.73944                  23184196.195
                  23184207.102                          39.800          26.100

 122353516.255 7  95340553.15844                  23283072.523
                  23283079.238                          44.700          27.300

 114570127.263 8  89275571.45546                  21801951.523
                  21801957.434                          48.600          36.600

 106231027.322 8  82777601.66846                  20215073.711
                  20215079.773                          48.300          41.300

 110030403.884 8  85738128.594 7                  20938066.703
  20938073.953    20938073.977                          49.100          47.300

 114109226.160 7  88916344.44446                  21714237.586
                  21714244.113                          47.800          37.600

 117105382.506 7  91251044.296 7  87448908.686 8  22284392.727
  22284403.855    22284403.715    22284403.406          47.000          46.100
        51.500
 116143240.012 7  90501244.705 7  86730385.658 8  22101283.500
  22101291.824    22101292.152    22101290.430          46.000          46.900
        50.400
 109485934.021 7  85313838.27746                  20834458.602
                  20834466.531                          47.600          38.700

 123109221.196 7  95929399.62044                  23426914.422
                  23426926.086                          44.500          27.800

 121347282.353 7  94556470.84745                  23091610.188
                  23091620.582                          45.100          30.400

 125558640.025 6  97838054.04444                  23893022.734
                  23893035.316                          40.400          24.300

 14  3 14  0 22  0.0000000  0 13G09G16G23G13G07G19G30G27G03G10G08G28
                                G05
 121742379.918 6  94864366.86744                  23166801.711
                  23166812.730                          40.500          25.600

 122452196.030 7  95417446.45644                  23301849.555
                  23301857.527                          43.600          27.400

 114659891.928 8  89345517.86845                  21819033.305
                  21819039.566                          49.100          35.800

 106262462.148 8  82802096.32346                  20221055.086
                  20221061.555                          48.100          41.100

 109986777.584 8  85704134.124 7                  20929764.766
  20929771.703    20929772.180                          49.600          47.900

 114054582.021 8  88873764.66346                  21703839.234
                  21703844.703                          48.200          37.500

 117040252.339 7  91200293.613 7  87400272.628 8  22271999.180
  22272009.973    22272009.723    22272009.590          46.400          46.400
        51.100
 116165971.142 7  90518957.270 7  86747360.208 8  22105609.125
  22105617.484    22105617.809    22105616.965          47.200          47.300
        51.200
 109482277.812 7  85310989.30446                  20833762.852
                  20833770.543                          46.500          37.500

 123161682.675 7  95970278.65044                  23436897.063
                  23436907.961                          43.000          28.200

 121274847.290 7  94500028.06045                  23077827.055
                  23077835.996                          46.000          30.800

 125473149.190 6  97771438.10043                  23876754.414
                  23876765.813                          40.600          22.000

 132114352.93516 102946342.31015                  25140539.125
  25140548.078                                          37.300          31.000

 14  3 14  0 22 30.0000000  0 13G09G16G23G13G07G19G30G27G03G10G08G28
                                G05
 121651037.819 6  94793191.41044                  23149420.359
                  23149431.488                          41.700          25.300

 122550972.367 7  95494414.98744                  23320646.594
                  23320654.203                          42.900          27.300

 114750022.969 8  89415749.78545                  21836184.336
                  21836190.613                          48.200          35.400

 106294462.231 7  82827031.45946                  20227144.164
                  20227150.730                          47.100          40.900

 109943347.041 8  85670292.180 7                  20921500.438
  20921507.039    20921507.301                          50.400          47.800

 114000479.171 7  88831606.67146                  21693543.742
                  21693549.281                          47.100          37.900

 116975245.889 7  91149639.333 7  87351728.964 8  22259628.430
  22259639.375    22259639.074    22259639.063          46.300          45.700
        50.900
 116189291.461 7  90537128.958 7  86764774.740 8  22110046.477
  22110055.262    22110055.492    22110054.531          47.400          47.100
        51.300
 109479287.020 7  85308658.84346                  20833193.727
                  20833201.477                          46.700          37.700

 123214555.030 7  96011477.84044                  23446957.898
                  23446970.066                          42.000          28.100

 121202459.095 7  94443621.77744                  23064051.547
                  23064061.395                          46.000          29.900

 125387868.951 6  97704986.19543                  23860526.055
                  23860536.941                          41.600          21.800

 132078398.524 6 102918326.117 5                  25133696.875
  25133708.316    25133709.852                          36.800          32.600

 14  3 14  0 23  0.0000000  0 13G09G16G23G13G07G19G30G27G03G10G08G28
                                G05
 121559758.459 7  94722064.85144                  23132050.445
                  23132060.730                          42.700          26.500

 122649843.940 7  95571457.74244                  23339461.094
                  23339469.129                          42.100          28.000

 114840518.967 7  89486266.07245                  21853405.313
                  21853411.609                          46.900          34.900

 106327028.525 7  82852407.79146                  20233341.438
                  20233348.500                          47.500          41.500

 109900114.768 8  85636604.732 7                  20913274.008
  20913280.219    20913280.688                          50.300          47.500

 113946920.560 8  88789872.76946                  21683351.922
                  21683357.777                          48.100          37.900

 116910364.548 7  91099082.547 7  87303278.728 8  22247282.281
  22247292.801    22247292.637    22247292.738          46.800          45.700
        51.500
 116213201.174 7  90555759.915 7  86782629.403 8  22114596.250
  22114604.660    22114604.621    22114603.430          47.200          46.100
        50.700
 109476962.933 7  85306847.89146                  20832751.555
                  20832759.098                          46.600          38.000

 123267836.999 7  96052996.19244                  23457096.969
                  23457109.707                          42.600          28.200

 121130119.090 7  94387253.06045                  23050285.797
                  23050295.367                          46.400          31.200

 125302801.175 6  97638699.93043                  23844338.188
                  23844349.715                          41.700          22.300

 132042940.481 5 102890696.571 6                  25126948.445
  25126962.758    25126962.137                          35.200          36.300

 14  3 14  0 23 30.0000000  0 13G09G16G23G13G07G19G30G27G03G10G08G28
                                G05
 121468542.112 7  94650987.34544                  23114692.141
                  23114704.074                          43.700          27.000

 122748808.374 7  95648572.85144                  23358293.094
                  23358301.176                          43.500          28.300

 114931377.641 7  89557064.97345                  21870695.117
                  21870701.379                          47.000          34.600

 106360159.954 8  82878224.49846                  20239646.406
                  20239653.398                          48.400          41.600

 109857080.794 8  85603071.790 8                  20905084.148
  20905090.973    20905091.523                          50.800          48.300

 113893908.123 8  88748564.45446                  21673263.609
                  21673269.762                          48.000          37.100

 116845608.528 7  91048623.413 7  87254922.079 8  22234959.289
  22234969.996    22234969.715    22234970.285          47.000          45.400
        51.500
 116237699.105 7  90574849.224 7  86800923.315 8  22119258.531
  22119266.348    22119266.480    22119265.172          47.400          46.800
        50.700
 109475305.070 7  85305556.06746                  20832435.664
                  20832442.934                          47.700          37.700

 123321525.402 7  96094831.22944                  23467314.148
                  23467325.922                          43.100          28.600

 121057827.385 7  94330921.98245                  23036529.000
                  23036537.992                          47.500          30.600

 125217946.184 7  97572579.44543                  23828190.898
                  23828202.898                          42.400          21.100

 132007979.85815 102863454.51416                  25120295.531
  25120311.621    25120309.582                          33.400          38.600

 14  3 14  0 24  0.0000000  0 13G09G16G23G13G07G19G30G27G03G10G08G28
                                G05
 121377389.671 7  94579959.68344                  23097346.680
                  23097357.980                          43.300          27.700

 122847863.378 6  95725758.53544                  23377143.344
                  23377150.805                          41.800          25.900

 115022596.634 7  89628144.65445                  21888053.727
                  21888059.441                          46.000          34.600

 106393856.081 8  82904481.21446                  20246058.797
                  20246065.273                          48.000          41.600

 109814246.179 8  85569694.208 7                  20896933.531
  20896940.094    20896940.320                          50.400          47.800

 113841444.388 7  88707683.69046                  21663279.945
                  21663285.789                          47.400          36.900

 116780978.237 7  90998262.256 7  87206659.330 8  22222660.555
  22222670.336    22222670.547    22222671.059          47.500          44.800
        51.500
 116262784.353 7  90594396.195 7  86819655.829 8  22124031.422
  22124040.543    22124040.801    22124039.551          46.800          47.500
        51.400
 109474314.114 7  85304783.91646                  20832247.508
                  20832254.980                          47.400          38.100

 123375617.547 7  96136980.87444                  23477607.586
                  23477619.863                          42.800          26.500

 120985584.266 7  94274628.74045                  23022781.188
                  23022790.684                          46.600          30.000

 125133305.056 6  97506625.56543                  23812082.398
                  23812095.406                          41.600          21.100

 131973517.45915 102836600.60816                  25113738.156
  25113754.016    25113751.070                          34.900          37.200

 14  3 14  0 24 30.0000000  0 13G09G16G23G13G07G19G30G27G03G10G08G28
                                G05
 121286301.927 6  94508982.39344                  23080013.289
                  23080024.223                          41.700          27.500

 122947006.998 7  95803013.27344                  23396009.281
                  23396017.148                          42.400          27.100

 115114173.801 7  89699503.42545                  21905480.039
                  21905486.164                          47.100          33.900

 106428115.920 8  82931177.19346                  20252577.781
                  20252584.313                          48.100          41.300

 109771611.400 8  85536472.318 7                  20888820.164
  20888826.949    20888827.117                          50.100          47.600

 113789531.276 7  88667231.98946                  21653400.789
                  21653407.480                          47.100          36.900

 116716474.051 7  90947999.350 7  87158490.745 8  22210385.750
  22210395.727    22210395.766    22210396.340          47.100          45.400
        51.800
 116288455.905 7  90614399.995 7  86838826.148 8  22128916.688
  22128925.359    22128926.059    22128924.453          45.700          47.400
        50.900
 109473989.576 8  85304531.04446                  20832185.938
                  20832193.309                          49.100          38.300

 123430110.353 7  96179442.75944                  23487977.430
                  23487988.770                          42.400          26.900

 120913389.807 7  94218373.42645                  23009042.961
                  23009052.465                          46.300          31.100

 125048878.368 7  97440838.79243                  23796017.664
                  23796028.895                          42.300          22.800

 131939553.636 6 102810135.290 6                  25107275.242
  25107291.031    25107288.406                          36.200          36.800

 14  3 14  0 25  0.0000000  0 13G09G16G23G13G07G19G30G27G03G10G08G28
                                G05
 121195280.626 6  94438056.91144                  23062691.820
                  23062702.898                          41.800          26.900

 123046237.718 7  95880335.89744                  23414892.680
                  23414900.301                          42.900          26.200

 115206107.781 7  89771140.22545                  21922975.211
                  21922980.930                          47.500          34.400

 106462940.778 8  82958313.44446                  20259204.953
                  20259211.191                          48.600          40.800

 109729178.340 8  85503407.632 8                  20880744.828
  20880752.039    20880752.379                          50.100          48.200

 113738172.085 7  88627211.89946                  21643627.867
                  21643634.410                          47.200          37.700

 116652097.314 7  90897835.762 7  87110417.345 8  22198135.453
  22198145.301    22198145.145    22198145.305          46.800          45.800
        51.400
 116314713.763 7  90634860.671 7  86858434.299 8  22133913.406
  22133922.465    22133922.988    22133921.324          46.200          47.500
        50.700
 109474332.718 8  85304798.44346                  20832251.125
                  20832258.590                          48.200          37.800

 123485002.063 7  96222215.41544                  23498423.359
                  23498433.688                          43.600          26.300

 120841245.072 7  94162156.85945                  22995314.648
                  22995323.570                          47.100          30.700

 124964667.846 7  97375220.45443                  23779992.039
                  23780003.625                          42.300          22.500

 131906090.113 5 102784059.935 5                  25100906.727
  25100920.316    25100921.184                          35.900          33.300

 14  3 14  0 25 30.0000000  0 13G09G16G23G13G07G19G30G27G03G10G08G28
                                G05
 121104325.706 6  94367183.15044                  23045384.313
                  23045394.789                          40.900          28.200

 123145552.746 7  95957724.20444                  23433791.844
                  23433799.059                          42.200          26.600

 115298395.652 7  89843052.79045                  21940536.320
                  21940543.133                          47.300          34.000

 106498328.491 8  82985888.28146                  20265938.695
                  20265945.348                          48.500          41.400

 109686946.917 8  85470500.065 8                  20872708.891
  20872715.688    20872716.039                          49.800          48.600

 113687368.328 8  88587624.62746                  21633960.367
                  21633966.457                          48.400          37.500

 116587847.818 7  90847771.325 7  87062438.953 8  22185908.383
  22185918.910    22185919.191    22185918.707          47.100          46.200
        50.900
 116341556.227 7  90655776.898 7  86878479.015 8  22139022.109
  22139030.258    22139030.273    22139029.430          46.700          47.200
        51.300
 109475342.072 8  85305584.96346                  20832443.063
                  20832450.766                          48.200          38.300

 123540289.254 7  96265296.28744                  23508943.563
                  23508956.473                          42.000          28.500

 120769149.977 7  94105978.96445                  22981594.633
                  22981604.457                          47.000          30.600

 124880673.460 7  97309770.58444                  23764008.938
                  23764020.746                          42.800          25.200

 131873127.201 5 102758374.667 5                  25094634.070
  25094646.688    25094648.973                          34.000          34.700

 14  3 14  0 26  0.0000000  0 13G09G16G23G13G07G19G30G27G03G10G08G28
                                G05
 121013438.553 6  94296362.17044                  23028087.688
                  23028099.324                          41.100          25.500

 123244950.406 6  96035176.88744                  23452706.164
                  23452713.695                          41.400          27.000

 115391035.547 7  89915239.64345                  21958165.547
                  21958172.223                          47.500          34.300

 106534278.683 8  83013901.41646                  20272779.797
                  20272786.500                          49.200          40.500

 109644918.178 8  85437750.430 8                  20864711.063
  20864717.602    20864718.035                          49.500          48.300

 113637122.391 7  88548472.02246                  21624398.461
                  21624404.266                          47.300          37.400

 116523726.391 7  90797806.692 7  87014556.205 8  22173706.680
  22173717.535    22173717.496    22173717.133          46.600          46.500
        51.100
 116368982.675 7  90677148.177 7  86898959.816 8  22144240.875
  22144249.391    22144249.305    22144248.344          47.200          47.900
        50.900
 109477018.331 8  85306891.15446                  20832762.727
                  20832769.566                          48.900          38.600

 123595969.599 7  96308683.50944                  23519539.805
                  23519552.168                          43.100          27.000

 120697105.085 7  94049840.18845                  22967884.906
                  22967894.574                          47.000          31.100

 124796896.337 7  97244489.92843                  23748066.680
                  23748078.090                          42.800          23.800

 131840665.669 5 102733079.984 6                  25088456.570
  25088470.430    25088470.723                          33.900          36.600

 14  3 14  0 26 30.0000000  0 13G09G16G23G13G07G19G30G27G03G10G08G28
                                G05
 120922620.350 6  94225594.92844                  23010805.742
                  23010816.758                          41.900          26.400

 123344428.824 7  96112692.51444                  23471636.523
                  23471644.426                          42.200          27.000

 115484025.571 7  89987699.35945                  21975861.008
                  21975866.992                          47.600          34.400

 106570791.938 8  83042353.29646                  20279727.914
                  20279734.680                          49.100          41.300

 109603093.533 8  85405159.802 7                  20856752.484
  20856758.691    20856759.160                          49.900          47.700

 113587437.002 7  88509756.20046                  21614943.758
                  21614949.359                          47.900          36.800

 116459734.061 7  90747942.640 7  86966769.850 8  22161529.570
  22161539.938    22161539.992    22161539.332          46.500          46.500
        50.400
 116396992.617 7  90698974.109 7  86919876.342 8  22149570.688
  22149579.461    22149579.902    22149579.004          46.000          47.100
        51.100
 109479361.969 8  85308717.37846                  20833208.531
                  20833215.730                          49.000          37.900

 123652040.950 7  96352375.40644                  23530209.711
                  23530221.762                          42.000          26.800

 120625111.013 7  93993741.00845                  22954185.063
                  22954194.508                          45.800          30.200

 124713337.700 7  97179379.57443                  23732166.070
                  23732176.367                          42.900          22.800

 131808706.73715 102708176.91416                  25082375.094
  25082389.969    25082388.906                          35.700          37.700

 14  3 14  0 27  0.0000000  0 13G09G16G23G13G07G19G30G27G03G10G08G28
                                G05
 120831871.791 6  94154881.92044                  22993536.250
                  22993547.621                          41.400          26.100

 123443985.738 6  96190269.28944                  23490581.797
                  23490589.129                          41.700          26.800

 115577363.223 7  90060429.95945                  21993622.859
                  21993629.246                          47.900          34.600

 106607867.104 8  83071243.03646                  20286783.469
                  20286789.977                          48.300          41.700

 109561473.409 8  85372728.568 8                  20848832.219
  20848838.414    20848838.867                          49.600          48.000

 113538314.169 8  88471478.72946                  21605596.344
                  21605602.273                          48.100          37.600

 116395870.993 7  90698179.324 7  86919080.023 8  22149376.734
  22149386.922    22149387.016    22149386.355          47.500          46.100
        50.800
 116425584.749 7  90721253.675 7  86941227.604 8  22155010.992
  22155020.348    22155020.492    22155019.707          45.700          47.400
        51.200
 109482372.549 7  85311063.28346                  20833780.727
                  20833788.668                          47.100          38.200

 123708500.000 7  96396369.43744                  23540954.016
                  23540964.051                          42.400          25.400

 120553167.977 7  93937681.61945                  22940494.344
                  22940504.121                          45.500          30.000

 124629998.225 6  97114440.00843                  23716306.883
                  23716318.004                          41.700          22.800

 131777250.880 6 102683665.896 6                  25076389.867
  25076403.453    25076403.703                          37.500          36.000

 14  3 14  0 27 30.0000000  0 13G09G16G23G13G07G19G30G27G03G10G08G28
                                G05
 120741193.874 7  94084223.98044                  22976280.719
                  22976291.320                          42.000          26.200

 123543619.425 6  96267905.88244                  23509541.836
                  23509548.957                          40.900          24.600

 115671046.499 8  90133429.85245                  22011450.617
                  22011457.156                          49.100          35.700

 106645504.302 8  83100570.71946                  20293945.617
                  20293952.449                          48.500          40.900

 109520058.959 8  85340457.626 8                  20840951.031
  20840957.691    20840958.172                          49.500          48.300

 113489756.399 8  88433641.56446                  21596356.273
                  21596362.832                          48.400          38.600

 116332137.893 7  90648517.279 7  86871487.245 8  22137248.867
  22137258.625    22137258.805    22137258.207          47.000          46.400
        50.000
 116454758.209 7  90743986.251 7  86963012.984 8  22160563.234
  22160571.477    22160571.496    22160571.359          46.000          46.600
        51.100
 109486050.149 7  85313928.96446                  20834480.727
                  20834488.609                          47.800          38.100

 123765344.525 7  96440663.81544                  23551771.273
                  23551782.176                          42.100          26.600

 120481276.525 7  93881662.42345                  22926813.992
                  22926824.172                          46.300          30.900

 124546878.795 6  97049671.89044                  23700488.922
                  23700501.320                          39.800          24.000

 131746298.904 6 102659547.532 5                  25070499.805
  25070509.934    25070512.457                          38.300          31.300

 14  3 14  0 28  0.0000000  0 13G09G16G23G13G07G19G30G27G03G10G08G28
                                G05
 120650587.480 6  94013621.74344                  22959039.367
                  22959049.594                          41.100          24.700

 123643327.967 6  96345600.83144                  23528514.875
                  23528522.762                          41.800          25.200

 115765073.343 8  90206697.46645                  22029342.828
                  22029349.633                          48.300          35.500

 106683702.213 7  83130335.31946                  20301214.789
                  20301220.961                          47.600          41.000

 109478851.163 8  85308347.689 8                  20833109.820
  20833115.727    20833116.402                          49.500          48.700

 113441765.302 8  88396245.96446                  21587223.477
                  21587229.055                          48.200          38.300

 116268535.495 7  90598957.078 7  86823992.076 8  22125145.719
  22125155.734    22125155.859    22125155.203          47.000          46.700
        50.900
 116484512.140 7  90767171.135 7  86985231.828 8  22166225.078
  22166233.563    22166233.426    22166232.996          46.000          46.000
        50.800
 109490394.805 7  85317314.42546                  20835307.500
                  20835315.188                          47.300          37.800

 123822571.768 7  96485256.37244                  23562661.141
                  23562671.844                          43.200          25.400

 120409437.315 7  93825683.92345                  22913143.461
                  22913153.504                          45.100          31.900

 124463980.150 6  96985075.77543                  23684713.289
                  23684725.109                          40.000          22.900

 131715851.395 6 102635822.376 5                  25064706.773
  25064713.457    25064717.754                          38.100          30.000

 14  3 14  0 28 30.0000000  0 13G09G16G23G13G07G19G30G27G03G10G08G28
                                G05
 120560053.642 7  93943076.05044                  22941811.125
                  22941821.500                          42.800          26.200

 123743109.298 7  96423352.48344                  23547503.430
                  23547509.934                          42.600          24.500

 115859441.384 7  90280230.94845                  22047300.656
                  22047307.512                          47.700          34.900

 106722460.453 8  83160536.54046                  20308589.781
                  20308596.332                          49.000          40.800

 109437850.688 8  85276399.293 7                  20825307.625
  20825313.785    20825314.289                          48.700          47.900

 113394343.213 7  88359293.75346                  21578199.258
                  21578204.047                          47.400          37.600

 116205064.234 7  90549499.062 7  86776594.828 8  22113067.367
  22113076.887    22113077.141    22113076.598          46.100          47.200
        51.100
 116514845.410 7  90790807.450 7  87007883.302 8  22171997.820
  22172005.469    22172005.512    22172004.375          46.300          46.700
        50.600
 109495406.376 7  85321219.56046                  20836261.070
                  20836268.457                          47.200          37.500

 123880178.604 6  96530144.77144                  23573622.961
                  23573634.160                          41.800          25.300

 120337650.454 7  93769746.24045                  22899482.422
                  22899492.887                          45.700          32.400

 124381302.769 6  96920652.16843                  23668980.133
                  23668991.844                          39.000          22.800

 131685909.167 6 102612490.774 5                  25059007.602
  25059020.512    25059020.203                          37.800          35.500

 14  3 14  0 29  0.0000000  0 13G09G16G23G13G07G19G30G27G03G10G08G28
                                G05
 120469593.386 7  93872587.69844                  22924597.094
                  22924607.191                          43.200          25.800

 123842961.288 7  96501159.20644                  23566504.117
                  23566511.480                          43.400          25.700

 115954148.574 8  90354028.71445                  22065322.375
                  22065329.691                          48.000          35.200

 106761778.627 8  83191174.06446                  20316072.094
                  20316078.633                          49.200          41.300

 109397058.532 8  85244613.233 7                  20817544.930
  20817551.320    20817551.953                          50.700          47.900

 113347492.265 8  88322786.58946                  21569283.438
                  21569289.848                          48.000          38.700

 116141724.694 7  90500143.685 7  86729295.941 8  22101014.008
  22101024.117    22101024.680    22101023.727          47.300          47.300
        51.300
 116545756.935 7  90814894.374 7  87030966.601 8  22177879.563
  22177887.703    22177887.422    22177886.582          46.600          46.300
        50.800
 109501084.642 8  85325644.19146                  20837341.422
                  20837348.906                          48.900          37.700

 123938162.928 7  96575327.28644                  23584657.477
                  23584669.500                          42.900          27.700

 120265916.517 7  93713849.78045                  22885831.719
                  22885841.777                          45.800          32.100

 124298848.169 6  96856402.07044                  23653290.063
                  23653301.648                          38.800          24.700

 131656473.065 6 102589553.543 6                  25053406.109
  25053420.746    25053418.465                          36.500          38.400

 14  3 14  0 29 30.0000000  0 13G09G16G23G13G07G19G30G27G03G10G08G28
                                G05
 120379207.385 7  93802157.19844                  22907398.000
                  22907408.031                          42.900          26.400

 123942881.924 7  96579019.40944                  23585518.172
                  23585526.039                          42.600          25.800

 116049192.486 7  90428088.83945                  22083408.406
                  22083415.910                          47.300          34.600

 106801655.219 8  83222246.73546                  20323659.938
                  20323667.008                          48.900          41.700

 109356475.421 8  85212990.077 8                  20809822.164
  20809828.766    20809829.109                          50.100          48.400

 113301214.533 8  88286726.06646                  21560477.391
                  21560483.922                          48.000          38.000

 116078517.396 7  90450891.342 7  86682095.795 8  22088985.516
  22088995.848    22088996.090    22088995.488          47.200          47.000
        50.800
 116577245.564 7  90839430.979 7  87054480.837 8  22183872.156
  22183880.020    22183879.652    22183879.102          46.400          45.800
        50.600
 109507429.121 7  85330587.95946                  20838548.688
                  20838556.547                          47.800          37.400

 123996521.565 7  96620801.48844                  23595762.742
                  23595772.262                          43.200          26.400

 120194235.862 7  93657994.86245                  22872191.461
                  22872200.961                          45.600          31.300

 124216616.679 6  96792325.78344                  23637641.563
                  23637652.309                          40.500          26.300

 131627543.036 5 102567010.672 6                  25047899.273
  25047916.242    25047913.125                          34.900          39.300

 14  3 14  0 30  0.0000000  4  5
DSRC (COGO code)                                            COMMENT
   0.000      (antenna height)                              COMMENT
 +39.99147598 (latitude)                                    COMMENT
-105.26107939 (longitude)                                   COMMENT
1655.057      (elevation)                                   COMMENT
 14  3 14  0 30  0.0000000  0 13G09G16G23G13G07G19G30G27G03G10G08G28
                                G05
 120288896.763 7  93731785.45144                  22890211.297
                  22890222.555                          42.700          28.000

 124042869.435 6  96656931.73044                  23604544.969
                  23604553.094                          41.600          26.600

 116144571.073 7  90502409.75945                  22101558.813
                  22101565.375                          47.500          34.200

 106842090.088 8  83253754.42146                  20331354.609
                  20331361.555                          49.100          41.400

 109316102.625 8  85181530.802 8                  20802139.430
  20802146.273    20802146.738                          49.900          49.200

 113255512.253 8  88251113.96046                  21551780.445
                  21551786.340                          48.400          38.400

 116015443.087 7  90401742.622 7  86634994.964 8  22076982.766
  22076992.898    22076993.094    22076992.902          46.600          46.800
        51.600
 116609310.364 7  90864416.538 7  87078425.336 8  22189973.758
  22189981.813    22189981.969    22189980.773          47.000          46.700
        50.000
 109514439.547 7  85336050.64446                  20839882.641
                  20839890.500                          47.400          38.100

 124055252.219 7  96666565.55244                  23606938.117
                  23606950.648                          42.400          26.900

 120122608.925 7  93602181.79745                  22858560.945
                  22858569.969                          45.700          31.600

 124134609.223 7  96728424.07044                  23622036.289
                  23622046.895                          43.200          27.500

 131599120.387 6 102544863.153 6                  25042491.586
  25042506.531    25042504.453                          36.300          37.500

 14  3 14  0 30 30.0000000  0 13G09G16G23G13G07G19G30G27G03G10G08G28
                                G05
 120198662.737 7  93661473.37444                  22873039.961
                  22873051.582                          42.000          28.200

 124142922.036 6  96734894.77344                  23623585.203
                  23623592.816                          40.800          24.800

 116240282.256 7  90576989.87345                  22119772.320
                  22119778.512                          46.900          33.900

 106883083.151 8  83285697.06146                  20339155.313
                  20339161.773                          48.800          41.400

 109275941.223 8  85150236.243 8                  20794497.156
  20794503.777    20794504.180                          49.200          49.000

 113210387.647 7  88215951.99646                  21543193.547
                  21543199.117                          47.700          38.400

 115952502.633 7  90352698.210 7  86587994.092 8  22065005.586
  22065016.117    22065016.129    22065015.879          46.800          46.800
        51.200
 116641950.526 7  90889850.425 7  87102799.496 8  22196184.383
  22196193.074    22196193.504    22196191.723          46.000          47.800
        50.200
 109522116.217 7  85342032.47746                  20841343.680
                  20841351.492                          47.000          37.900

 124114352.241 6  96712617.46344                  23618184.813
                  23618197.641                          41.300          27.100

 120051036.550 7  93546411.25945                  22844941.984
                  22844950.934                          44.700          32.800

 124052826.643 6  96664697.59644                  23606472.852
                  23606484.344                          41.800          26.100

 131571205.663 6 102523111.468 5                  25037180.586
  25037192.555    25037192.965                          39.700          35.100

 14  3 14  0 31  0.0000000  0 13G09G16G23G13G07G19G30G27G03G10G08G28
                                G05
 120108506.134 7  93591221.61544                  22855884.055
                  22855895.398                          43.200          28.300

 124243037.679 6  96812906.92143                  23642636.172
                  23642644.309                          40.600          23.400

 116336323.726 7  90651827.33545                  22138047.914
                  22138054.426                          47.300          33.900

 106924633.216 8  83318073.72646                  20347062.109
                  20347068.535                          49.000          40.900

 109235991.680 8  85119106.781 8                  20786894.789
  20786901.230    20786901.805                          49.300          48.500

 113165842.829 7  88181241.80746                  21534716.688
                  21534723.320                          47.500          38.300

 115889696.475 7  90303758.432 7  86541093.502 8  22053053.656
  22053064.418    22053064.336    22053064.145          47.600          47.400
        51.900
 116675164.707 7  90915731.600 7  87127602.290 8  22202505.305
  22202513.727    22202514.172    22202512.391          47.000          47.400
        50.800
 109530458.970 7  85348533.34446                  20842931.703
                  20842938.867                          47.900          37.000

 124173818.520 7  96758954.74844                  23629501.563
                  23629512.109                          43.400          25.800

 119979519.238 7  93490683.60045                  22831331.641
                  22831341.504                          45.100          32.600

 123971269.736 6  96601146.96644                  23590952.656
                  23590963.988                          41.300          26.300

 131543799.570 6 102501756.187 5                  25031964.859
  25031977.391    25031978.000                          40.500          35.200

 14  3 14  0 31 30.0000000  0 13G09G16G23G13G07G19G30G27G03G10G08G28
                                G05
 120018428.129 6  93521031.10044                  22838741.773
                  22838753.414                          41.600          27.100

 124343214.656 6  96890966.87443                  23661699.766
                  23661706.996                          40.800          23.600

 116432693.296 7  90726920.44145                  22156386.828
                  22156393.324                          46.300          33.700

 106966740.023 8  83350884.22146                  20355074.672
                  20355080.914                          49.300          41.400

 109196255.423 8  85088143.509 8                  20779333.164
  20779339.711    20779340.043                          48.800          48.800

 113121879.841 7  88146984.98046                  21526350.695
                  21526356.809                          47.500          38.500

 115827025.464 7  90254923.972 7  86494293.828 8  22041128.219
  22041138.668    22041138.984    22041138.500          47.200          47.600
        51.300
 116708951.960 7  90942059.331 7  87152833.038 8  22208934.820
  22208943.270    22208943.328    22208941.609          46.800          46.800
        50.000
 109539467.647 8  85355553.11346                  20844645.836
                  20844652.758                          48.900          37.400

 124233648.389 7  96805575.43244                  23640885.977
                  23640897.590                          42.500          27.000

 119908057.426 7  93434999.19745                  22817733.266
                  22817743.344                          45.300          33.100

 123889939.541 7  96537772.99144                  23575476.414
                  23575486.496                          43.300          25.100

 131516902.767 6 102480797.684 6                  25026847.055
  25026860.160    25026859.605                          38.300          37.100

 14  3 14  0 32  0.0000000  0 13G09G16G23G13G07G19G30G27G03G10G08G28
                                G05
 119928429.667 7  93450902.58044                  22821615.359
                  22821626.605                          42.100          27.600

 124443450.813 6  96969072.94043                  23680773.180
                  23680781.504                          40.800          23.400

 116529388.671 7  90802267.41445                  22174787.422
                  22174793.863                          46.800          33.100

 107009402.239 8  83384127.49746                  20363192.930
                  20363200.125                          50.200          41.600

 109156733.279 8  85057347.075 8                  20771812.453
  20771818.730    20771819.273                          49.000          48.500

 113078500.256 8  88113182.76146                  21518096.359
                  21518101.281                          48.000          38.500

 115764489.976 8  90206195.108 7  86447595.343 8  22029228.016
  22029238.246    22029238.586    22029237.516          48.400          47.900
        51.100
 116743310.921 7  90968832.540 7  87178490.722 8  22215472.680
  22215481.699    22215482.098    22215479.969          46.300          46.700
        50.400
 109549141.265 8  85363091.02446                  20846486.656
                  20846493.652                          48.500          37.500

 124293839.275 6  96852477.31044                  23652339.664
                  23652351.309                          41.500          26.200

 119836651.277 7  93379358.17145                  22804144.719
                  22804154.496                          45.000          32.100

 123808836.622 7  96474576.09444                  23560042.430
                  23560051.910                          43.800          26.000

 131490515.390 6 102460236.103 6                  25021825.711
  25021838.113    25021838.258                          37.800          36.100

 14  3 14  0 32 30.0000000  0 13G09G16G23G13G07G19G30G27G03G10G08G28
                                G05
 119838511.775 7  93380836.83244                  22804504.766
                  22804515.418                          43.100          27.800

 124543744.360 6  97047223.73543                  23699858.938
                  23699866.355                          39.200          23.800

 116626407.673 7  90877866.57245                  22193249.719
                  22193255.586                          46.500          33.300

 107052619.201 8  83417803.04546                  20371416.641
                  20371423.805                          49.500          41.100

 109117425.951 8  85026718.003 8                  20764332.508
  20764338.828    20764339.434                          49.600          48.200

 113035706.393 8  88079836.93946                  21509952.969
                  21509958.332                          48.700          38.900

 115702090.717 8  90157572.392 7  86400998.580 8  22017353.547
  22017364.238    22017364.461    22017363.332          48.100          46.900
        51.300
 116778240.394 7  90996050.315 7  87204574.424 8  22222119.969
  22222128.105    22222128.258    22222127.531          46.100          46.700
        50.300
 109559479.675 8  85371146.94146                  20848453.820
                  20848461.371                          48.800          37.400

 124354388.000 7  96899658.05144                  23663863.578
                  23663874.004                          44.200          27.000

 119765301.473 7  93323761.05745                  22790567.125
                  22790577.320                          46.200          32.300

 123727961.299 7  96411556.56943                  23544652.891
                  23544662.336                          43.200          23.600

 131464637.995 6 102440071.954 5                  25016900.734
  25016913.699    25016912.695                          37.000          32.800

 14  3 14  0 33  0.0000000  0 13G09G16G23G13G07G19G30G27G03G10G08G28
                                G05
 119748675.533 7  93310834.72044                  22787409.219
                  22787419.871                          42.800          29.000

 124644093.301 6  97125417.67843                  23718953.969
                  23718961.449                          38.100          22.900

 116723747.582 7  90953715.79145                  22211772.875
                  22211779.066                          47.300          33.500

 107096390.313 7  83451910.40146                  20379746.563
                  20379752.512                          47.500          41.300

 109078334.360 8  84996257.057 8                  20756893.078
  20756899.855    20756900.465                          48.500          48.900

 112993500.048 8  88046948.93246                  21501921.086
                  21501927.027                          49.500          38.200

 115639828.306 8  90109056.304 7  86354504.007 8  22005505.641
  22005515.480    22005515.711    22005514.641          48.000          47.000
        51.700
 116813739.123 7  91023711.674 7  87231083.220 8  22228875.016
  22228882.988    22228882.938    22228882.742          47.200          46.400
        50.700
 109570482.459 7  85379720.56546                  20850547.867
                  20850555.004                          47.000          38.100

 124415291.846 7  96947115.51144                  23675453.000
                  23675463.199                          43.000          26.200

 119694008.496 7  93268208.20945                  22777001.203
                  22777010.809                          46.400          32.300

 123647314.682 6  96348715.24443                  23529305.672
                  23529314.969                          41.800          22.800

 131439271.209 6 102420305.679 5                  25012073.008
  25012086.715    25012085.559                          36.900          33.600

 14  3 14  0 33 30.0000000  0 13G09G16G23G13G07G19G30G27G03G10G08G28
                                G05
 119658921.900 7  93240896.98144                  22770329.445
                  22770340.930                          43.000          27.100

 124744495.991 6  97203653.48643                  23738060.367
                  23738067.641                          39.500          23.200

 116821406.539 7  91029813.63045                  22230356.953
                  22230363.230                          47.000          31.500

 107140714.718 8  83486448.89646                  20388180.805
                  20388187.582                          49.000          40.900

 109039459.773 8  84965965.206 8                  20749495.867
  20749502.293    20749502.824                          49.100          48.700

 112951883.290 8  88014520.33946                  21494001.664
                  21494007.469                          49.100          38.900

 115577703.531 8  90060647.459 7  86308112.214 8  21993683.828
  21993693.652    21993693.695    21993693.098          48.500          46.600
        50.800
 116849806.083 7  91051815.811 7  87258016.346 8  22235738.633
  22235746.484    22235746.656    22235746.105          47.200          46.600
        50.400
 109582149.565 8  85388811.82346                  20852767.680
                  20852775.117                          48.000          38.400

 124476548.234 7  96994847.75044                  23687109.023
                  23687119.516                          44.000          25.300

 119622773.150 7  93212700.26945                  22763445.086
                  22763453.938                          46.700          31.200

 123566897.738 6  96286052.87243                  23514002.320
                  23514012.832                          41.200          22.900

 131414415.647 6 102400937.744 5                  25007343.664
  25007356.406    25007356.324                          38.300          35.700

 14  3 14  0 34  0.0000000  0 13G09G16G23G13G07G19G30G27G03G10G08G28
                                G05
 119569251.873 7  93171024.36444                  22753266.656
                  22753276.742                          44.000          28.700

 124844950.322 6  97281929.57243                  23757176.227
                  23757184.113                          39.000          22.300

 116919382.202 7  91106158.25645                  22249000.484
                  22249006.805                          46.600          31.400

 107185591.427 8  83521417.75946                  20396720.680
                  20396728.148                          50.200          41.900

 109000802.900 8  84935842.997 8                  20742139.539
  20742145.824    20742146.320                          49.800          49.100

 112910857.938 8  87982552.58346                  21486194.555
                  21486200.395                          48.300          38.300

 115515716.900 7  90012346.253 7  86261823.576 8  21981887.859
  21981897.875    21981897.820    21981897.691          47.900          46.100
        51.200
 116886439.829 7  91080361.588 7  87285372.722 8  22242709.711
  22242717.961    22242718.164    22242716.969          47.100          46.400
        50.600
 109594480.197 8  85398420.12846                  20855114.539
                  20855121.594                          49.600          38.800

 124538154.389 7  97042852.44844                  23698832.344
                  23698843.871                          43.700          27.200

 119551595.626 7  93157237.37945                  22749900.281
                  22749909.102                          46.000          31.800

 123486710.642 6  96223569.61344                  23498742.992
                  23498752.832                          41.100          24.600

 131390071.463 6 102381968.271 6                  25002711.773
  25002724.434    25002723.973                          40.800          37.000

 14  3 14  0 34 30.0000000  0 13G09G16G23G13G07G19G30G27G03G10G08G28
                                G05
 119479666.518 7  93101217.73244                  22736219.234
                  22736228.777                          43.800          28.900

 124945454.666 6  97360244.61343                  23776301.031
                  23776309.379                          40.000          22.000

 117017672.251 7  91182747.86845                  22267704.180
                  22267711.160                          46.600          31.500

 107231019.494 8  83556816.24446                  20405365.336
                  20405372.203                          49.000          41.000

 108962364.925 8  84905891.361 8                  20734825.141
  20734832.145    20734832.523                          49.500          48.000

 112870426.100 8  87951047.30446                  21478500.633
                  21478506.020                          48.000          38.000

 115453869.248 7  89964153.340 7  86215638.719 8  21970118.656
  21970128.734    21970128.758    21970128.863          47.500          46.200
        51.600
 116923639.218 7  91109348.139 7  87313151.499 8  22249788.398
  22249796.410    22249796.574    22249795.090          46.500          46.400
        49.600
 109607474.013 8  85408545.20446                  20857587.039
                  20857594.477                          48.000          38.300

 124600107.621 7  97091127.62544                  23710621.945
                  23710633.758                          43.000          25.000

 119480476.798 7  93101820.22145                  22736366.953
                  22736375.566                          45.900          32.100

 123406754.369 6  96161266.29943                  23483528.180
                  23483537.758                          40.100          21.700

 131366239.303 6 102363397.802 6                  24998177.102
  24998189.402    24998189.070                          40.800          38.700

 14  3 14  0 35  0.0000000  0 13G09G16G23G13G07G19G30G27G03G10G08G28
                                G05
 119390166.648 7  93031477.70544                  22719187.039
                  22719198.238                          43.300          28.300

 125046006.857 6  97438596.94743                  23795435.531
                  23795443.609                          40.400          21.800

 117116274.346 8  91259580.62445                  22286468.102
                  22286474.000                          48.400          32.300

 107276997.807 8  83592643.49246                  20414114.797
                  20414121.238                          48.600          41.400

 108924146.400 8  84876110.736 8                  20727552.305
  20727558.637    20727559.070                          48.100          48.200

 112830589.167 7  87920005.59646                  21470919.906
                  21470924.516                          46.600          37.700

 115392161.032 8  89916069.078 7  86169557.988 8  21958375.844
  21958385.418    21958385.773    21958385.406          48.000          46.600
        52.000
 116961402.759 7  91138774.283 7  87341351.556 8  22256974.445
  22256982.742    22256983.113    22256981.273          46.300          46.600
        49.800
 109621130.386 8  85419186.55046                  20860185.836
                  20860193.086                          48.600          38.300

 124662404.690 7  97139670.77644                  23722476.570
                  23722487.590                          42.700          24.300

 119409416.831 7  93046448.93545                  22722844.156
                  22722853.336                          45.100          31.400

 123327029.604 7  96099143.30944                  23468357.078
                  23468368.000                          42.500          25.700

 131342919.483 6 102345226.557 6                  24993738.641
  24993751.844    24993751.902                          39.300          37.200

 14  3 14  0 35 30.0000000  0 13G09G16G23G13G07G19G30G27G03G10G08G28
                                G05
 119300753.775 7  92961805.48244                  22702172.641
                  22702183.336                          42.500          28.000

 125146605.503 6  97516985.50043                  23814578.945
                  23814586.816                          40.900          22.600

 117215186.441 8  91336654.94845                  22305290.961
                  22305296.480                          49.100          32.400

 107323526.414 8  83628899.53846                  20422969.102
                  20422975.773                          49.500          40.800

 108886148.935 8  84846502.364 8                  20720321.430
  20720328.125    20720328.504                          50.200          48.700

 112791349.424 8  87889429.23746                  21463452.945
                  21463457.492                          48.200          38.100

 115330593.205 7  89868094.220 7  86123582.092 8  21946660.164
  21946668.934    21946669.375    21946668.949          47.300          46.000
        51.900
 116999729.418 7  91168639.217 7  87369972.134 8  22264267.438
  22264276.180    22264276.684    22264275.434          46.600          46.900
        50.300
 109635449.156 8  85430344.03246                  20862910.070
                  20862917.656                          49.600          38.600

 124725043.033 7  97188479.78244                  23734397.055
                  23734409.055                          42.400          24.500

 119338416.340 7  92991124.00645                  22709332.930
                  22709341.824                          44.100          31.400

 123247537.322 7  96037201.50444                  23453229.219
                  23453240.484                          42.300          24.700

 131320112.761 6 102327455.124 6                  24989398.109
  24989411.508    24989412.277                          38.700          36.900

 14  3 14  0 36  0.0000000  0 13G09G16G23G13G07G19G30G27G03G10G08G28
                                G05
 119211429.148 7  92892202.01944                  22685174.523
                  22685185.477                          43.000          28.500

 125247248.942 6  97595408.91643                  23833731.344
                  23833738.816                          40.400          21.500

 117314406.515 8  91413969.23745                  22324171.656
                  22324177.449                          48.400          32.100

 107370604.327 8  83665583.60846                  20431927.609
                  20431934.008                          48.800          41.100

 108848373.644 8  84817067.101 8                  20713133.398
  20713140.113    20713140.438                          49.500          48.900

 112752708.749 8  87859319.68046                  21456099.367
                  21456105.035                          48.500          37.600

 115269166.700 8  89820229.459 7  86077711.718 8  21934970.828
  21934980.500    21934980.918    21934980.141          48.000          46.600
        51.400
 117038618.055 7  91198942.049 7  87399012.356 8  22271667.891
  22271676.609    22271676.707    22271675.922          46.400          46.600
        50.200
 109650429.734 8  85442017.22346                  20865761.172
                  20865768.434                          48.500          38.300

 124788020.200 7  97237552.85843                  23746380.406
                  23746391.508                          42.700          23.200

 119267476.364 7  92935846.22045                  22695833.781
                  22695842.477                          45.200          32.600

 123168278.308 7  95975441.48844                  23438147.164
                  23438158.047                          42.600          25.200

 131297819.585 6 102310083.851 6                  24985156.063
  24985168.801    24985169.910                          39.700          36.400

 14  3 14  0 36 30.0000000  0 13G09G16G23G13G07G19G30G27G03G10G08G28
                                G05
 119122193.576 7  92822667.96044                  22668193.641
                  22668204.785                          42.900          29.300

 125347934.752 6  97673865.38443                  23852891.031
                  23852898.109                          37.600          19.900

 117413931.592 8  91491521.20345                  22343110.578
                  22343117.246                          48.500          33.400

 107418229.969 8  83702694.49846                  20440990.438
                  20440996.676                          49.800          40.500

 108810820.776 8  84787805.155 8                  20705987.539
  20705993.301    20705993.699                          49.100          49.000

 112714668.622 8  87829678.06446                  21448860.648
                  21448866.387                          48.200          37.900

 115207881.694 8  89772474.972 7  86031947.014 8  21923308.719
  21923318.293    21923318.406    21923317.453          48.100          47.100
        51.900
 117078066.804 7  91229681.356 7  87428470.845 8  22279175.297
  22279183.074    22279182.715    22279181.754          47.100          46.000
        50.700
 109666071.276 8  85454205.45146                  20868737.766
                  20868745.152                          50.400          37.400

 124851332.759 6  97286887.25643                  23758427.750
                  23758440.066                          41.100          22.800

 119196597.062 7  92880615.70845                  22682345.914
                  22682354.457                          45.400          31.400

 123089252.682 7  95913863.28144                  23423109.086
                  23423119.645                          43.400          26.400

 131276039.830 6 102293112.647 6                  24981011.000
  24981024.344    24981025.191                          40.300          37.000

 14  3 14  0 37  0.0000000  0 13G09G16G23G13G07G19G30G27G03G10G08G28
                                G05
 119033048.307 7  92753204.26944                  22651229.914
                  22651240.016                          43.100          28.500

 125448661.469 6  97752353.71443                  23872058.641
                  23872065.859                          40.300          20.400

 117513759.418 8  91569309.05545                  22362107.148
                  22362113.906                          48.300          32.400

 107466402.585 8  83740231.59046                  20450157.336
                  20450164.168                          49.300          41.000

 108773491.617 8  84758717.534 8                  20698883.523
  20698890.090    20698890.492                          49.000          48.500

 112677230.909 8  87800505.88446                  21441736.141
                  21441742.043                          48.000          38.400

 115146739.123 8  89724831.483 7  85986288.684 8  21911673.461
  21911683.336    21911683.785    21911682.656          48.400          47.600
        51.300
 117118074.582 7  91260856.264 7  87458346.803 8  22286788.406
  22286796.621    22286796.594    22286794.871          47.800          45.800
        49.900
 109682373.086 8  85466908.18146                  20871839.656
                  20871846.305                          48.200          38.000

 124914978.121 7  97336480.99843                  23770539.555
                  23770550.688                          42.100          22.300

 119125778.909 7  92825432.83045                  22668869.641
                  22668877.922                          45.400          32.600

 123010461.496 7  95852467.79343                  23408114.789
                  23408126.047                          42.400          22.800

 131254773.899 6 102276541.831 5                  24976965.031
  24976976.980    24976978.426                          40.400          34.400

 14  3 14  0 37 30.0000000  0 13G09G16G23G13G07G19G30G27G03G10G08G28
                                G05
 118943994.341 7  92683811.72844                  22634283.195
                  22634293.555                          43.600          29.700

 125549427.458 6  97830872.64943                  23891233.703
                  23891241.352                          41.000          21.300

 117613888.043 7  91647331.28845                  22381161.383
                  22381167.957                          47.900          32.100

 107515121.518 8  83778194.38246                  20459428.563
                  20459435.320                          49.100          40.500

 108736387.395 8  84729805.180 8                  20691822.703
  20691829.281    20691829.539                          48.000          48.400

 112640397.383 8  87771804.49146                  21434727.484
                  21434732.395                          48.000          37.900

 115085739.707 7  89677299.546 7  85940737.248 8  21900065.484
  21900075.496    21900075.859    21900074.906          47.500          47.500
        51.500
 117158639.957 7  91292465.635 7  87488639.124 8  22294507.148
  22294515.328    22294516.031    22294514.836          46.100          46.000
        49.900
 109699334.679 7  85480125.00946                  20875067.203
                  20875074.207                          47.800          37.600

 124978953.498 7  97386331.86444                  23782713.563
                  23782726.152                          42.500          24.900

 119055022.505 7  92770298.07745                  22655405.008
                  22655413.836                          45.000          32.100

 122931905.456 7  95791255.52444                  23393166.906
                  23393176.402                          43.200          25.300

 131234022.326 6 102260371.799 5                  24973015.523
  24973028.371    24973028.129                          40.000          33.300

 14  3 14  0 38  0.0000000  0 13G09G16G23G13G07G19G30G27G03G10G08G28
                                G05
 118855032.497 7  92614490.98344                  22617354.398
                  22617364.672                          43.900          29.400

 125650230.531 6  97909420.49343                  23910416.484
                  23910423.922                          41.300          21.700

 117714314.765 7  91725585.81945                  22400271.859
                  22400278.105                          46.600          32.400

 107564384.834 7  83816581.38746                  20468802.500
                  20468809.078                          47.300          40.300

 108699508.724 7  84701068.593 8                  20684804.953
  20684811.262    20684811.871                          47.700          49.100

 112604169.724 7  87743575.20546                  21427833.625
                  21427838.605                          47.800          38.200

 115024883.988 8  89629879.568 7  85895293.126 8  21888485.047
  21888495.016    21888495.137    21888494.242          48.000          47.500
        51.000
 117199761.321 7  91324508.248 7  87519346.622 8  22302332.234
  22302340.340    22302340.559    22302340.129          45.300          45.400
        50.400
 109716955.446 8  85493855.48846                  20878420.828
                  20878427.758                          48.000          37.900

 125043255.490 7  97436437.29544                  23794949.734
                  23794961.027                          43.500          25.400

 118984328.514 7  92715211.95345                  22641952.031
                  22641961.492                          45.800          32.500

 122853584.680 6  95730226.52644                  23378261.531
                  23378271.500                          41.800          25.800

 131213785.299 6 102244602.720 5                  24969165.273
  24969177.395    24969177.188                          40.600          33.800

 14  3 14  0 38 30.0000000  0 13G09G16G23G13G07G19G30G27G03G10G08G28
                                G05
 118766164.456 7  92545243.31844                  22600443.164
                  22600452.652                          44.100          29.200

 125751069.213 6  97987996.03743                  23929606.289
                  23929613.867                          40.900          22.800

 117815037.377 7  91804070.90245                  22419438.719
                  22419445.281                          46.800          32.100

 107614192.631 8  83855392.65046                  20478281.125
                  20478287.250                          48.100          40.400

 108662857.103 8  84672508.933 8                  20677830.352
  20677836.535    20677837.027                          48.500          48.700

 112568549.645 7  87715819.36446                  21421054.992
                  21421060.465                          47.200          38.500

 114964173.012 7  89582572.383 7  85849957.084 8  21876931.961
  21876942.289    21876942.258    21876941.422          47.300          47.700
        51.100
 117241437.569 7  91356983.240 7  87550468.472 8  22310262.742
  22310271.547    22310271.301    22310270.809          45.600          45.400
        50.300
 109735234.934 8  85508099.25746                  20881899.516
                  20881905.871                          49.100          38.100

 125107881.955 7  97486795.47344                  23807248.461
                  23807261.410                          44.600          25.200

 118913697.882 7  92660175.21645                  22628511.875
                  22628520.609                          47.300          33.200

 122775500.624 7  95669382.04844                  23363403.352
                  23363412.219                          44.500          26.600

 131194063.199 6 102229234.888 5                  24965412.023
  24965424.469    24965424.367                          41.000          34.200

 14  3 14  0 39  0.0000000  0 13G09G16G23G13G07G19G30G27G03G10G08G28
                                G05
 118677390.873 7  92476069.25444                  22583549.500
                  22583559.082                          44.200          29.900

 125851941.525 6  98066597.86543                  23948800.430
                  23948808.629                          40.400          22.200

 117916053.345 7  91882784.58245                  22438660.922
                  22438668.336                          46.500          32.500

 107664543.122 8  83894626.78246                  20487862.195
                  20487868.621                          48.000          40.500

 108626433.180 7  84644126.692 8                  20670899.305
  20670905.352    20670905.945                          46.100          48.300

 112533538.862 7  87688538.28746                  21414392.938
                  21414398.246                          45.500          38.700

 114903607.162 7  89535378.274 7  85804729.412 8  21865406.414
  21865416.402    21865416.656    21865415.648          45.900          47.300
        51.300
 117283666.874 7  91389889.195 7  87582003.327 8  22318299.117
  22318307.039    22318307.406    22318305.625          46.100          45.900
        49.800
 109754171.595 8  85522855.11846                  20885502.602
                  20885509.309                          48.000          37.900

 125172829.779 7  97537404.12344                  23819606.945
                  23819620.309                          43.700          25.600

 118843130.958 7  92605188.10945                  22615083.625
                  22615092.176                          45.900          33.300

 122697653.590 7  95608722.19644                  23348588.547
                  23348598.973                          42.100          25.000

 131174855.974 6 102214268.267 5                  24961757.391
  24961768.965    24961769.270                          40.800          34.700

 14  3 14  0 39 30.0000000  0 13G09G16G23G13G07G19G30G27G03G10G08G28
                                G05
 118588713.162 7  92406969.89144                  22566674.266
                  22566684.633                          43.800          29.900

 125952846.184 6  98145224.86543                  23968001.750
                  23968010.027                          40.800          22.000

 118017360.804 7  91961725.38145                  22457939.703
                  22457946.371                          46.500          32.700

 107715435.673 7  83934283.30646                  20497546.766
                  20497553.938                          47.500          40.600

 108590238.208 8  84615922.844 8                  20664011.617
  20664017.664    20664018.160                          48.400          48.300

 112499138.736 8  87661733.03846                  21407846.461
                  21407852.176                          48.500          39.000

 114843187.387 7  89488297.999 7  85759610.823 8  21853908.781
  21853919.477    21853919.605    21853918.773          47.500          47.300
        51.600
 117326447.985 7  91423225.133 7  87613950.269 8  22326440.203
  22326448.531    22326449.164    22326446.504          45.600          46.200
        49.800
 109773765.405 8  85538123.03046                  20889231.328
                  20889238.703                          48.800          37.900

 125238096.095 7  97588260.95344                  23832027.211
                  23832039.461                          43.600          26.000

 118772628.566 7  92550251.29145                  22601666.844
                  22601675.633                          46.500          32.700

 122620044.023 7  95548247.46244                  23333820.938
                  23333829.957                          44.100          26.500

 131156164.005 6 102199703.173 6                  24958199.875
  24958212.438    24958212.281                          41.300          37.200

 14  3 14  0 40  0.0000000  0 13G09G16G23G13G07G19G30G27G03G10G08G28
                                G05
 118500132.478 7  92337946.13245                  22549818.898
                  22549828.496                          44.000          30.900

 126053781.111 6  98223875.46443                  23987209.539
                  23987217.789                          41.300          22.500

 118118957.204 7  92040891.33345                  22477273.016
                  22477279.621                          46.700          32.600

 107766868.803 8  83974361.05946                  20507334.547
                  20507341.449                          48.000          41.300

 108554273.194 7  84587898.202 8                  20657168.070
  20657173.953    20657174.559                          47.800          48.600

 112465350.860 7  87635404.87746                  21401417.234
                  21401422.316                          47.100          38.400

 114782914.296 7  89441332.019 7  85714601.774 8  21842439.047
  21842449.332    21842449.492    21842448.949          45.900          47.200
        51.800
 117369779.309 7  91456989.803 7  87646308.087 8  22334686.117
  22334694.188    22334694.598    22334692.699          46.100          46.100
        50.000
 109794015.227 8  85553902.13146                  20893084.133
                  20893091.367                          48.800          37.900

 125303677.906 7  97639363.61144                  23844507.125
                  23844518.117                          42.800          25.500

 118702191.030 7  92495364.99745                  22588262.938
                  22588272.129                          46.100          32.800

 122542672.692 7  95487958.29744                  23319096.563
                  23319107.527                          43.700          25.100

 131137987.285 6 102185539.505 6                  24954741.258
  24954754.102    24954753.457                          40.000          37.900

 14  3 14  0 40 30.0000000  0 13G09G16G23G13G07G19G30G27G03G10G08G28
                                G05
 118411649.763 7  92268998.72545                  22532981.180
                  22532990.359                          45.200          30.400

 126154744.695 6  98302548.38443                  24006422.688
                  24006430.941                          39.200          22.800

 118220839.845 7  92120280.33645                  22496661.234
                  22496667.023                          47.400          32.600

 107818841.602 8  84014859.33446                  20517224.617
                  20517231.129                          48.800          40.600

 108518538.843 7  84560053.284 8                  20650368.047
  20650373.773    20650374.461                          47.800          48.600

 112432176.874 7  87609555.06146                  21395104.227
                  21395110.258                          47.700          39.200

 114722788.617 8  89394480.908 7  85669702.798 8  21830997.578
  21831007.203    21831007.543    21831007.238          48.000          47.500
        51.300
 117413659.310 7  91491182.005 7  87679075.619 8  22343035.852
  22343044.586    22343045.066    22343042.699          46.000          46.900
        49.800
 109814920.506 8  85570191.97746                  20897062.445
                  20897069.293                          48.500          38.400

 125369572.186 7  97690709.74044                  23857047.125
                  23857057.730                          44.500          25.800

 118631819.162 7  92440529.87845                  22574871.844
                  22574880.234                          44.900          33.200

 122465539.906 7  95427855.04444                  23304419.344
                  23304429.934                          43.700          26.900

 131120326.341 6 102171777.744 6                  24951379.695
  24951393.488    24951392.645                          39.300          36.700

 14  3 14  0 41  0.0000000  0 13G09G16G23G13G07G19G30G27G03G10G08G28
                                G05
 118323266.405 7  92200128.73045                  22516162.172
                  22516171.816                          44.100          30.600

 126255735.257 7  98381242.31543                  24025640.664
                  24025648.043                          42.500          23.200

 118323006.740 7  92199890.84245                  22516102.961
                  22516108.895                          47.500          31.800

 107871353.003 8  84055777.30046                  20527216.586
                  20527223.172                          48.500          39.900

 108483036.548 7  84532389.195 8                  20643611.523
  20643617.781    20643618.371                          46.700          48.800

 112399618.671 7  87584185.09246                  21388908.945
                  21388913.688                          47.300          39.000

 114662811.360 7  89347745.442 7  85624914.658 8  21819584.609
  21819594.203    21819594.484    21819594.352          46.600          47.700
        51.700
 117458086.670 7  91525800.735 7  87712251.901 8  22351489.945
  22351498.570    22351498.859    22351496.496          45.400          47.000
        49.500
 109836480.319 8  85586991.84246                  20901165.375
                  20901172.207                          48.200          38.100

 125435776.504 7  97742297.43744                  23869644.563
                  23869657.441                          42.200          25.500

 118561513.505 7  92385746.34845                  22561492.375
                  22561501.973                          45.300          33.800

 122388646.625 7  95367938.38144                  23289786.305
                  23289796.016                          43.600          26.700

 131103181.354 6 102158418.040 6                  24948117.930
  24948129.730    24948129.762                          39.500          36.600

 14  3 14  0 41 30.0000000  0 13G09G16G23G13G07G19G30G27G03G10G08G28
                                G05
 118234983.296 7  92131336.85644                  22499362.086
                  22499371.688                          43.300          29.700

 126356750.980 7  98459955.85243                  24044863.359
                  24044870.563                          42.700          22.800

 118425455.145 8  92279720.69145                  22535598.016
                  22535603.820                          48.100          32.200

 107924401.772 8  84097113.99146                  20537311.828
                  20537318.195                          48.600          40.300

 108447767.066 7  84504906.514 8                  20636900.000
  20636906.418    20636906.953                          47.900          48.700

 112367677.536 7  87559295.96546                  21382830.398
                  21382835.480                          47.000          38.400

 114602983.054 7  89301126.041 7  85580237.751 8  21808199.500
  21808209.473    21808209.504    21808209.137          47.500          47.300
        51.800
 117503059.594 7  91560844.556 7  87745835.579 8  22360048.609
  22360056.949    22360057.348    22360055.449          45.900          47.100
        50.100
 109858693.499 8  85604300.84146                  20905392.234
                  20905399.754                          49.000          38.500

 125502287.450 7  97794124.08644                  23882300.641
                  23882313.035                          42.300          25.700

 118491274.407 7  92331014.66145                  22548126.367
                  22548135.539                          46.000          33.900

 122311993.316 7  95308208.74944                  23275199.930
                  23275209.465                          44.700          27.100

 131086552.369 6 102145460.456 6                  24944953.266
  24944965.469    24944965.797                          40.800          36.500

 14  3 14  0 42  0.0000000  0 13G09G16G23G13G07G19G30G27G03G10G08G28
                                G05
 118146801.707 7  92062624.07444                  22482581.391
                  22482591.168                          44.700          29.900

 126457790.130 6  98538687.63443                  24064089.602
                  24064097.809                          41.600          22.800

 118528182.673 7  92359768.05745                  22555146.492
                  22555153.016                          47.500          30.300

 107977986.688 8  84138868.46446                  20547508.844
                  20547515.309                          49.600          40.400

 108412731.363 7  84477606.007 8                  20630233.086
  20630239.254    20630239.641                          46.900          48.500

 112336354.715 7  87534888.62246                  21376869.539
                  21376875.430                          47.500          38.300

 114543304.296 7  89254623.189 7  85535672.521 8  21796843.289
  21796852.496    21796852.734    21796852.484          47.200          47.500
        52.100
 117548576.354 7  91596312.140 7  87779825.365 8  22368709.859
  22368718.945    22368719.414    22368717.457          46.900          47.400
        50.200
 109881559.591 8  85622118.58346                  20909743.406
                  20909750.738                          48.100          37.500

 125569102.093 6  97846187.36244                  23895014.781
                  23895028.152                          41.700          25.300

 118421102.600 7  92276335.41245                  22534773.352
                  22534782.121                          46.700          34.000

 122235580.709 7  95248666.67244                  23260658.383
                  23260668.961                          43.400          26.700

 131070439.208 6 102132904.834 6                  24941887.242
  24941899.586    24941899.645                          40.600          38.300

 14  3 14  0 42 30.0000000  0 13G09G16G23G13G07G19G30G27G03G10G08G28
                                G05
 118058723.161 7  91993991.59345                  22465821.016
                  22465830.113                          44.500          30.500

 126558851.379 6  98617436.64543                  24083320.750
                  24083328.305                          41.000          23.900

 118631187.356 8  92440031.36245                  22574747.016
                  22574754.480                          48.400          31.600

 108032106.911 8  84181040.05346                  20557807.758
                  20557814.219                          50.300          40.900

 108377931.061 8  84450488.914 8                  20623610.523
  20623616.742    20623617.410                          48.200          48.800

 112305652.171 8  87510964.60346                  21371026.766
                  21371032.395                          48.000          38.400

 114483776.307 8  89208237.820 7  85491219.885 8  21785515.188
  21785524.637    21785524.781    21785524.414          49.000          47.000
        51.700
 117594635.837 7  91632202.630 7  87814220.416 8  22377474.500
  22377483.289    22377484.293    22377482.160          47.300          47.300
        49.800
 109905077.616 8  85640444.32246                  20914218.656
                  20914226.039                          48.200          37.700

 125636218.108 6  97898485.50943                  23907787.102
                  23907799.883                          40.800          22.800

 118350999.216 7  92221709.48645                  22521432.992
                  22521442.160                          47.200          34.400

 122159409.473 7  95189312.69944                  23246163.930
                  23246174.266                          44.700          27.600

 131054842.396 6 102120751.477 6                  24938919.023
  24938932.547    24938931.660                          39.800          39.000

 14  3 14  0 43  0.0000000  0 13G09G16G23G13G07G19G30G27G03G10G08G28
                                G05
 117970748.666 7  91925440.19244                  22449079.688
                  22449089.117                          44.600          29.900

 126659932.766 6  98696201.34943                  24102556.750
                  24102563.609                          40.900          22.500

 118734466.520 8  92520508.56645                  22594400.922
                  22594407.207                          49.100          31.400

 108086760.973 8  84223627.61746                  20568207.727
                  20568214.641                          50.100          40.500

 108343366.807 8  84423555.771 8                  20617033.211
  20617039.816    20617040.031                          48.700          49.500

 112275571.194 7  87487524.93146                  21365302.570
                  21365307.441                          47.300          38.300

 114424399.666 8  89161970.378 7  85446880.266 8  21774216.156
  21774226.102    21774226.324    21774225.547          48.200          47.800
        51.700
 117641236.199 7  91668514.612 7  87849019.394 8  22386342.859
  22386350.910    22386351.406    22386349.918          45.900          46.000
        50.200
 109929246.550 8  85659277.26946                  20918817.859
                  20918825.547                          48.200          37.300

 125703632.163 7  97951015.80543                  23920616.914
                  23920630.125                          42.000          23.200

 118280964.774 7  92167137.27345                  22508105.625
                  22508114.512                          47.700          33.300

 122083479.956 7  95130147.06744                  23231714.367
                  23231725.344                          44.100          26.800

 131039761.790 6 102109000.395 6                  24936048.633
  24936062.254    24936061.918                          39.400          38.200

 14  3 14  0 43 30.0000000  0 14G09G16G23G13G07G19G30G27G03G10G08G28
                                G05G11
 117882879.187 7  91856970.62245                  22432358.141
                  22432367.930                          44.100          31.000

 126761032.407 6  98774980.29943                  24121794.602
                  24121802.039                          40.800          22.900

 118838017.764 8  92601197.80645                  22614106.297
                  22614113.094                          48.800          30.500

 108141947.380 8  84266630.00546                  20578709.289
                  20578716.113                          50.000          39.900

 108309039.623 8  84396807.348 8                  20610501.273
  20610507.477    20610507.863                          50.100          48.800

 112246112.917 8  87464570.46446                  21359697.625
                  21359701.527                          48.000          37.500

 114365175.048 8  89115821.409 7  85402654.183 8  21762945.516
  21762955.930    21762955.840    21762955.180          49.100          47.800
        52.100
 117688375.672 7  91705246.685 7  87884220.939 8  22395312.703
  22395321.012    22395321.305    22395319.582          45.400          46.000
        50.600
 109954065.423 8  85678616.66046                  20923540.969
                  20923548.391                          49.600          37.100

 125771341.082 7  98003775.95143                  23933501.234
                  23933513.926                          42.800          22.300

 118211000.001 8  92112619.34545                  22494792.195
                  22494800.996                          48.300          34.300

 122007792.689 7  95071170.21144                  23217311.984
                  23217321.262                          44.700          26.400

 131025197.454 6 102097651.589 5                  24933277.648
  24933291.250    24933290.680                          39.500          35.700

 131439873.88315                                  25012170.453
                                                        32.200

 14  3 14  0 44  0.0000000  0 14G09G16G23G13G07G19G30G27G03G10G08G28
                                G05G11
 117795116.182 7  91788584.02344                  22415657.750
                  22415666.949                          43.900          29.300

 126862149.153 6  98853772.56943                  24141036.469
                  24141044.129                          38.000          22.200

 118941838.992 7  92682097.40244                  22633862.648
                  22633869.980                          45.300          29.900

 108197665.481 7  84310046.70646                  20589312.195
                  20589318.926                          47.500          39.700

 108274950.791 7  84370244.679 8                  20604014.117
  20604020.484    20604020.949                          47.000          49.300

 112217279.111 7  87442102.61846                  21354209.703
                  21354215.070                          45.600          36.500

 114306103.423 7  89069791.652 7  85358542.339 8  21751704.508
  21751714.703    21751714.777    21751714.234          47.600          47.700
        52.100
 117736052.858 7  91742397.751 7  87919824.034 8  22404384.813
  22404393.871    22404394.125    22404391.758          45.600          46.100
        50.000
 109979533.075 8  85698461.59646                  20928387.023
                  20928394.000                          48.800          36.800

 125839342.328 7  98056763.90043                  23946441.758
                  23946454.430                          42.400          21.800

 118141105.447 7  92058156.12845                  22481491.758
                  22481500.480                          47.000          32.300

 121932348.224 6  95012382.60444                  23202954.664
                  23202964.547                          41.400          25.500

 131011149.968 6 102086705.574 6                  24930605.055
  24930617.078    24930617.324                          39.400          37.000

 131351393.63415                                  24995331.117
                                                        31.000

 14  3 14  0 44 30.0000000  0 14G09G16G23G13G07G19G30G27G03G10G08G28
                                G05G11
 117707460.952 7  91720281.38545                  22398977.586
                  22398986.266                          45.200          31.200

 126963281.447 6  98932576.96743                  24160281.766
                  24160289.242                          39.900          23.000

 119045927.495 7  92763205.25544                  22653670.133
                  22653677.059                          47.000          29.800

 108253914.163 8  84353876.84046                  20600016.211
                  20600022.465                          51.200          40.900

 108241101.380 8  84343868.542 8                  20597572.688
  20597579.297    20597579.496                          49.300          49.200

 112189071.193 7  87420122.47146                  21348841.875
                  21348847.848                          47.200          37.900

 114247185.668 8  89023881.773 7  85314545.392 8  21740493.570
  21740502.996    21740503.125    21740502.465          48.900          47.600
        51.900
 117784266.043 7  91779966.469 7  87955827.396 8  22413559.961
  22413568.742    22413569.234    22413566.457          46.800          46.800
        49.400
 110005648.783 8  85718811.51846                  20933356.805
                  20933363.383                          50.000          37.600

 125907633.111 6  98109977.46843                  23959435.930
                  23959449.551                          41.600          23.800

 118071281.856 8  92003748.20945                  22468204.531
                  22468212.941                          48.300          33.400

 121857147.558 7  94953784.92444                  23188643.641
                  23188656.051                          42.500          27.200

 130997618.418 6 102076161.535 6                  24928029.781
  24928042.148    24928042.160                          40.000          37.500

 131262869.06015                                  24978486.281
                                                        33.000

 14  3 14  0 45  0.0000000  0 14G09G16G23G13G07G19G30G27G03G10G08G28
                                G05G11
 117619914.956 7  91652063.85745                  22382318.023
                  22382326.957                          45.100          31.800

 127064427.596 6  99011392.14143                  24179528.828
                  24179536.680                          41.200          23.800

 119150280.910 7  92844519.56244                  22673527.766
                  22673535.121                          47.200          28.500

 108310691.718 8  84398119.07746                  20610820.570
                  20610827.031                          50.300          41.100

 108207492.587 8  84317679.896 8                  20591177.359
  20591183.387    20591184.086                          49.500          49.000

 112161490.436 7  87398631.02346                  21343593.898
                  21343599.184                          47.600          37.500

 114188422.565 7  88978092.406 7  85270663.936 8  21729310.789
  21729320.691    21729320.512    21729319.852          47.300          47.500
        52.200
 117833013.663 7  91817951.625 7  87992229.848 8  22422836.781
  22422845.070    22422845.539    22422843.234          46.500          46.000
        50.100
 110032411.424 8  85739665.52146                  20938449.859
                  20938456.703                          48.300          37.200

 125976210.420 7  98163414.28144                  23972486.633
                  23972499.207                          43.900          25.600

 118001530.083 7  91949396.25945                  22454930.875
                  22454939.637                          47.800          33.200

 121782191.034 7  94895377.53144                  23174381.109
                  23174391.426                          45.400          27.200

 130984603.384 6 102066019.963 6                  24925553.375
  24925566.215    24925565.629                          39.800          37.600

 131174302.64815                                  24961633.375
                                                        33.200

 14  3 14  0 45 30.0000000  0 14G09G16G23G13G07G19G30G27G03G10G08G28
                                G05G11
 117532479.051 7  91583932.11445                  22365679.070
                  22365688.809                          45.300          30.200

 127165585.646 7  99090216.58143                  24198779.102
                  24198786.906                          42.200          22.800

 119254896.786 7  92926038.37544                  22693435.305
                  22693442.219                          46.900          29.300

 108367996.922 8  84442772.47046                  20621725.383
                  20621731.887                          49.400          40.300

 108174125.675 7  84291679.731 8                  20584827.195
  20584833.516    20584834.180                          47.800          49.300

 112134538.122 7  87377629.26646                  21338465.047
                  21338469.941                          47.800          38.600

 114129814.756 7  88932424.046 7  85226898.442 8  21718158.250
  21718167.414    21718167.875    21718166.922          47.200          47.500
        52.000
 117882293.738 7  91856351.694 7  88029029.906 8  22432214.031
  22432222.922    22432223.422    22432221.293          46.800          46.600
        49.500
 110059819.741 8  85761022.65046                  20943665.852
                  20943673.094                          49.000          37.800

 126045071.265 7  98217072.03444                  23985590.273
                  23985603.078                          43.600          26.200

 117931850.677 8  91895100.70445                  22441671.266
                  22441680.086                          48.000          33.000

 121707478.810 7  94837160.43944                  23160162.375
                  23160172.652                          43.100          26.100

 130972104.991 6 102056280.982 6                  24923174.188
  24923186.797    24923186.930                          39.700          36.400

 131085697.12615                                  24944772.250
                                                        31.300

 14  3 14  0 46  0.0000000  0 14G09G16G23G13G07G19G30G27G03G10G08G28
                                G05G11
 117445154.417 7  91515887.07345                  22349061.742
                  22349071.012                          44.500          31.000

 127266754.199 6  99169049.19143                  24218030.727
                  24218038.652                          40.600          22.600

 119359772.811 7  93007759.88644                  22713392.617
                  22713400.109                          46.200          28.800

 108425828.240 8  84487835.83046                  20632730.047
                  20632737.078                          49.200          40.400

 108141000.952 8  84265868.289 8                  20578524.297
  20578530.270    20578530.668                          48.200          49.300

 112108215.246 7  87357117.97246                  21333455.750
                  21333460.895                          47.700          38.200

 114071363.003 7  88886877.300 7  85183249.494 8  21707035.016
  21707044.926    21707044.910    21707044.367          47.200          47.800
        51.700
 117932104.569 7  91895165.314 7  88066226.310 8  22441692.719
  22441701.645    22441701.934    22441700.094          46.500          46.300
        50.200
 110087872.671 8  85782882.08946                  20949003.711
                  20949010.742                          49.000          38.400

 126114212.446 7  98270948.19944                  23998747.773
                  23998760.453                          44.800          27.000

 117862244.238 8  91840861.99345                  22428425.727
                  22428433.977                          48.300          33.300

 121633011.395 7  94779134.15344                  23145992.203
                  23146002.809                          44.900          27.100

 130960122.628 6 102046944.127 5                  24920894.586
  24920906.547    24920906.852                          39.700          35.700

 130997055.19814                                  24927902.156
                                                        28.600

 14  3 14  0 46 30.0000000  0 14G09G16G23G13G07G19G30G27G03G10G08G28
                                G05G11
 117357942.168 7  91447929.61045                  22332466.086
                  22332474.641                          44.100          30.400

 127367931.276 6  99247888.46543                  24237284.297
                  24237292.223                          41.000          22.500

 119464906.460 7  93089682.12345                  22733399.289
                  22733406.344                          46.700          30.700

 108484184.155 8  84533307.96246                  20643835.383
                  20643841.848                          49.100          40.500

 108108119.553 7  84240246.446 8                  20572266.813
  20572272.965    20572273.332                          47.500          49.100

 112082523.059 8  87337098.11746                  21328566.961
                  21328571.816                          49.400          39.000

 114013068.055 7  88841452.729 7  85139717.631 8  21695941.875
  21695951.902    21695952.016    21695951.414          45.900          47.600
        52.300
 117982444.319 7  91934391.078 7  88103817.678 8  22451272.203
  22451280.609    22451280.715    22451279.875          46.200          45.500
        50.300
 110116568.978 7  85805242.85046                  20954464.242
                  20954471.336                          46.600          37.500

 126183630.667 7  98325040.25344                  24011958.148
                  24011969.602                          45.300          26.900

 117792711.476 8  91786680.68845                  22415194.141
                  22415202.551                          48.300          33.400

 121558789.192 7  94721298.91244                  23131867.555
                  23131879.309                          45.200          28.800

 130948656.307 6 102038009.363 6                  24918712.609
  24918725.086    24918724.789                          39.700          37.000

 130908379.32015                                  24911029.836
                                                        30.700

 14  3 14  0 47  0.0000000  0 14G09G16G23G13G07G19G30G27G03G10G08G28
                                G05G11
 117270843.500 7  91380060.64045                  22315891.281
                  22315900.410                          43.600          32.000

 127469115.591 6  99326733.34043                  24256539.047
                  24256546.883                          40.200          22.200

 119570294.888 7  93171802.89245                  22753454.273
                  22753461.340                          47.500          30.200

 108543063.558 8  84579188.00346                  20655039.688
                  20655046.633                          49.700          40.900

 108075482.514 7  84214815.024 8                  20566056.258
  20566062.629    20566063.039                          46.500          49.200

 112057462.781 8  87317570.66246                  21323797.594
                  21323802.914                          48.700          38.700

 113954930.554 7  88796150.859 8  85096303.345 8  21684878.648
  21684888.367    21684888.367    21684888.059          45.800          48.100
        52.500
 118033311.031 7  91974027.472 7  88141802.546 8  22460951.555
  22460959.379    22460959.715    22460959.516          46.500          44.900
        50.600
 110145907.372 7  85828103.95546                  20960047.477
                  20960054.125                          47.000          37.700

 126253323.351 7  98379346.14744                  24025219.461
                  24025231.660                          44.700          25.800

 117723252.888 7  91732557.17645                  22401977.008
                  22401984.742                          47.800          34.000

 121484813.062 7  94663655.40244                  23117790.469
                  23117800.867                          45.300          28.400

 130937705.790 6 102029476.484 6                  24916628.648
  24916641.297    24916641.250                          38.700          39.300

 130819672.38915                                  24894150.961
                                                        32.400

 14  3 14  0 47 30.0000000  0 14G09G16G23G13G07G19G30G27G03G10G08G28
                                G05G11
 117183860.239 7  91312281.60045                  22299338.906
                  22299348.063                          44.300          31.400

 127570306.013 6  99405582.98343                  24275794.188
                  24275802.301                          40.600          20.400

 119675935.941 7  93254120.50245                  22773556.609
                  22773563.773                          47.200          31.000

 108602465.142 8  84625474.93346                  20666342.820
                  20666350.180                          48.200          40.400

 108043091.434 7  84189575.243 8                  20559892.648
  20559898.707    20559899.516                          47.300          49.400

 112033035.981 8  87298536.84246                  21319149.859
                  21319154.859                          48.900          38.900

 113896951.787 7  88750972.670 7  85053007.601 8  21673845.281
  21673855.438    21673855.441    21673855.133          46.300          47.900
        52.600
 118084703.294 7  92014073.395 7  88180179.871 8  22470731.242
  22470739.680    22470739.422    22470739.750          46.500          44.100
        50.100
 110175886.941 7  85851464.66346                  20965752.125
                  20965759.727                          47.400          37.500

 126323287.582 7  98433863.68144                  24038533.172
                  24038544.574                          44.100          26.400

 117653869.789 7  91678492.49145                  22388773.125
                  22388782.090                          47.300          34.300

 121411083.474 7  94606203.99444                  23103759.984
                  23103770.422                          45.600          28.100

 130927271.272 6 102021345.693 6                  24914642.820
  24914655.969    24914655.934                          38.800          38.900

 130730937.098 5                                  24877263.609
                                                        32.900

 14  3 14  0 48  0.0000000  0 14G09G16G23G13G07G19G30G27G03G10G08G28
                                G05G11
 117096993.279 7  91244593.18545                  22282808.930
                  22282818.367                          44.300          32.400

 127671500.314 6  99484435.65243                  24295051.586
                  24295059.395                          40.500          20.400

 119781827.172 7  93336633.04945                  22793707.570
                  22793714.297                          47.500          31.400

 108662387.232 7  84672167.47046                  20677745.852
                  20677752.465                          47.900          39.700

 108010947.290 7  84164527.893 8                  20553775.438
  20553781.773    20553782.316                          46.800          48.800

 112009243.578 8  87279997.35846                  21314622.391
                  21314627.063                          49.900          38.800

 113839132.339 7  88705918.625 7  85009830.817 8  21662842.734
  21662852.367    21662852.430    21662852.297          46.800          47.800
        52.300
 118136619.201 7  92054527.355 7  88218948.236 8  22480610.750
  22480618.656    22480619.406    22480618.563          46.400          45.200
        49.900
 110206506.402 7  85875323.98346                  20971578.641
                  20971586.605                          47.000          37.900

 126393520.404 7  98488590.48343                  24051897.352
                  24051910.340                          44.100          22.800

 117584562.542 7  91624486.92745                  22375584.180
                  22375593.250                          47.500          34.000

 121337600.739 7  94548944.93844                  23089776.617
                  23089786.879                          45.600          28.900

 130917352.466 6 102013616.722 6                  24912755.734
  24912768.215    24912768.211                          39.400          37.300

 130642176.681 5                                  24860372.766
                                                        35.100

 14  3 14  0 48 30.0000000  0 14G09G16G23G13G07G19G30G27G03G10G08G28
                                G05G11
 117010244.166 7  91176996.58845                  22266300.836
                  22266310.008                          43.600          32.500

 127772697.138 6  99563290.34043                  24314308.047
                  24314316.293                          40.300          21.700

 119887966.167 7  93419338.66545                  22813904.805
                  22813912.230                          47.700          31.300

 108722828.968 8  84719264.91346                  20689247.555
                  20689253.914                          48.700          40.200

 107979051.287 7  84139673.892 8                  20547706.055
  20547712.500    20547712.816                          47.000          48.800

 111986086.649 8  87261953.03346                  21310215.742
                  21310220.684                          49.200          39.200

 113781473.239 7  88660989.529 8  84966773.780 8  21651871.188
  21651880.582    21651880.746    21651880.559          46.900          48.400
        52.800
 118189057.023 7  92095387.993 7  88258106.355 8  22490589.805
  22490597.793    22490598.195    22490596.180          46.400          46.000
        49.900
 110237764.428 8  85899680.89546                  20977527.141
                  20977534.156                          48.100          37.500

 126464019.031 7  98543524.40943                  24065313.117
                  24065325.602                          43.300          22.500

 117515332.174 7  91570541.28645                  22362410.344
                  22362419.043                          47.300          34.600

 121264365.443 7  94491878.69444                  23075840.141
                  23075850.148                          45.600          28.000

 130907949.349 6 102006289.661 5                  24910965.891
  24910978.199    24910977.938                          39.600          33.700

 130553393.919 6                                  24843478.172
                                                        36.900

 14  3 14  0 49  0.0000000  0 14G09G16G23G13G07G19G30G27G03G10G08G28
                                G05G11
 116923613.735 7  91109492.48245                  22249815.430
                  22249824.531                          44.000          32.000

 127873894.756 6  99642145.61443                  24333565.336
                  24333573.984                          40.700          21.300

 119994350.018 7  93502235.08845                  22834149.828
                  22834156.777                          47.900          31.700

 108783788.021 8  84766765.45546                  20700847.867
                  20700854.188                          48.900          40.300

 107947403.628 7  84115013.411 8                  20541683.758
  20541689.668    20541690.211                          47.000          48.900

 111963566.067 8  87244404.55546                  21305930.211
                  21305935.379                          48.800          39.000

 113723974.881 7  88616185.686 8  84923836.776 8  21640929.148
  21640938.887    21640939.133    21640938.648          47.500          48.500
        52.700
 118242014.518 7  92136653.561 7  88297652.532 8  22500667.148
  22500675.477    22500675.777    22500673.293          47.300          45.800
        49.500
 110269659.474 7  85924534.17946                  20983596.039
                  20983603.742                          46.400          37.900

 126534779.855 7  98598662.68343                  24078778.938
                  24078790.219                          43.000          23.000

 117446178.810 7  91516655.63445                  22349250.492
                  22349259.500                          47.600          34.900

 121191377.793 7  94435005.39744                  23061951.016
                  23061960.465                          45.900          26.900

 130899061.244 6 101999363.942 6                  24909273.797
  24909286.770    24909286.785                          39.600          36.500

 130464591.379 5                                  24826578.492
                                                        35.800

 14  3 14  0 49 30.0000000  0 14G09G16G23G13G07G19G30G27G03G10G08G28
                                G05G11
 116837103.701 7  91042082.17945                  22233353.570
                  22233362.000                          44.100          32.000

 127975092.253 6  99721000.80843                  24352823.164
                  24352830.613                          41.600          20.900

 120100976.913 7  93585320.89445                  22854440.305
                  22854447.695                          47.000          31.100

 108845263.706 8  84814668.56246                  20712546.320
                  20712552.844                          49.500          39.900

 107916006.498 8  84090548.147 8                  20535708.703
  20535715.262    20535715.996                          48.100          49.100

 111941683.213 8  87227353.02246                  21301765.656
                  21301770.668                          49.400          39.000

 113666638.582 7  88571508.126 8  84881020.788 8  21630018.297
  21630027.711    21630028.258    21630027.832          47.500          48.300
        52.700
 118295490.320 7  92178323.012 7  88337585.761 8  22510843.203
  22510851.789    22510851.922    22510850.438          45.800          46.300
        49.600
 110302190.607 8  85949883.11546                  20989787.188
                  20989794.902                          48.800          37.700

 126605800.457 7  98654003.33043                  24092293.664
                  24092306.063                          42.900          22.500

 117377103.753 7  91462831.00945                  22336106.391
                  22336114.844                          46.100          34.100

 121118638.944 7  94378325.98144                  23048109.547
                  23048119.242                          43.700          27.400

 130890688.535 6 101992839.779 6                  24907681.016
  24907693.371    24907693.191                          38.100          38.700

 130375772.089 5                                  24809675.453
                                                        33.400

 14  3 14  0 50  0.0000000  0 14G09G16G23G13G07G19G30G27G03G10G08G28
                                G05G11
 116750715.213 7  90974766.60345                  22216913.836
                  22216922.625                          45.100          32.400

 128076287.709 6  99799854.42543                  24372080.719
                  24372087.598                          40.500          21.500

 120207844.273 7  93668594.07445                  22874776.078
                  22874783.086                          47.200          30.600

 108907254.102 8  84862972.76446                  20724342.516
                  20724349.633                          48.400          40.500

 107884860.730 7  84066278.753 8                  20529781.820
  20529788.426    20529789.406                          47.100          49.100

 111920439.065 8  87210799.17446                  21297722.617
                  21297727.410                          48.900          38.700

 113609465.055 8  88526957.393 8  84838326.353 8  21619138.227
  21619147.961    21619148.352    21619147.867          48.100          48.300
        52.500
 118349482.370 7  92220394.740 7  88377904.488 8  22521117.320
  22521125.965    22521125.945    22521125.219          46.800          46.600
        50.500
 110335356.585 8  85975726.73646                  20996098.375
                  20996105.547                          48.300          38.100

 126677077.792 7  98709544.03943                  24105857.656
                  24105870.078                          42.600          22.900

 117308107.788 7  91409068.01645                  22322976.477
                  22322984.641                          46.800          34.200

 121046148.658 7  94321840.23744                  23034314.602
                  23034323.754                          44.600          27.800

 130882830.616 6 101986716.694 6                  24906186.125
  24906199.074    24906197.727                          40.500          39.500

 130286938.531 5 101522298.85452                  24792771.422
                  24792781.613                          33.700          16.300

 14  3 14  0 50 30.0000000  0 14G09G16G23G13G07G19G30G27G03G10G08G28
                                G05G11
 116664449.813 7  90907546.92845                  22200497.273
                  22200506.773                          43.800          33.100

 128177479.690 6  99878705.32543                  24391336.773
                  24391344.395                          41.800          21.800

 120314949.502 7  93752052.60844                  22895157.953
                  22895164.488                          46.900          29.900

 108969758.088 8  84911677.15546                  20736236.633
                  20736243.563                          48.400          40.400

 107853967.349 7  84042206.021 8                  20523903.273
  20523909.672    20523910.133                          47.700          49.000

 111899834.630 8  87194743.81346                  21293802.016
                  21293807.152                          48.800          38.700

 113552455.251 7  88482534.238 7  84795754.177 8  21608289.539
  21608299.254    21608299.449    21608299.320          46.900          47.600
        52.300
 118403988.915 7  92262867.371 7  88418607.422 8  22531489.469
  22531498.238    22531498.711    22531498.160          47.200          47.200
        50.300
 110369155.905 8  86002063.87946                  21002529.852
                  21002537.082                          49.200          37.600

 126748608.833 7  98765282.45443                  24119469.805
                  24119480.934                          42.700          23.400

 117239191.796 7  91355367.33345                  22309861.922
                  22309870.840                          47.200          34.100

 120973907.285 7  94265548.40544                  23020566.664
                  23020576.043                          42.800          27.700

 130875487.638 6 101980994.888 6                  24904789.172
  24904801.188    24904801.195                          40.500          38.300

 130198093.83515 101453069.43952                  24775863.703
                  24775873.355                          34.300          17.400

 14  3 14  0 51  0.0000000  0 14G09G16G23G13G07G19G30G27G03G10G08G28
                                G05G11
 116578309.020 7  90840424.36345                  22184105.289
                  22184114.527                          43.800          32.100

 128278666.808 7  99957552.43143                  24410591.781
                  24410599.547                          42.300          21.700

 120422290.366 7  93835694.75544                  22915584.164
                  22915590.621                          46.700          28.800

 109032774.129 7  84960780.55946                  20748228.273
                  20748235.594                          47.900          39.700

 107823327.596 8  84018330.937 8                  20518072.750
  20518079.285    20518079.328                          48.500          49.000

 111879871.414 8  87179188.09946                  21290003.164
                  21290008.289                          49.000          38.600

 113495610.207 7  88438239.470 7  84753305.037 8  21597472.094
  21597482.148    21597482.145    21597481.840          47.200          47.800
        52.800
 118459008.213 7  92305739.539 7  88459693.255 8  22541959.906
  22541967.727    22541968.176    22541967.449          45.600          46.200
        50.300
 110403587.510 7  86028893.70346                  21009082.266
                  21009089.602                          47.500          37.600

 126820390.670 7  98821216.27644                  24133130.156
                  24133140.828                          44.200          24.000

 117170356.655 7  91301729.66445                  22296763.469
                  22296771.270                          47.600          34.500

 120901915.526 7  94209451.09844                  23006866.867
                  23006875.590                          43.800          26.900

 130868659.389 6 101975674.215 6                  24903489.195
  24903501.066    24903501.512                          37.800          36.300

 130109240.912 5 101383833.58643                  24758955.914
                  24758964.434                          35.400          18.300

 14  3 14  0 51 30.0000000  0 14G09G16G23G13G07G19G30G27G03G10G08G28
                                G05G11
 116492293.739 7  90773399.59045                  22167737.516
                  22167746.617                          44.400          32.500

 128379847.454 7 100036394.48643                  24429845.281
                  24429853.211                          42.000          20.100

 120529864.055 7  93919518.34344                  22936054.563
                  22936060.809                          45.900          27.100

 109096300.230 7  85010281.40246                  20760316.602
                  20760323.926                          47.900          39.900

 107792942.638 7  83994654.390 8                  20512290.594
  20512296.660    20512297.172                          47.800          49.300

 111860550.111 8  87164132.57546                  21286326.109
                  21286331.363                          48.800          39.200

 113438930.443 7  88394073.494 8  84710979.317 8  21586686.719
  21586696.012    21586696.340    21586695.973          46.900          48.000
        53.200
 118514537.970 7  92349009.485 7  88501160.291 8  22552526.242
  22552534.852    22552535.039    22552534.023          45.800          46.300
        50.000
 110438649.832 7  86056215.00046                  21015754.664
                  21015761.879                          46.800          37.400

 126892420.089 7  98877343.00043                  24146835.922
                  24146847.680                          42.700          22.500

 117101602.838 7  91248155.34345                  22283679.492
                  22283687.758                          47.300          34.500

 120830174.060 7  94153548.80244                  22993214.898
                  22993223.586                          43.900          27.900

 130862345.308 6 101970754.188 6                  24902287.242
  24902299.313    24902300.098                          38.900          37.300

 130020382.480 6 101314593.46643                  24742046.633
                  24742054.563                          36.500          18.300

 14  3 14  0 52  0.0000000  0 14G09G16G23G13G07G19G30G27G03G10G08G28
                                G05G11
 116406405.365 7  90706473.69245                  22151393.359
                  22151402.211                          45.600          32.100

 128481020.057 7 100115230.28343                  24449098.055
                  24449105.273                          42.100          20.600

 120637668.022 7  94003521.36744                  22956569.242
                  22956575.371                          45.000          25.900

 109160334.955 8  85060178.57546                  20772502.109
                  20772508.859                          49.100          39.200

 107762813.009 7  83971176.794 8                  20506557.219
  20506563.293    20506563.480                          47.500          49.200

 111841871.119 8  87149577.56346                  21282771.813
                  21282777.172                          49.500          39.000

 113382416.756 7  88350036.925 8  84668777.612 8  21575932.102
  21575941.984    21575941.957    21575941.707          47.200          48.200
        53.000
 118570576.175 7  92392675.618 7  88543007.009 8  22563189.875
  22563198.504    22563198.820    22563197.688          45.900          46.400
        49.100
 110474341.089 7  86084026.36446                  21022546.070
                  21022553.344                          47.800          37.100

 126964693.927 7  98933660.20243                  24160589.898
                  24160600.156                          42.700          22.500

 117032931.098 7  91194644.98845                  22270611.648
                  22270620.215                          47.600          33.500

 120758682.867 7  94097841.53744                  22979610.727
                  22979620.316                          46.000          27.100

 130856544.355 6 101966234.002 6                  24901183.297
  24901196.391    24901196.961                          40.000          38.200

 129931521.561 6 101245351.38543                  24725137.289
                  24725145.117                          38.600          19.000

 14  3 14  0 52 30.0000000  0 14G09G16G23G13G07G19G30G27G03G10G08G28
                                G05G11
 116320645.327 7  90639647.80345                  22135073.875
                  22135082.750                          45.000          32.700

 128582182.950 6 100194058.49943                  24468347.867
                  24468355.668                          41.800          21.300

 120745699.607 7  94087701.75544                  22977127.258
                  22977133.398                          44.900          27.000

 109224876.781 8  85110470.90046                  20784784.594
                  20784790.891                          50.100          39.400

 107732940.111 8  83947899.241 8                  20500872.422
  20500878.430    20500879.020                          49.100          49.400

 111823835.934 8  87135524.21146                  21279339.953
                  21279345.047                          49.100          39.200

 113326070.006 8  88306130.426 8  84626700.575 8  21565209.922
  21565219.270    21565219.344    21565219.035          48.200          48.600
        53.300
 118627120.864 7  92436736.401 7  88585231.942 8  22573950.445
  22573958.691    22573959.121    22573957.691          46.100          46.000
        49.100
 110510659.693 8  86112326.57046                  21029457.398
                  21029464.480                          48.300          36.600

 127037209.263 6  98990165.60543                  24174388.500
                  24174402.148                          40.400          22.500

 116964342.057 7  91141199.07345                  22257559.391
                  22257567.859                          47.300          34.400

 120687442.636 7  94042329.82044                  22966054.328
                  22966062.340                          44.500          27.400

 130851256.657 6 101962113.726 6                  24900177.047
  24900190.359    24900190.340                          40.200          38.100

 129842661.381 6 101176109.86543                  24708227.180
                  24708235.723                          38.900          20.600

 14  3 14  0 53  0.0000000  0 14G09G16G23G13G07G19G30G27G03G10G08G28
                                G05G11
 116235015.244 7  90572923.18445                  22118778.570
                  22118787.156                          44.800          33.000

 128683335.059 6 100272878.35143                  24487597.352
                  24487603.984                          40.000          21.100

 120853957.042 7  94172058.11644                  22997728.102
                  22997733.613                          46.700          27.000

 109289924.839 8  85161157.67846                  20797162.336
                  20797169.324                          49.200          40.000

 107703325.506 8  83924822.958 8                  20495236.891
  20495243.305    20495243.789                          48.800          49.100

 111806445.554 8  87121973.30046                  21276030.281
                  21276035.559                          49.200          38.400

 113269891.592 7  88262355.091 8  84584749.230 8  21554519.219
  21554528.680    21554529.043    21554528.559          47.600          48.300
        52.800
 118684170.584 7  92481190.715 7  88627834.002 8  22584806.938
  22584814.520    22584814.820    22584813.859          46.300          46.300
        48.900
 110547604.744 7  86141114.94246                  21036487.602
                  21036494.852                          47.800          37.300

 127109963.227 6  99046856.90843                  24188233.023
                  24188246.250                          41.500          23.900

 116895837.342 7  91087818.85245                  22244523.813
                  22244532.148                          47.100          34.900

 120616453.833 7  93987014.00144                  22952545.625
                  22952555.508                          42.000          28.100

 130846482.323 6 101958393.524 6                  24899268.969
  24899281.691    24899281.508                          37.900          38.200

 129753803.785 6 101106870.39843                  24691318.063
                  24691327.375                          38.800          19.900

 14  3 14  0 53 30.0000000  0 14G09G16G23G13G07G19G30G27G03G10G08G28
                                G05G11
 116149515.861 7  90506300.41245                  22102508.922
                  22102517.574                          45.600          32.900

 128784474.736 6 100351688.51443                  24506843.523
                  24506850.379                          40.500          21.700

 120962437.134 7  94256588.00744                  23018371.078
                  23018376.895                          45.900          28.400

 109355476.767 7  85212237.07846                  20809636.547
                  20809643.523                          47.800          39.500

 107673969.573 7  83901948.240 8                  20489650.281
  20489657.074    20489657.391                          47.600          49.700

 111789699.958 8  87108924.82046                  21272844.000
                  21272848.586                          49.600          39.200

 113213881.957 7  88218711.275 8  84542923.921 8  21543861.164
  21543870.398    21543871.039    21543870.262          47.400          48.400
        53.200
 118741722.812 7  92526036.605 7  88670811.306 8  22595758.695
  22595766.793    22595766.801    22595766.016          44.800          46.100
        49.400
 110585174.194 7  86170389.83846                  21043636.625
                  21043643.918                          46.500          37.400

 127182952.653 7  99103731.72144                  24202123.242
                  24202135.465                          43.400          24.400

 116827417.186 8  91034504.52945                  22231503.813
                  22231512.422                          48.700          35.700

 120545716.574 7  93931894.18244                  22939084.227
                  22939094.730                          45.300          28.900

 130842220.482 6 101955072.614 6                  24898458.250
  24898470.387    24898470.516                          38.200          37.900

 129664952.380 6 101037635.70243                  24674409.289
                  24674420.230                          39.500          21.300

 14  3 14  0 54  0.0000000  0 14G09G16G23G13G07G19G30G27G03G10G08G28
                                G05G11
 116064148.665 7  90439780.62845                  22086264.086
                  22086272.531                          46.300          32.100

 128885600.661 6 100430487.94643                  24526087.906
                  24526093.727                          40.100          22.900

 121071137.546 7  94341289.55044                  23039056.250
                  23039062.277                          46.000          28.800

 109421530.577 8  85263707.58446                  20822206.234
                  20822213.254                          48.900          40.000

 107644874.020 7  83879276.421 8                  20484113.867
  20484120.461    20484121.273                          47.600          49.500

 111773600.583 8  87096379.89046                  21269780.164
                  21269784.938                          48.300          38.100

 113158042.029 7  88175199.700 8  84501225.345 8  21533235.008
  21533244.871    21533244.938    21533244.219          47.500          48.300
        52.700
 118799775.696 7  92571272.621 7  88714162.485 8  22606805.805
  22606814.137    22606814.133    22606812.941          44.500          46.300
        50.000
 110623366.909 8  86200150.39646                  21050905.047
                  21050911.785                          48.900          37.700

 127256174.622 6  99160787.66144                  24216056.789
                  24216068.730                          41.600          24.100

 116759082.494 7  90981256.80645                  22218500.367
                  22218508.832                          46.800          35.900

 120475231.106 7  93876970.57344                  22925671.844
                  22925680.547                          43.200          28.900

 130838470.966 6 101952150.909 6                  24897745.469
  24897756.340    24897756.992                          40.500          36.900

 129576109.781 6 100968407.90543                  24657503.102
                  24657514.211                          40.200          21.500

 14  3 14  0 54 30.0000000  0 14G09G16G23G13G07G19G30G27G03G10G08G28
                                G05G11
 115978915.284 7  90373365.12345                  22070044.289
                  22070053.293                          45.500          32.500

 128986711.425 6 100509275.57543                  24545328.586
                  24545334.816                          40.900          22.500

 121180055.799 7  94426160.84944                  23059782.883
                  23059788.840                          45.900          29.900

 109488085.171 8  85315568.29246                  20834871.047
                  20834877.969                          48.200          40.000

 107616039.634 8  83856808.091 8                  20478626.820
  20478633.102    20478633.750                          48.100          49.800

 111758148.058 8  87084339.00046                  21266839.398
                  21266844.742                          48.700          38.500

 113102372.779 7  88131821.117 8  84459654.220 8  21522641.633
  21522651.121    21522651.281    21522650.680          47.600          48.600
        53.000
 118858327.215 7  92616897.176 7  88757886.024 8  22617947.266
  22617956.285    22617956.629    22617955.199          45.200          46.300
        49.600
 110662181.221 7  86230395.32046                  21058290.914
                  21058297.703                          47.600          37.600

 127329626.057 7  99218022.42144                  24230034.531
                  24230046.215                          42.800          24.000

 116690834.025 7  90928076.27545                  22205512.875
                  22205521.516                          46.800          35.800

 120404998.117 6  93822243.73944                  22912306.453
                  22912315.816                          41.900          29.300

 130835232.855 6 101949627.769 6                  24897129.500
  24897140.246    24897140.527                          39.500          37.600

 129487279.004 6 100899189.31443                  24640599.016
                  24640610.797                          39.700          21.300

 14  3 14  0 55  0.0000000  0 14G09G16G23G13G07G19G30G27G03G10G08G28
                                G05G11
 115893817.157 7  90307055.00045                  22053850.602
                  22053859.082                          45.400          31.400

 129087805.645 6 100588050.26543                  24564566.242
                  24564572.191                          40.600          22.200

 121289189.317 7  94511199.88444                  23080550.125
                  23080556.715                          45.200          29.600

 109555139.002 8  85367818.01446                  20847631.008
                  20847638.266                          48.700          40.600

 107587467.742 7  83834544.332 8                  20473189.883
  20473195.695    20473196.215                          47.200          49.100

 111743343.242 8  87072802.80946                  21264022.508
                  21264027.602                          48.500          38.100

 113046875.226 7  88088576.326 8  84418211.308 8  21512080.984
  21512090.371    21512090.789    21512089.836          46.600          49.300
        53.000
 118917375.488 7  92662908.810 7  88801980.514 8  22629183.938
  22629192.891    22629193.082    22629191.887          45.000          46.300
        50.000
 110701615.632 8  86261123.43046                  21065795.039
                  21065802.648                          48.100          37.100

 127403304.094 6  99275433.80544                  24244054.281
                  24244067.172                          40.400          24.700

 116622672.796 7  90874963.71245                  22192542.086
                  22192551.074                          46.800          35.900

 120335017.699 6  93767713.68144                  22898989.625
                  22898999.195                          41.100          28.900

 130832506.104 6 101947503.079 6                  24896608.508
  24896622.289    24896621.965                          38.300          37.900

 129398462.887 6 100829982.16243                  24623698.117
                  24623708.457                          39.400          22.200

 14  3 14  0 55 30.0000000  0 14G09G16G23G13G07G19G30G27G03G10G08G28
                                G05G11
 115808855.500 7  90240851.21945                  22037682.859
                  22037691.176                          45.100          31.800

 129188881.721 6 100666810.87243                  24583799.719
                  24583806.672                          40.600          21.300

 121398535.660 7  94596404.75244                  23101357.828
                  23101365.320                          44.300          29.100

 109622689.971 8  85420455.11146                  20860485.078
                  20860492.383                          48.500          39.500

 107559159.570 7  83812486.055 8                  20467803.164
  20467809.078    20467809.168                          47.300          48.700

 111729186.590 8  87061771.67646                  21261328.508
                  21261333.820                          49.600          39.200

 112991550.205 8  88045465.969 8  84376897.237 8  21501552.680
  21501562.078    21501562.695    21501561.629          48.500          48.000
        52.900
 118976918.331 7  92709305.825 7  88846444.321 8  22640514.438
  22640522.793    22640523.074    22640522.641          45.900          45.800
        50.300
 110741668.352 8  86292333.35046                  21073416.656
                  21073423.766                          49.500          37.700

 127477205.637 6  99333019.30943                  24258117.414
                  24258130.395                          41.000          23.200

 116554599.661 8  90821919.79645                  22179588.281
                  22179596.820                          48.300          35.900

 120265290.261 7  93713380.72844                  22885719.969
                  22885729.539                          43.700          28.500

 130830290.337 6 101945776.508 6                  24896187.031
  24896200.688    24896200.227                          37.100          38.400

 129309664.450 6 100760788.74743                  24606800.461
                  24606810.324                          38.300          21.800

 14  3 14  0 56  0.0000000  0 14G09G16G23G13G07G19G30G27G03G10G08G28
                                G05G11
 115724031.954 7  90174755.06745                  22021541.383
                  22021549.922                          45.100          32.500

 129289938.484 6 100745556.40443                  24603029.742
                  24603037.945                          41.700          22.200

 121508092.428 7  94681773.56244                  23122205.961
                  23122213.004                          44.000          29.800

 109690736.784 8  85473478.59946                  20873433.875
                  20873440.984                          49.500          39.000

 107531116.313 7  83790634.195 8                  20462466.398
  20462471.992    20462472.352                          47.200          49.500

 111715679.197 8  87051246.46646                  21258758.141
                  21258763.238                          48.600          39.000

 112936398.805 8  88002490.911 8  84335712.814 8  21491057.547
  21491067.066    21491067.129    21491066.297          48.200          48.700
        53.200
 119036953.890 7  92756086.796 7  88891276.067 8  22651939.422
  22651947.109    22651946.809    22651946.902          45.500          44.700
        50.500
 110782338.367 8  86324024.26846                  21081155.797
                  21081162.871                          49.100          37.100

 127551327.885 6  99390776.82243                  24272222.000
                  24272235.066                          39.900          22.800

 116486615.663 8  90768945.32145                  22166651.109
                  22166659.555                          49.100          35.000

 120195816.308 7  93659245.34944                  22872500.648
                  22872509.277                          46.600          29.300

 130828585.138 6 101944447.768 6                  24895863.102
  24895875.414    24895875.723                          39.800          36.600

 129220886.690 6 100691611.46343                  24589906.336
                  24589915.754                          38.200          21.700

 14  3 14  0 56 30.0000000  0 14G09G16G23G13G07G19G30G27G03G10G08G28
                                G05G11
 115639347.740 7  90108767.48545                  22005426.680
                  22005434.891                          46.300          32.300

 129390974.329 6 100824285.65943                  24622256.375
                  24622263.941                          40.600          22.600

 121617857.008 7  94767304.34644                  23143093.273
                  23143101.418                          43.800          29.700

 109759277.529 7  85526886.96046                  20886477.023
                  20886483.551                          47.800          39.200

 107503338.771 7  83768989.385 8                  20457180.547
  20457186.602    20457186.863                          47.000          48.900

 111702821.522 8  87041227.52746                  21256310.938
                  21256316.703                          48.000          39.400

 112881421.753 8  87959651.712 8  84294658.589 8  21480595.945
  21480605.441    21480605.516    21480604.449          48.100          48.500
        52.600
 119097479.877 7  92803249.933 7  88936474.048 8  22663456.953
  22663465.035    22663464.816    22663464.969          45.100          44.600
        50.300
 110823623.380 7  86356194.41346                  21089012.203
                  21089019.320                          47.900          36.900

 127625667.630 6  99448703.78243                  24286369.242
                  24286381.660                          40.800          23.600

 116418721.516 8  90716040.87845                  22153731.242
                  22153739.215                          48.700          35.500

 120126595.911 7  93605307.50544                  22859327.234
                  22859337.227                          43.700          29.000

 130827389.683 6 101943516.335 6                  24895636.063
  24895647.793    24895647.992                          39.700          36.900

 129132132.202 6 100622452.33543                  24573015.977
                  24573026.457                          39.500          22.000

 14  3 14  0 57  0.0000000  0 14G09G16G23G13G07G19G30G27G03G10G08G28
                                G05G11
 115554804.363 7  90042889.64945                  21989338.047
                  21989346.391                          45.500          32.600

 129491987.989 6 100902997.59843                  24641479.102
                  24641486.277                          39.800          22.000

 121727826.802 7  94852995.01444                  23164020.086
                  23164028.016                          42.900          27.800

 109828310.491 8  85580678.85546                  20899614.273
                  20899620.754                          49.500          39.800

 107475828.103 8  83747552.523 8                  20451945.578
  20451951.359    20451951.770                          48.000          49.100

 111690614.351 8  87031715.46946                  21253988.227
                  21253993.375                          48.800          39.700

 112826620.001 8  87916949.101 8  84253735.270 8  21470167.281
  21470177.023    21470177.121    21470176.227          48.900          48.700
        52.200
 119158494.267 7  92850793.597 7  88982036.736 8  22675067.727
  22675075.934    22675076.176    22675075.625          45.900          45.400
        50.600
 110865521.889 8  86388842.61146                  21096984.906
                  21096992.445                          48.300          36.800

 127700221.758 6  99506797.84344                  24300555.352
                  24300568.383                          40.700          25.600

 116350918.031 8  90663207.07045                  22140828.219
                  22140836.395                          48.800          35.400

 120057629.675 7  93551567.71144                  22846203.703
                  22846213.086                          44.600          29.100

 130826703.151 6 101942981.374 6                  24895504.461
  24895516.840    24895516.770                          37.100          38.600

 129043404.057 6 100553313.69943                  24556131.555
                  24556141.875                          38.100          21.100

 14  3 14  0 57 30.0000000  0 14G09G16G23G13G07G19G30G27G03G10G08G28
                                G05G11
 115470403.120 7  89977122.57545                  21973277.055
                  21973285.363                          44.700          32.300

 129592978.098 6 100981691.18943                  24660696.609
                  24660703.441                          40.100          21.800

 121837999.255 7  94938843.58344                  23184984.984
                  23184993.125                          43.300          28.000

 109897833.675 8  85634852.75046                  20912843.914
                  20912850.648                          50.200          39.600

 107448585.838 7  83726324.806 8                  20446761.109
  20446767.078    20446767.770                          46.700          49.300

 111679058.165 8  87022710.68446                  21251789.367
                  21251794.586                          48.800          39.200

 112771994.494 8  87874383.826 8  84212943.553 8  21459772.375
  21459781.813    21459782.012    21459781.293          49.100          48.700
        52.400
 119219994.890 7  92898716.158 7  89027962.534 8  22686771.125
  22686778.734    22686779.469    22686778.453          45.800          45.800
        49.500
 110908032.273 8  86421967.57446                  21105074.664
                  21105081.730                          48.400          36.700

 127774987.184 7  99565056.53844                  24314784.844
                  24314797.020                          42.600          25.000

 116283206.182 7  90610444.66945                  22127943.484
                  22127950.746                          47.600          35.800

 119988917.797 7  93498026.15544                  22833128.492
                  22833137.934                          43.900          29.700

 130826525.283 6 101942842.722 6                  24895470.711
  24895483.352    24895482.227                          36.900          38.600

 128954705.222 6 100484197.92143                  24539253.375
                  24539262.469                          37.600          22.200

 14  3 14  0 58  0.0000000  0 14G09G16G23G13G07G19G30G27G03G10G08G28
                                G05G11
 115386145.156 7  89911467.13345                  21957243.133
                  21957251.469                          45.300          32.600

 129693942.956 6 101060365.13243                  24679909.484
                  24679916.617                          39.100          20.900

 121948371.556 7  95024847.87544                  23205988.438
                  23205996.645                          44.600          26.300

 109967845.136 8  85689407.11346                  20926166.203
                  20926173.629                          49.600          39.400

 107421612.173 7  83705306.405 8                  20441628.578
  20441633.980    20441634.684                          47.500          49.300

 111668153.090 8  87014213.26646                  21249713.969
                  21249719.355                          48.000          39.400

 112717545.821 8  87831956.333 8  84172283.895 8  21449410.883
  21449420.117    21449420.230    21449419.570          48.500          48.800
        52.900
 119281979.245 7  92947015.635 7  89074249.561 8  22698565.938
  22698574.227    22698574.465    22698573.563          44.700          45.100
        49.700
 110951152.277 8  86455567.58146                  21113280.305
                  21113287.578                          49.600          37.300

 127849960.747 6  99623477.40944                  24329050.516
                  24329064.492                          41.400          25.700

 116215586.768 7  90557754.28646                  22115075.461
                  22115083.359                          47.200          36.100

 119920459.950 7  93444682.49644                  22820101.164
                  22820110.617                          42.900          28.600

 130826855.158 6 101943099.809 6                  24895533.523
  24895545.754    24895546.277                          38.700          37.300

 128866038.523 6 100415107.17643                  24522380.523
                  24522390.008                          37.200          21.500

 14  3 14  0 58 30.0000000  0 14G09G16G23G13G07G19G30G27G03G10G08G28
                                G05G11
 115302032.312 7  89845924.76845                  21941236.805
                  21941244.711                          46.000          32.900

 129794881.638 6 101139018.67343                  24699117.875
                  24699124.695                          39.200          20.600

 122058941.560 7  95111006.23444                  23227029.734
                  23227037.152                          45.700          28.500

 110038343.432 8  85744340.82646                  20939581.539
                  20939589.145                          49.300          38.600

 107394909.081 8  83684498.829 8                  20436547.117
  20436553.141    20436553.633                          49.000          49.500

 111657900.067 7  87006223.92546                  21247762.930
                  21247767.918                          47.800          39.500

 112663275.348 8  87789667.710 8  84131757.301 8  21439083.875
  21439093.340    21439093.648    21439092.695          48.700          48.500
        52.900
 119344445.715 7  92995690.791 7  89120896.590 8  22710452.539
  22710461.477    22710461.102    22710460.668          44.700          44.700
        50.300
 110994880.567 8  86489641.57846                  21121601.523
                  21121608.477                          48.800          36.500

 127925139.852 7  99682058.39443                  24343357.289
                  24343370.156                          42.800          22.900

 116148060.727 7  90505136.67345                  22102225.859
                  22102233.758                          46.600          35.200

 119852256.947 7  93391537.46244                  22807122.016
                  22807131.797                          44.800          28.000

 130827692.423 6 101943752.322 5                  24895692.883
  24895705.070    24895705.406                          39.100          35.100

 128777406.995 6 100346043.80843                  24505513.297
                  24505523.625                          37.500          22.600

 14  3 14  0 59  0.0000000  0 14G09G16G23G13G07G19G30G27G03G10G08G28
                                G05G11
 115218065.938 7  89780496.52845                  21925258.516
                  21925267.066                          45.600          32.100

 129895792.672 6 101217650.69842                  24718320.461
                  24718328.219                          37.700          17.800

 122169706.397 7  95197316.43044                  23248107.133
                  23248115.078                          45.100          27.300

 110109326.733 8  85799652.47646                  20953089.172
                  20953096.656                          50.200          38.600

 107368477.322 8  83663902.671 8                  20431517.320
  20431522.914    20431523.473                          48.700          49.200

 111648299.532 8  86998743.03346                  21245936.109
                  21245941.109                          48.800          39.200

 112609183.811 8  87747518.520 8  84091364.333 8  21428790.391
  21428799.898    21428799.793    21428799.133          49.600          48.800
        53.400
 119407391.901 7  93044739.768 7  89167901.839 8  22722430.695
  22722439.461    22722439.344    22722438.617          43.800          44.200
        50.100
 111039215.591 8  86524188.36346                  21130038.266
                  21130045.488                          49.800          36.400

 128000521.018 7  99740796.95644                  24357701.484
                  24357714.414                          43.500          24.500

 116080628.871 7  90452592.46445                  22089393.945
                  22089402.223                          47.900          35.400

 119784308.970 7  93338591.13044                  22794192.344
                  22794201.910                          44.600          29.100

 130829036.863 6 101944799.933 6                  24895948.922
  24895960.285    24895961.043                          36.600          36.600

 128688813.596 6 100277010.17343                  24488654.828
                  24488664.949                          37.800          22.000

 14  3 14  0 59 30.0000000  0 14G09G16G23G13G07G19G30G27G03G10G08G28
                                G05G11
 115134248.056 7  89715184.01445                  21909308.477
                  21909317.191                          45.700          32.800

 129996675.044 5 101296260.30242                  24737517.203
                  24737524.438                          35.400          16.300

 122280664.199 7  95283776.97944                  23269222.117
                  23269229.559                          44.400          26.700

 110180793.448 8  85855340.81346                  20966688.836
                  20966695.871                          50.000          39.200

 107342318.965 7  83643519.563 8                  20426539.453
  20426545.309    20426545.633                          47.800          49.000

 111639352.520 8  86991771.37246                  21244233.656
                  21244238.055                          49.300          39.000

 112555272.711 8  87705509.920 8  84051106.114 8  21418531.430
  21418541.031    21418540.906    21418540.480          48.100          49.000
        52.800
 119470816.129 7  93094161.246 7  89215264.066 8  22734500.039
  22734508.441    22734508.656    22734507.402          43.900          44.600
        49.500
 111084155.507 8  86559206.48946                  21138589.992
                  21138596.566                          49.300          36.500

 128076101.569 7  99799690.78643                  24372084.414
                  24372097.832                          42.700          23.000

 116013292.725 8  90400122.83145                  22076580.547
                  22076588.332                          48.500          35.400

 119716617.014 7  93285844.29344                  22781310.438
                  22781319.484                          44.900          28.800

 130830887.226 6 101946241.774 6                  24896301.250
  24896313.609    24896313.680                          39.200          38.600

 128600261.545 6 100208008.73043                  24471804.031
                  24471813.391                          38.500          22.000

 14  3 14  1  0  0.0000000  4  6
DSRC                                                        MARKER NUMBER
DSRC (COGO code)                                            COMMENT
   0.000      (antenna height)                              COMMENT
 +39.99147598 (latitude)                                    COMMENT
-105.26107939 (longitude)                                   COMMENT
1655.057      (elevation)                                   COMMENT
 14  3 14  1  0  0.0000000  0 14G09G16G23G13G07G19G30G27G03G10G08G28
                                G05G11
 115050579.857 7  89649988.13545                  21893386.500
                  21893395.352                          46.200          33.200

 130097527.44015 101374846.56352                  24756708.391
                  24756715.176                          34.200          15.600

 122391812.231 7  95370385.75544                  23290372.523
                  23290380.348                          44.300          25.300

 110252741.888 8  85911404.50646                  20980380.336
                  20980387.383                          50.200          38.600

 107316434.778 8  83623350.058 8                  20421614.258
  20421619.938    20421620.105                          48.100          49.100

 111631059.307 8  86985309.16246                  21242655.188
                  21242660.102                          49.200          39.600

 112501542.883 8  87663642.589 8  84010983.260 8  21408307.156
  21408316.262    21408316.434    21408315.539          48.000          48.700
        52.900
 119534716.077 7  93143953.402 7  89262981.537 8  22746659.859
  22746668.277    22746668.688    22746666.965          44.100          44.500
        49.500
 111129698.313 8  86594694.40645                  21147256.359
                  21147263.012                          49.500          35.900

 128151878.622 6  99858737.78743                  24386504.477
                  24386516.508                          39.200          22.800

 115946052.944 7  90347728.27646                  22063784.883
                  22063792.871                          47.200          36.100

 119649180.943 7  93233296.86444                  22768477.523
                  22768486.578                          43.900          28.700

 130833243.067 6 101948077.497 6                  24896750.047
  24896762.074    24896762.430                          38.300          36.600

 128511753.542 6 100139041.60643                  24454961.523
                  24454970.898                          37.600          20.600

 14  3 14  1  0 30.0000000  0 14G09G16G23G13G07G19G30G27G03G10G08G28
                                G05G11
 114967062.602 7  89584909.86545                  21877493.305
                  21877502.176                          45.700          33.300

 130198347.979 6 101453408.02242                  24775894.484
                  24775901.133                          36.500          16.900

 122503147.547 7  95457140.47444                  23311559.094
                  23311566.180                          43.700          26.600

 110325169.710 8  85967841.74346                  20994162.914
                  20994169.426                          49.200          38.700

 107290825.469 7  83603394.784 8                  20416740.578
  20416746.188    20416747.039                          47.900          49.800

 111623419.845 8  86979356.36946                  21241201.680
                  21241206.461                          48.000          38.800

 112447994.932 8  87621916.968 8  83970996.217 8  21398116.867
  21398126.816    21398126.855    21398125.668          48.500          48.900
        53.400
 119599089.283 7  93194114.324 7  89311052.423 8  22758909.695
  22758917.930    22758918.676    22758917.367          44.700          45.400
        49.800
 111175842.414 7  86630650.86446                  21156037.383
                  21156044.586                          47.600          36.600

 128227848.693 7  99917935.20343                  24400960.297
                  24400972.879                          42.200          21.500

 115878910.303 7  90295409.41045                  22051008.094
                  22051016.180                          47.600          34.500

 119582000.703 7  93180948.77045                  22755693.664
                  22755702.293                          44.000          30.000

 130836103.664 6 101950306.568 6                  24897292.875
  24897305.527    24897306.969                          36.100          36.200

 128423292.522 6 100070111.09743                  24438127.984
                  24438137.055                          38.200          21.100

 14  3 14  1  1  0.0000000  0 14G09G16G23G13G07G19G30G27G03G10G08G28
                                G05G11
 114883698.029 7  89519950.56545                  21861629.531
                  21861638.527                          45.400          34.100

 130299135.853 6 101531944.10342                  24795074.633
                  24795080.535                          39.200          16.300

 122614667.963 7  95544039.41044                  23332781.180
                  23332788.109                          44.400          27.200

 110398075.295 8  86024651.28446                  21008036.039
                  21008043.441                          49.000          38.400

 107265492.536 7  83583654.852 8                  20411919.586
  20411925.449    20411926.336                          47.800          49.200

 111616434.781 8  86973913.50446                  21239872.328
                  21239877.457                          48.600          39.600

 112394630.094 8  87580334.045 8  83931145.920 8  21387961.977
  21387971.313    21387971.859    21387970.379          48.400          48.900
        52.800
 119663933.771 7  93244642.506 7  89359475.250 8  22771249.297
  22771257.859    22771258.352    22771257.332          45.500          45.200
        50.300
 111222585.758 8  86667074.24546                  21164931.844
                  21164940.082                          49.300          36.500

 128304009.196 6  99977280.98443                  24415453.117
                  24415466.035                          38.300          20.600

 115811866.041 8  90243167.20145                  22038249.945
                  22038257.977                          48.100          35.700

 119515076.579 7  93128800.24944                  22742957.430
                  22742967.359                          44.400          29.400

 130839468.469 6 101952928.511 6                  24897934.000
  24897947.305    24897947.289                          38.300          37.600

 128334881.807 6 100001219.77343                  24421304.156
                  24421312.578                          37.900          20.100

 14  3 14  1  1 30.0000000  0 14G09G16G23G13G07G19G30G27G03G10G08G28
                                G05G11
 114800487.264 7  89455111.11145                  21845795.320
                  21845804.066                          45.600          33.600

 130399889.499 6 101610453.47443                  24814246.125
                  24814253.121                          39.200          19.600

 122726370.478 7  95631080.25744                  23354037.383
                  23354044.184                          43.400          27.900

 110471456.340 8  86081831.30446                  21021999.922
                  21022007.563                          49.900          38.100

 107240436.610 7  83564130.793 8                  20407151.875
  20407157.813    20407158.289                          47.600          49.700

 111610104.323 8  86968980.70046                  21238667.703
                  21238673.281                          48.000          39.000

 112341448.945 8  87538894.240 8  83891432.781 8  21377842.344
  21377851.355    21377851.508    21377850.027          48.400          48.400
        52.700
 119729246.907 7  93295535.854 7  89408248.039 8  22783677.883
  22783686.473    22783686.742    22783685.781          44.900          45.400
        49.900
 111269926.166 8  86703962.86446                  21173940.359
                  21173948.332                          49.000          36.300

 128380356.469 6 100036772.23243                  24429981.891
                  24429995.371                          40.900          20.600

 115744920.553 8  90191001.95645                  22025510.359
                  22025518.598                          48.800          34.800

 119448408.793 7  93076851.49344                  22730272.023
                  22730280.719                          45.600          29.800

 130843336.135 6 101955942.253 6                  24898670.414
  24898682.793    24898683.250                          37.300          38.700

 128246523.878 6  99932369.58343                  24404489.766
                  24404498.656                          38.200          20.400

 14  3 14  1  2  0.0000000  0 14G09G16G23G13G07G19G30G27G03G10G08G28
                                G05G11
 114717431.911 7  89390392.75545                  21829990.008
                  21829999.184                          46.000          33.200

 130500607.721 6 101688935.20043                  24833412.859
                  24833419.852                          41.100          20.600

 122838252.813 7  95718261.20944                  23375327.344
                  23375335.535                          42.800          27.400

 110545310.999 8  86139380.36946                  21036054.391
                  21036061.664                          49.800          38.800

 107215659.219 8  83544823.767 8                  20402436.633
  20402442.492    20402442.797                          48.500          49.300

 111604428.773 8  86964558.22846                  21237587.664
                  21237593.457                          48.400          39.900

 112288452.673 8  87497598.490 8  83851857.698 8  21367757.102
  21367766.855    21367766.730    21367765.133          48.800          49.100
        52.300
 119795026.708 7  93346792.815 7  89457369.297 8  22796194.977
  22796204.160    22796204.496    22796203.535          44.200          45.800
        50.200
 111317862.131 8  86741315.56146                  21183062.719
                  21183069.227                          49.700          36.400

 128456887.719 6 100096406.87643                  24444544.914
                  24444558.367                          39.400          21.100

 115678075.053 8  90138914.62045                  22012790.141
                  22012797.891                          48.500          35.900

 119381997.540 7  93025102.59745                  22717633.977
                  22717642.707                          44.300          30.200

 130847706.427 6 101959347.665 6                  24899501.914
  24899514.199    24899515.313                          36.800          37.300

 128158221.934 6  99863563.05743                  24387685.977
                  24387695.023                          38.600          19.900

 14  3 14  1  2 30.0000000  0 14G09G16G23G13G07G19G30G27G03G10G08G28
                                G05G11
 114634533.349 7  89325796.58345                  21814215.305
                  21814224.141                          46.100          34.400

 130601289.444 6 101767388.49743                  24852571.781
                  24852579.133                          41.200          22.600

 122950312.473 7  95805580.30344                  23396651.961
                  23396659.879                          42.400          26.400

 110619637.817 8  86197297.36446                  21050198.570
                  21050205.289                          50.300          38.200

 107191161.467 8  83525734.645 8                  20397775.086
  20397781.227    20397781.352                          48.300          49.900

 111599408.609 7  86960646.44746                  21236631.922
                  21236637.543                          47.300          39.200

 112235642.376 8  87456447.658 8  83812421.488 8  21357707.367
  21357716.738    21357717.133    21357715.652          49.100          49.100
        52.700
 119861271.014 7  93398411.725 7  89506837.427 8  22808800.859
  22808810.020    22808810.664    22808809.117          45.500          45.200
        49.900
 111366391.871 8  86779130.95145                  21192297.063
                  21192304.359                          49.400          35.800

 128533599.752 6 100156182.45943                  24459143.461
                  24459155.781                          39.500          21.300

 115611330.886 8  90086906.24045                  22000088.828
                  22000097.160                          48.000          35.000

 119315843.158 7  92973553.86644                  22705044.688
                  22705053.941                          43.900          29.700

 130852578.353 5 101963143.953 6                  24900428.047
  24900441.707    24900442.477                          35.800          37.100

 128069979.093 6  99794802.60443                  24370894.320
                  24370903.730                          39.000          19.300

 14  3 14  1  3  0.0000000  0 14G09G16G23G13G07G19G30G27G03G10G08G28
                                G05G11
 114551793.476 7  89261324.05845                  21798470.078
                  21798479.137                          46.600          33.900

 130701933.107 6 101845812.17644                  24871723.445
                  24871731.074                          41.000          24.200

 123062546.775 6  95893035.50744                  23418008.563
                  23418017.602                          41.600          26.200

 110694434.886 8  86255580.78546                  21064431.945
                  21064438.496                          51.100          38.900

 107166944.908 8  83506864.630 8                  20393166.398
  20393172.285    20393172.891                          49.400          49.100

 111595044.356 7  86957245.75246                  21235801.836
                  21235806.668                          47.200          39.200

 112183019.169 8  87415442.617 8  83773125.000 8  21347693.523
  21347703.160    21347703.328    21347702.258          49.500          48.500
        52.700
 119927977.616 7  93450390.874 7  89556650.788 8  22821494.828
  22821503.703    22821503.887    22821502.867          44.900          45.700
        49.800
 111415513.395 8  86817407.46345                  21201644.570
                  21201651.977                          48.000          35.500

 128610490.153 6 100216096.90243                  24473775.945
                  24473789.020                          40.800          22.200

 115544688.687 7  90034977.31545                  21987407.523
                  21987415.254                          47.600          35.200

 119249946.046 7  92922205.62044                  22692505.594
                  22692513.871                          42.900          29.000

 130857951.231 6 101967330.620 6                  24901452.391
  24901463.883    24901464.316                          39.400          38.200

 127981798.101 6  99726090.26443                  24354113.180
                  24354123.277                          39.100          19.300

 14  3 14  1  3 30.0000000  0 14G09G16G23G13G07G19G30G27G03G10G08G28
                                G05G11
 114469213.926 7  89196976.46745                  21782756.016
                  21782764.535                          45.100          34.200

 130802537.929 7 101924205.56344                  24890868.086
                  24890875.598                          42.300          25.500

 123174953.176 6  95980624.81844                  23439399.117
                  23439408.102                          41.100          25.300

 110769699.916 8  86314228.84246                  21078754.875
                  21078761.473                          51.100          38.200

 107143010.765 7  83488214.680 8                  20388612.273
  20388618.313    20388618.617                          47.500          49.600

 111591336.012 7  86954356.16446                  21235096.422
                  21235101.172                          47.700          38.900

 112130583.940 8  87374584.047 8  83733968.888 8  21337715.492
  21337724.656    21337724.582    21337724.102          48.300          48.600
        52.700
 119995144.255 7  93502728.498 7  89606807.669 8  22834276.000
  22834284.668    22834284.957    22834284.465          44.300          45.100
        50.000
 111465224.698 8  86856143.54845                  21211104.711
                  21211112.207                          48.300          35.800

 128687555.472 6 100276147.70543                  24488439.398
                  24488452.734                          39.100          18.600

 115478149.678 7  89983128.80045                  21974746.250
                  21974753.102                          47.900          35.900

 119184306.300 7  92871057.90645                  22680014.664
                  22680023.172                          43.400          30.100

 130863824.223 6 101971906.960 6                  24902569.320
  24902582.734    24902581.738                          38.300          39.400

 127893682.406 6  99657428.85543                  24337344.758
                  24337355.633                          38.800          19.600

 14  3 14  1  4  0.0000000  0 14G09G16G23G13G07G19G30G27G03G10G08G28
                                G05G11
 114386796.058 7  89132754.85645                  21767072.555
                  21767080.391                          46.000          34.200

 130903102.275 7 102002567.42744                  24910005.523
                  24910012.762                          42.300          26.000

 123287529.228 6  96068346.32944                  23460821.430
                  23460830.410                          41.100          25.400

 110845431.310 8  86373240.29946                  21093165.711
                  21093172.281                          50.800          38.500

 107119359.587 8  83469785.220 8                  20384111.109
  20384117.281    20384117.914                          48.900          49.500

 111588283.681 7  86951977.75946                  21234515.078
                  21234520.590                          47.000          39.500

 112078337.704 8  87333872.740 8  83694953.888 8  21327773.219
  21327782.398    21327782.453    21327781.563          49.300          48.700
        52.800
 120062768.575 7  93555422.752 7  89657306.321 8  22847144.773
  22847152.875    22847153.113    22847153.207          43.700          44.600
        49.300
 111515523.757 7  86895337.61845                  21220675.641
                  21220683.484                          47.600          35.800

 128764792.762 6 100336332.51543                  24503138.203
                  24503151.363                          39.600          21.500

 115411714.814 8  89931361.43346                  21962103.484
                  21962111.313                          48.100          36.900

 119118924.014 7  92820110.78745                  22667572.734
                  22667581.641                          45.000          30.700

 130870196.316 5 101976872.203 6                  24903780.016
  24903794.832    24903794.434                          34.800          38.300

 127805634.644 6  99588820.37643                  24320589.734
                  24320600.137                          40.500          20.100

 14  3 14  1  4 30.0000000  0 14G09G16G23G13G07G19G30G27G03G10G08G28
                                G05G11
 114304541.037 7  89068660.13145                  21751419.477
                  21751428.035                          47.200          34.200

 131003624.852 6 102080896.73644                  24929134.820
                  24929141.309                          41.800          26.200

 123400272.082 7  96156197.80044                  23482276.469
                  23482285.234                          42.200          25.800

 110921626.354 8  86432613.05346                  21107665.039
                  21107670.992                          49.900          37.400

 107095992.375 7  83451577.027 8                  20379664.430
  20379670.996    20379671.617                          47.900          48.700

 111585887.481 7  86950110.61746                  21234058.836
                  21234064.113                          46.300          38.400

 112026281.186 8  87293309.269 7  83656080.573 8  21317867.383
  21317876.578    21317876.777    21317875.766          49.000          46.000
        53.200
 120130848.080 7  93608471.694 7  89708144.890 8  22860099.875
  22860108.500    22860108.828    22860108.043          43.900          43.200
        48.800
 111566407.987 8  86934987.67445                  21230359.258
                  21230366.516                          48.400          35.800

 128842198.960 6 100396648.95043                  24517868.391
                  24517881.352                          36.600          20.400

 115345384.823 8  89879675.78646                  21949481.078
                  21949488.535                          48.200          36.100

 119053799.231 7  92769364.33345                  22655180.117
                  22655188.570                          47.000          30.800

 130877066.376 6 101982225.525 6                  24905088.547
  24905101.328    24905101.406                          38.700          36.200

 127717657.900 6  99520267.24843                  24303848.523
                  24303858.703                          39.000          18.600

 14  3 14  1  5  0.0000000  0 14G09G16G23G13G07G19G30G27G03G10G08G28
                                G05G11
 114222450.776 7  89004693.79045                  21735798.602
                  21735806.301                          47.000          35.100

 131104104.601 6 102159192.68144                  24948254.953
                  24948261.664                          41.300          25.300

 123513179.373 7  96244177.44044                  23503762.109
                  23503770.379                          43.800          26.700

 110998283.389 8  86492345.79546                  21122252.789
                  21122259.063                          50.300          37.700

 107072910.925 8  83433591.500 8                  20375272.422
  20375278.703    20375279.137                          49.000          50.400

 111584147.733 8  86948754.98146                  21233727.758
                  21233733.609                          48.800          39.100

 111974415.668 8  87252894.628 8  83617349.893 8  21307997.695
  21308007.078    21308007.535    21308006.348          49.300          49.000
        53.000
 120199380.682 7  93661873.716 7  89759321.815 8  22873141.500
  22873150.012    22873150.293    22873148.805          44.500          45.500
        48.800
 111617876.389 8  86975092.93845                  21240154.172
                  21240160.660                          48.800          35.400

 128919770.941 6 100457094.59943                  24532628.813
                  24532641.570                          38.300          19.900

 115279160.891 7  89828072.77846                  21936878.383
                  21936886.465                          47.700          36.100

 118988932.479 7  92718818.92545                  22642836.227
                  22642844.164                          45.800          30.900

 130884433.906 6 101987966.500 6                  24906491.406
  24906503.406    24906503.414                          39.200          36.900

 127629755.124 6  99451771.75843                  24287121.555
                  24287130.750                          38.500          19.600

 14  3 14  1  5 30.0000000  0 14G09G16G23G13G07G19G30G27G03G10G08G28
                                G05G11
 114140526.642 7  88940856.90245                  21720208.781
                  21720216.660                          46.900          34.200

 131204540.311 6 102237454.32643                  24967366.414
                  24967374.086                          39.200          23.900

 123626248.321 7  96332283.04044                  23525278.398
                  23525287.039                          43.100          26.300

 111075400.544 8  86552437.07546                  21136927.828
                  21136934.148                          51.000          38.300

 107050116.032 7  83415829.280 8                  20370934.625
  20370940.516    20370941.160                          47.800          50.000

 111583064.477 7  86947910.90646                  21233521.766
                  21233526.930                          47.600          39.000

 111922742.001 8  87212629.491 8  83578762.473 8  21298164.539
  21298173.914    21298174.168    21298173.098          49.600          48.000
        52.900
 120268363.932 7  93715626.885 7  89810835.271 8  22886268.156
  22886277.086    22886277.449    22886275.668          43.700          45.800
        48.300
 111669926.146 8  87015651.20546                  21250058.320
                  21250065.230                          48.100          36.000

 128997505.533 6 100517666.94443                  24547422.047
                  24547435.199                          41.200          22.300

 115213043.921 7  89776553.12646                  21924296.938
                  21924305.242                          47.200          36.000

 118924323.659 7  92668474.51045                  22630540.828
                  22630549.090                          43.000          30.900

 130892297.992 5 101994094.284 6                  24907987.242
  24908000.035    24907998.781                          35.900          36.800

 127541929.442 6  99383336.28843                  24270408.328
                  24270417.402                          38.200          20.900

 14  3 14  1  6  0.0000000  0 14G09G16G23G13G07G19G30G27G03G10G08G28
                                G05G11
 114058770.531 7  88877150.94545                  21704651.086
                  21704659.438                          46.400          34.600

 131304931.221 6 102315681.01943                  24986470.047
                  24986477.438                          37.300          21.500

 123739476.945 7  96420513.06044                  23546824.844
                  23546832.742                          42.400          25.700

 111152975.979 8  86612885.45446                  21151689.477
                  21151696.520                          51.000          38.100

 107027609.535 7  83398291.791 8                  20366651.727
  20366657.953    20366658.426                          47.800          49.700

 111582637.906 8  86947578.54246                  21233440.875
                  21233444.949                          48.800          39.500

 111871261.719 8  87172515.037 8  83540319.466 8  21288367.797
  21288377.625    21288377.273    21288376.555          49.500          48.800
        52.900
 120337795.980 7  93769729.760 7  89862683.862 8  22899480.711
  22899490.211    22899490.699    22899488.801          43.200          45.900
        48.000
 111722555.769 8  87056661.30646                  21260073.336
                  21260080.441                          48.100          36.400

 129075400.007 6 100578363.84943                  24562244.617
                  24562258.559                          39.200          22.900

 115147035.362 7  89725117.95246                  21911736.219
                  21911744.223                          46.800          36.500

 118859973.102 7  92618331.35345                  22618295.477
                  22618303.637                          43.300          30.500

 130900657.788 6 102000608.348 5                  24909578.438
  24909590.957    24909588.918                          39.700          33.200

 127454183.918 6  99314963.33643                  24253709.633
                  24253719.797                          37.600          19.900

 14  3 14  1  6 30.0000000  0 14G09G16G23G13G07G19G30G27G03G10G08G28
                                G05G11
 113977183.755 7  88813576.92545                  21689125.398
                  21689133.754                          47.400          34.400

 131405275.564 5 102393871.42043                  25005566.602
                  25005572.145                          35.100          19.300

 123852862.229 7  96508865.16644                  23568401.477
                  23568409.605                          43.400          24.200

 111231007.233 8  86673689.00546                  21166538.016
                  21166545.563                          50.500          37.900

 107005392.143 7  83380979.578 8                  20362423.938
  20362429.848    20362430.234                          47.900          49.800

 111582868.147 8  86947757.98246                  21233484.344
                  21233489.324                          48.900          39.200

 111819975.480 8  87132551.787 8  83502021.359 8  21278608.391
  21278617.398    21278617.520    21278616.742          48.800          48.500
        53.500
 120407674.171 7  93824180.275 7  89914865.611 8  22912777.922
  22912787.188    22912787.551    22912786.063          43.400          45.200
        48.400
 111775762.925 8  87098121.44545                  21270198.695
                  21270205.367                          48.000          35.900

 129153451.237 6 100639182.86543                  24577097.391
                  24577109.637                          40.500          22.000

 115081135.887 7  89673767.77746                  21899195.672
                  21899203.344                          46.500          36.200

 118795881.012 7  92568389.58445                  22606098.930
                  22606107.348                          42.900          30.700

 130909512.065 6 102007507.821 5                  24911262.695
  24911274.875    24911273.656                          37.900          32.400

 127366521.608 6  99246655.22043                  24237028.828
                  24237037.695                          38.000          19.300

 14  3 14  1  7  0.0000000  0 14G09G16G23G13G07G19G30G27G03G10G08G28
                                G05G11
 113895767.766 7  88750135.99545                  21673632.891
                  21673640.570                          47.200          35.300

 131505571.90215 102472024.39952                  25024650.078
                  25024658.195                          33.500          17.800

 123966401.564 7  96597337.30244                  23590007.820
                  23590015.914                          42.700          25.600

 111309492.113 8  86734846.04246                  21181473.633
                  21181480.832                          50.800          37.900

 106983464.711 8  83363893.298 8                  20358251.055
  20358257.566    20358257.871                          48.400          49.500

 111583754.866 7  86948448.95046                  21233653.047
                  21233658.438                          47.800          39.000

 111768884.155 8  87092740.412 8  83463868.800 8  21268886.133
  21268894.871    21268895.055    21268894.570          50.000          48.400
        53.300
 120477995.894 7  93878976.410 7  89967378.573 8  22926159.969
  22926169.027    22926169.195    22926168.234          42.800          45.100
        48.300
 111829545.511 7  87140029.95645                  21280432.406
                  21280439.535                          47.600          35.000

 129231655.984 6 100700121.56343                  24591979.852
                  24591991.535                          41.300          20.400

 115015346.567 7  89622503.43345                  21886676.477
                  21886685.031                          47.600          35.900

 118732047.078 7  92518648.97245                  22593951.992
                  22593959.699                          44.400          30.900

 130918859.830 6 102014791.795 5                  24913041.477
  24913053.922    24913053.340                          38.600          34.800

 127278945.177 6  99178414.01443                  24220363.852
                  24220372.859                          38.800          21.700

 14  3 14  1  7 30.0000000  0 14G09G16G23G13G07G19G30G27G03G10G08G28
                                G05G11
 113814524.145 7  88686829.39345                  21658172.094
                  21658180.156                          47.800          35.000

 131605819.70415 102550139.53152                  25043726.914
                  25043734.742                          32.200          16.300

 124080092.336 7  96685927.47044                  23611643.047
                  23611649.770                          43.200          24.200

 111388428.814 8  86796355.14946                  21196494.195
                  21196501.652                          49.800          37.100

 106961828.502 8  83347033.940 8                  20354134.188
  20354140.191    20354140.602                          48.000          49.800

 111585298.207 8  86949651.57446                  21233946.609
                  21233952.387                          49.600          39.700

 111717988.769 8  87053081.722 8  83425862.564 8  21259201.195
  21259210.047    21259210.191    21259209.648          49.600          48.500
        53.400
 120548758.860 7  93934116.366 7  90020221.040 8  22939625.820
  22939634.160    22939633.977    22939633.953          42.600          44.100
        48.600
 111883901.180 8  87182385.02145                  21290775.984
                  21290782.934                          48.200          34.700

 129310011.536 6 100761177.66743                  24606889.609
                  24606901.641                          41.600          19.300

 114949668.338 8  89571325.66546                  21874178.180
                  21874186.641                          49.400          37.100

 118668471.593 7  92469109.77045                  22581853.992
                  22581862.055                          46.700          30.600

 130928699.904 6 102022459.395 6                  24914913.586
  24914927.020    24914925.898                          37.900          37.400

 127191457.930 6  99110242.30743                  24203715.180
                  24203724.730                          39.600          22.200

 14  3 14  1  8  0.0000000  0 14G09G16G23G13G07G19G30G27G03G10G08G28
                                G05G11
 113733455.010 7  88623658.74245                  21642745.195
                  21642753.297                          47.400          34.200

 131706017.95415                                  25062793.063
                                                        32.300

 124193932.238 7  96774633.82344                  23633305.797
                  23633312.582                          42.400          25.500

 111467815.740 8  86858215.07946                  21211601.539
                  21211608.172                          49.900          37.300

 106940485.283 8  83330402.876 8                  20350072.742
  20350078.660    20350079.082                          49.100          49.700

 111587499.160 8  86951366.63146                  21234365.930
                  21234370.738                          48.500          38.900

 111667290.930 8  87013576.954 8  83388003.843 9  21249553.500
  21249562.113    21249562.211    21249562.020          50.000          48.700
        54.000
 120619961.209 7  93989598.700 7  90073391.612 8  22953175.203
  22953183.621    22953183.727    22953183.703          42.200          44.000
        48.600
 111938828.080 8  87225185.21545                  21301228.461
                  21301235.262                          48.500          35.500

 129388514.831 6 100822349.03743                  24621829.164
                  24621840.414                          39.500          21.700

 114884102.749 7  89520235.65746                  21861701.555
                  21861709.422                          46.700          37.300

 118605154.962 7  92419772.26945                  22569804.969
                  22569813.234                          43.800          30.800

 130939031.809 6 102030510.253 6                  24916880.141
  24916892.836    24916892.055                          38.600          37.400

 127104063.502 6  99042142.90543                  24187084.719
                  24187094.223                          40.800          22.300

 14  3 14  1  8 30.0000000  0 14G09G16G23G13G07G19G30G27G03G10G08G28
                                G05G11
 113652561.568 7  88560624.99645                  21627351.336
                  21627359.137                          46.000          33.600

 131806165.06915 102706252.79052                  25081850.719
                  25081858.719                          34.800          17.400

 124307918.277 7  96863454.04544                  23654997.055
                  23655003.883                          43.700          25.600

 111547649.952 8  86920423.53246                  21226793.133
                  21226800.621                          50.400          37.900

 106919436.093 8  83314000.933 8                  20346067.008
  20346073.059    20346073.633                          48.700          50.100

 111590356.369 8  86953593.04646                  21234909.219
                  21234914.117                          48.300          39.200

 111616791.274 8  86974226.617 8  83350293.116 8  21239943.945
  21239952.664    21239952.715    21239952.289          50.500          48.500
        53.500
 120691600.198 7  94045421.271 7  90126888.236 8  22966807.445
  22966815.500    22966815.746    22966815.605          42.700          43.400
        48.300
 111994323.910 7  87268428.70746                  21311789.031
                  21311795.703                          47.900          36.600

 129467162.787 7 100883633.01543                  24636795.711
                  24636809.246                          43.200          23.600

 114818650.579 8  89469234.03446                  21849246.656
                  21849254.313                          48.900          37.100

 118542097.391 7  92370636.63545                  22557805.477
                  22557813.223                          45.000          30.800

 130949854.173 6 102038943.275 6                  24918939.625
  24918951.781    24918952.004                          36.100          38.600

 127016764.174 6  98974117.63343                  24170471.609
                  24170481.813                          41.200          22.500

 14  3 14  1  9  0.0000000  0 14G09G16G23G13G07G19G30G27G03G10G08G28
                                G05G11
 113571845.438 7  88497729.40245                  21611991.664
                  21611999.527                          47.700          33.900

 131906259.770 6 102784248.65142                  25100899.336
                  25100906.574                          37.500          17.800

 124422048.449 7  96952386.56444                  23676715.414
                  23676721.902                          44.300          26.300

 111627929.635 8  86982979.09346                  21242070.328
                  21242077.746                          50.000          37.500

 106898681.579 8  83297828.598 8                  20342117.406
  20342123.473    20342123.996                          48.800          49.900

 111593869.934 8  86956330.90946                  21235577.555
                  21235582.527                          49.500          38.300

 111566490.928 8  86935031.583 8  83312731.226 8  21230371.805
  21230380.703    21230380.633    21230380.441          50.200          48.000
        53.900
 120763673.467 7  94101582.237 7  90180709.148 8  22980523.078
  22980530.629    22980530.711    22980530.164          42.100          43.800
        48.500
 112050386.534 8  87312113.87646                  21322457.742
                  21322464.113                          48.400          36.200

 129545951.932 7 100945027.10843                  24651789.219
                  24651801.141                          43.000          21.800

 114753313.097 8  89418321.78246                  21836813.211
                  21836820.973                          48.200          37.200

 118479298.654 7  92321702.66744                  22545854.641
                  22545863.555                          44.000          29.900

 130961166.046 6 102047757.722 6                  24921092.664
  24921105.254    24921105.117                          36.700          39.200

 126929563.216 6  98906168.98243                  24153878.602
                  24153887.914                          40.800          22.800

 14  3 14  1  9 30.0000000  0 14G09G16G23G13G07G19G30G27G03G10G08G28
                                G05G11
 113491308.359 7  88434973.31445                  21596665.664
                  21596673.543                          47.500          34.900

 132006301.219 6 102862203.12442                  25119936.414
                  25119943.426                          38.700          16.300

 124536319.657 7  97041429.00244                  23698460.445
                  23698466.875                          42.600          26.300

 111708652.746 8  87045880.20846                  21257431.586
                  21257438.672                          49.700          38.100

 106878222.954 8  83281886.852 8                  20338224.766
  20338230.324    20338230.875                          49.300          49.900

 111598039.661 8  86959580.06446                  21236371.438
                  21236376.500                          48.200          39.000

 111516390.828 8  86895992.593 8  83275318.876 9  21220837.805
  21220846.645    21220846.531    21220846.398          49.600          48.300
        54.000
 120836178.557 7  94158079.701 7  90234852.541 7  22994319.914
  22994328.504    22994328.773    22994327.637          43.100          44.400
        47.600
 112107013.702 7  87356238.95246                  21333233.148
                  21333240.078                          47.300          36.300

 129624879.616 6 101006529.10943                  24666807.773
                  24666820.488                          41.800          22.600

 114688091.233 7  89367499.62046                  21824402.031
                  21824409.125                          47.800          37.200

 118416758.885 7  92272970.50945                  22533953.852
                  22533962.160                          45.000          30.300

 130972965.959 6 102056952.486 6                  24923337.727
  24923349.691    24923350.527                          37.100          39.100

 126842463.630 6  98838299.31243                  24137304.273
                  24137312.848                          41.200          23.000

 14  3 14  1 10  0.0000000  0 14G09G16G23G13G07G19G30G27G03G10G08G28
                                G05G11
 113410952.166 7  88372358.18945                  21581374.969
                  21581382.371                          47.300          34.900

 132106288.590 6 102940115.36642                  25138963.719
                  25138969.684                          39.700          16.900

 124650729.845 7  97130579.72544                  23720232.328
                  23720239.035                          42.600          27.900

 111789817.404 8  87109125.38846                  21272876.086
                  21272884.020                          48.700          37.900

 106858062.355 8  83266177.330 8                  20334388.188
  20334394.258    20334394.516                          49.100          50.000

 111602866.090 8  86963340.94746                  21237289.820
                  21237295.137                          49.900          39.200

 111466492.454 8  86857110.797 8  83238057.169 8  21211342.383
  21211351.090    21211351.289    21211350.570          50.000          49.400
        53.300
 120909113.416 7  94214912.049 7  90289316.872 7  23008198.492
  23008207.945    23008208.375    23008206.945          43.200          44.600
        46.600
 112164203.584 7  87400802.48946                  21344116.102
                  21344123.469                          47.900          36.200

 129703942.754 7 101068136.62243                  24681853.930
                  24681866.492                          43.500          23.000

 114622986.435 7  89316768.66446                  21812012.648
                  21812020.516                          47.000          36.500

 118354478.635 7  92224440.57845                  22522102.234
                  22522110.328                          44.600          30.400

 130985253.467 6 102066527.175 6                  24925675.836
  24925688.277    24925689.629                          37.200          39.500

 126755468.878 6  98770511.33744                  24120748.922
                  24120757.949                          40.800          24.100

 14  3 14  1 10 30.0000000  0 14G09G16G23G13G07G19G30G27G03G10G08G28
                                G05G11
 113330778.010 7  88309884.91045                  21566117.484
                  21566125.602                          47.600          35.000

 132206220.423 6 103017984.39542                  25157979.938
                  25157986.738                          40.000          16.900

 124765275.956 7  97219836.35544                  23742029.531
                  23742036.090                          42.900          26.000

 111871421.171 8  87172712.71946                  21288404.969
                  21288411.828                          49.500          37.900

 106838199.838 8  83250700.076 8                  20330607.922
  20330614.254    20330614.754                          49.200          49.500

 111608348.471 8  86967612.94846                  21238332.797
                  21238338.070                          48.200          39.000

 111416796.409 8  86818386.655 8  83200946.545 8  21201885.570
  21201894.762    21201894.742    21201893.906          50.100          49.000
        53.200
 120982475.173 7  94272077.058 7  90344100.000 7  23022159.336
  23022168.016    23022168.129    23022166.406          44.000          44.300
        46.500
 112221953.423 7  87445802.36146                  21355105.734
                  21355112.461                          47.300          36.000

 129783138.220 6 101129847.30843                  24696924.109
                  24696937.680                          41.100          23.000

 114557999.345 7  89266129.43846                  21799646.188
                  21799653.707                          45.900          37.700

 118292457.508 7  92176112.56645                  22510300.281
                  22510308.926                          42.800          30.600

 130998026.846 6 102076480.462 6                  24928105.578
  24928119.973    24928120.703                          37.600          39.500

 126668581.419 6  98702807.00043                  24104215.234
                  24104223.680                          39.900          22.600

 14  3 14  1 11  0.0000000  0 14G09G16G23G13G07G19G30G27G03G10G08G28
                                G05G11
 113250787.869 8  88247555.01545                  21550895.922
                  21550903.340                          48.000          33.600

 132306095.526 6 103095809.21942                  25176985.258
                  25176992.156                          40.600          17.400

 124879955.607 6  97309197.03444                  23763851.914
                  23763859.035                          40.900          26.300

 111953461.641 8  87236640.33546                  21304017.352
                  21304023.785                          50.000          38.100

 106818636.961 8  83235456.314 8                  20326885.484
  20326891.602    20326892.016                          48.800          50.700

 111614486.663 8  86972395.97146                  21239500.820
                  21239506.379                          48.800          38.900

 111367304.074 8  86779821.249 8  83163988.032 8  21192467.875
  21192476.539    21192476.637    21192475.863          50.000          48.900
        53.800
 121056261.694 7  94329573.044 7  90399200.333 7  23036200.844
  23036209.805    23036209.563    23036207.313          44.000          44.500
        46.300
 112280261.350 7  87491237.10345                  21366200.953
                  21366208.410                          47.900          35.200

 129862463.432 6 101191659.01443                  24712018.555
                  24712032.668                          40.200          20.900

 114493131.272 7  89215582.95146                  21787301.961
                  21787309.602                          47.800          37.700

 118230695.624 7  92127986.54745                  22498546.703
                  22498555.160                          45.800          30.500

 131011285.402 6 102086811.791 6                  24930628.867
  24930642.621    24930643.707                          38.300          40.100

 126581804.484 6  98635188.77543                  24087701.945
                  24087710.398                          40.100          22.500

 14  3 14  1 11 30.0000000  0 14G09G16G23G13G07G19G30G27G03G10G08G28
                                G05G11
 113170983.349 7  88185369.75445                  21535709.438
                  21535717.121                          46.800          34.400

 132405912.934 6 103173589.08542                  25195979.281
                  25195986.918                          39.100          16.900

 124994766.503 6  97398660.00344                  23785699.695
                  23785706.902                          40.500          25.200

 112035936.868 8  87300906.72946                  21319711.625
                  21319718.160                          48.900          38.000

 106799375.089 8  83220447.098 8                  20323220.055
  20323225.891    20323226.559                          48.300          50.000

 111621280.813 7  86977690.15146                  21240794.172
                  21240798.902                          46.000          39.500

 111318016.449 8  86741415.358 8  83127182.395 8  21183088.539
  21183097.328    21183097.504    21183097.195          49.700          49.000
        53.700
 121130470.512 7  94387398.092 7  90454616.010 7  23050322.219
  23050330.598    23050331.387    23050328.609          44.100          44.200
        46.000
 112339124.989 7  87537104.87546                  21377402.508
                  21377410.059                          47.400          36.000

 129941915.006 6 101253569.31443                  24727138.258
                  24727150.148                          39.300          20.900

 114428383.298 8  89165130.04846                  21774980.906
                  21774989.074                          48.500          37.900

 118169193.110 7  92080062.63645                  22486843.531
                  22486851.609                          44.900          31.000

 131025027.523 6 102097519.935 6                  24933243.961
  24933257.266    24933258.180                          39.200          38.700

 126495141.634 6  98567659.44043                  24071210.594
                  24071218.469                          39.000          22.300

 14  3 14  1 12  0.0000000  0 14G09G16G23G13G07G19G30G27G03G10G08G28
                                G05G11
 113091366.167 7  88123330.48345                  21520558.977
                  21520566.406                          46.400          34.400

 132505671.640 6 103251323.18742                  25214963.656
                  25214970.824                          37.900          16.900

 125109705.627 7  97488222.91044                  23807571.852
                  23807580.145                          42.100          25.300

 112118844.566 8  87365510.10446                  21335488.281
                  21335494.883                          49.800          37.100

 106780415.420 8  83205673.355 8                  20319612.359
  20319618.328    20319618.730                          48.500          50.300

 111628730.617 7  86983495.22246                  21242211.641
                  21242216.574                          47.100          39.000

 111268934.601 8  86703169.815 8  83090530.430 8  21173748.188
  21173757.508    21173757.535    21173756.934          49.800          48.900
        53.500
 121205099.149 7  94445550.259 7  90510345.181 7  23064523.773
  23064532.652    23064533.074    23064530.473          44.900          43.600
        47.000
 112398541.886 7  87583403.75045                  21388709.203
                  21388716.078                          47.800          35.900

 130021490.050 6 101315575.70843                  24742280.734
                  24742294.082                          41.800          22.600

 114363756.629 7  89114771.66146                  21762683.188
                  21762690.629                          47.900          37.500

 118107950.078 7  92032340.91245                  22475190.055
                  22475197.207                          43.900          31.800

 131039252.241 6 102108604.157 6                  24935951.414
  24935963.328    24935964.344                          39.500          39.600

 126408595.493 6  98500221.01843                  24054740.570
                  24054749.027                          38.300          22.600

 14  3 14  1 12 30.0000000  0 13G09G23G13G07G19G30G27G03G10G08G28G05
                                G11
 113011937.601 7  88061438.18745                  21505444.617
                  21505451.684                          47.500          35.700

 125224770.686 6  97577883.91943                  23829468.539
                  23829475.629                          41.300          23.300

 112202182.600 8  87430448.80646                  21351346.906
                  21351354.000                          48.300          37.100

 106761758.960 8  83191135.891 8                  20316061.898
  20316067.926    20316068.215                          48.800          49.800

 111636835.459 7  86989810.70346                  21243753.859
                  21243758.578                          47.700          38.400

 111220059.648 8  86665085.492 8  83054032.961 8  21164447.805
  21164456.926    21164457.035    21164456.023          49.500          49.000
        53.600
 121280145.103 7  94504027.621 7  90566385.991 7  23078804.383
  23078812.715    23078813.266    23078811.484          45.800          42.900
        47.300
 112458509.932 7  87630132.09045                  21400120.336
                  21400127.691                          47.000          34.900

 130101185.605 6 101377676.02243                  24757446.703
                  24757460.191                          38.400          20.900

 114299252.314 7  89064508.61546                  21750408.031
                  21750415.828                          47.500          37.200

 118046966.405 7  91984821.28245                  22463583.633
                  22463592.043                          46.000          30.900

 131053958.318 6 102120063.412 6                  24938749.883
  24938762.285    24938762.641                          37.900          38.900

 126322169.218 6  98432876.01543                  24038293.789
                  24038302.215                          39.000          21.800

 14  3 14  1 13  0.0000000  0 13G09G23G13G07G19G30G27G03G10G08G28G05
                                G11
 112932699.770 7  87999694.50246                  21490365.727
                  21490373.406                          47.600          36.500

 125339958.971 7  97667640.95243                  23851387.828
                  23851395.184                          42.900          23.800

 112285949.107 8  87495721.38246                  21367287.492
                  21367295.070                          49.600          37.600

 106743407.273 7  83176835.913 8                  20312569.617
  20312575.551    20312576.000                          47.200          50.100

 111645595.146 7  86996636.45446                  21245421.031
                  21245425.145                          46.800          39.000

 111171392.809 8  86627163.332 8  83017690.900 8  21155187.016
  21155195.949    21155196.063    21155195.402          49.600          49.500
        53.800
 121355606.094 7  94562828.399 7  90622736.726 8  23093163.961
  23093172.359    23093172.379    23093171.711          45.900          42.000
        48.400
 112519027.043 8  87677288.27445                  21411636.641
                  21411643.848                          48.100          35.000

 130180998.649 7 101439867.91043                  24772634.648
                  24772649.023                          42.700          22.900

 114234871.801 8  89014342.04046                  21738156.375
                  21738164.414                          48.200          37.000

 117986242.379 7  91937503.98945                  22452028.695
                  22452036.336                          46.600          31.800

 131069145.094 6 102131897.238 6                  24941639.891
  24941652.043    24941652.539                          38.200          39.200

 126235866.118 6  98365626.99743                  24021872.023
                  24021879.488                          38.800          21.800

 14  3 14  1 13 30.0000000  0 13G09G23G13G07G19G30G27G03G10G08G28G05
                                G11
 112853654.221 7  87938100.62746                  21475323.672
                  21475331.273                          47.900          36.400

 125455268.053 7  97757492.13943                  23873330.414
                  23873337.930                          42.600          22.500

 112370141.105 8  87561325.51446                  21383308.336
                  21383316.000                          49.900          37.500

 106725361.002 8  83162773.915 8                  20309135.164
  20309141.371    20309141.852                          48.500          50.800

 111655009.072 7  87003972.00846                  21247211.906
                  21247216.844                          47.300          38.400

 111122934.911 8  86589403.980 8  82981504.870 8  21145965.563
  21145974.277    21145974.672    21145973.719          50.000          49.600
        53.600
 121431479.402 7  94621950.473 6  90679395.362 7  23107602.828
  23107610.605    23107610.480    23107610.402          45.800          41.400
        47.700
 112580090.473 7  87724870.17345                  21423257.094
                  21423264.027                          47.500          34.300

 130260925.759 6 101502148.70143                  24787844.039
                  24787859.063                          39.700          21.100

 114170615.991 8  88964272.64246                  21725929.094
                  21725936.949                          48.200          37.600

 117925777.817 7  91890388.86345                  22440522.703
                  22440530.309                          45.800          31.100

 131084810.387 6 102144103.984 6                  24944620.406
  24944633.520    24944633.801                          39.200          38.100

 126149689.011 6  98298476.13743                  24005471.906
                  24005480.418                          39.600          22.000

