     2.11           OBSERVATION DATA    G (GPS)             RINEX VERSION / TYPE
teqc  2014Jan16     NOAA/NOS/NGS/CORS   20140304 00:21:54UTCPGM / RUN BY / DATE
Solaris x86 5.10|AMD64|cc SC5.8 -xarch=amd64|=+|=+          COMMENT
   0.000      (antenna height)                              COMMENT
 +39.99147598 (latitude)                                    COMMENT
-105.26107939 (longitude)                                   COMMENT
1655.057      (elevation)                                   COMMENT
BIT 2 OF LLI FLAGS DATA COLLECTED UNDER A/S CONDITION       COMMENT
DSRC (COGO code)                                            COMMENT
DSRC                                                        MARKER NAME
DSRC                                                        MARKER NUMBER
Seth I. Gutman      ESRL                                    OBSERVER / AGENCY
5051K72749          TRIMBLE NETR9       4.60                REC # / TYPE / VERS
1441107284          TRM57971.00     NONE                    ANT # / TYPE
 -1288338.0320 -4721989.8640  4078321.1770                  APPROX POSITION XYZ
        0.0000        0.0000        0.0000                  ANTENNA: DELTA H/E/N
     1     1                                                WAVELENGTH FACT L1/2
    11    L1    L2    L5    C1    P1    C2    P2    C5    S1# / TYPES OF OBSERV
          S2    S5                                          # / TYPES OF OBSERV
    30.0000                                                 INTERVAL
    16                                                      LEAP SECONDS
 SNR is mapped to RINEX snr flag value [0-9]                COMMENT
  L1 & L2: min(max(int(snr_dBHz/6), 0), 9)                  COMMENT
teqc windowed: start @ 2014 Mar  3 00:00:00.000             COMMENT
teqc windowed: delta = 86400.000 sec                        COMMENT
teqc edited: all SBAS satellites excluded                   COMMENT
teqc edited: all Galileo satellites excluded                COMMENT
teqc edited: all Compass satellites excluded                COMMENT
teqc edited: all QZSS satellites excluded                   COMMENT
  2014     3     3     0     0    0.0000000     GPS         TIME OF FIRST OBS
                                                            END OF HEADER
 14  3  3  0  0  0.0000000  0 12G20G16G23G13G30G06G19G08G07G03G27G10
 127746128.378 6  99542491.49752                  24309275.500
                  24309292.887                          37.900          14.800

 110853045.590 7  86379180.24445                  21094589.320
                  21094597.563                          45.800          35.000

 106473893.073 7  82966885.29345                  20261297.367
                  20261304.645                          47.700          35.900

 106981736.538 8  83362524.63545                  20357916.898
                  20357925.133                          48.000          35.500

 120374579.759 7  93798490.769 7  89890215.149 8  22906492.227
  22906505.324    22906505.477    22906504.406          44.400          47.100
        50.000
 116141797.134 7  90500173.08645                  22101014.008
                  22101025.375                          45.100          31.200

 125146728.069 7  97517054.85143                  23814636.523
                  23814648.402                          43.000          19.300

 131738236.93915                                  25068963.078
                                                        32.200

 117363180.928 7  91451988.172 6                  22333458.563
  22333469.770    22333470.430                          44.800          41.600

 115366463.487 7  89896079.28044                  21953479.531
                  21953490.965                          45.300          28.500

 118330456.345 7  92205643.508 7  88363758.012 8  22517503.680
  22517515.563    22517516.086    22517515.535          43.400          44.400
        49.400
 120556161.831 7  93939923.95344                  22941051.766
                  22941063.727                          44.800          24.900

 14  3  3  0  0 30.0000000  0 12G20G16G23G13G30G06G19G08G07G03G27G10
 127849376.765 6  99622944.61443                  24328924.242
                  24328942.434                          39.200          18.300

 110916170.307 7  86428368.32245                  21106601.469
                  21106609.844                          45.300          35.600

 106501112.045 7  82988094.88546                  20266476.969
                  20266483.395                          47.500          36.400

 106942707.719 7  83332112.59345                  20350489.781
                  20350498.039                          46.900          34.800

 120444385.995 7  93852885.207 7  89942343.148 8  22919776.141
  22919789.000    22919789.398    22919788.328          43.500          46.700
        50.000
 116117317.104 7  90481097.82044                  22096355.195
                  22096366.371                          46.100          29.800

 125046705.248 6  97439115.28042                  23795601.414
                  23795613.086                          41.300          17.800

 131660840.286 5                                  25054233.898
                                                        35.600

 117298826.591 7  91401842.043 6                  22321212.953
  22321223.137    22321223.906                          45.600          41.800

 115288028.979 7  89834961.62244                  21938553.836
                  21938564.805                          45.100          27.600

 118278443.634 7  92165114.254 7  88324917.511 8  22507605.195
  22507617.332    22507616.707    22507617.445          43.100          43.400
        49.500
 120538464.738 7  93926134.05544                  22937684.016
                  22937695.668                          43.700          25.400

 14  3  3  0  1  0.0000000  0 12G20G16G23G13G30G06G19G08G07G03G27G10
 127952604.197 7  99703381.34143                  24348569.164
                  24348586.883                          42.400          19.000

 110979730.480 7  86477895.72645                  21118696.930
                  21118705.063                          46.200          35.700

 106528839.863 7  83009700.97545                  20271753.430
                  20271759.563                          47.300          34.800

 106904113.324 7  83302039.06845                  20343145.367
                  20343153.691                          46.800          34.200

 120514292.007 7  93907357.386 7  89994545.645 8  22933077.727
  22933091.168    22933091.320    22933090.426          43.000          47.000
        49.900
 116093397.841 7  90462459.50644                  22091803.898
                  22091814.305                          44.500          29.700

 124946798.184 6  97361265.91742                  23776589.766
                  23776602.207                          41.000          17.800

 131583475.255 6                                  25039511.305
                                                        39.600

 117234600.660 7  91351795.975 6                  22308990.883
  22309001.371    22309001.758                          45.500          41.100

 115210005.099 7  89774163.91344                  21923707.133
                  21923716.516                          46.100          28.100

 118226893.452 7  92124945.400 7  88286422.384 8  22497795.273
  22497808.293    22497808.293    22497808.387          43.200          44.500
        49.600
 120521349.967 7  93912797.93444                  22934426.820
                  22934438.266                          45.000          25.800

 14  3  3  0  1 30.0000000  0 12G20G16G23G13G30G06G19G08G07G03G27G10
 128055807.767 6  99783799.47042                  24368206.805
                  24368226.867                          38.700          17.800

 111043723.604 7  86527760.48646                  21130874.266
                  21130882.824                          46.200          36.500

 106557076.774 8  83031703.76045                  20277126.594
                  20277132.609                          48.000          35.100

 106865955.357 7  83272305.63145                  20335884.102
                  20335892.371                          46.800          35.100

 120584297.384 7  93961906.974 7  90046822.330 8  22946399.484
  22946412.941    22946412.926    22946412.031          42.700          46.800
        49.900
 116070040.633 7  90444259.16745                  22087358.688
                  22087369.664                          44.700          30.000

 124847009.780 6  97283509.04443                  23757600.391
                  23757612.965                          41.800          19.300

 131506141.770 7 102472414.96253                  25024795.875
                  25024810.738                          42.900          19.900

 117170503.304 7  91301850.101 6                  22296793.758
  22296803.773    22296804.262                          46.800          40.900

 115132394.823 7  89713688.49244                  21908938.008
                  21908948.137                          46.400          26.000

 118175808.180 7  92085138.792 7  88248274.419 8  22488074.742
  22488087.238    22488088.004    22488087.160          44.200          44.500
        50.300
 120504817.652 7  93899915.65744                  22931281.266
                  22931292.465                          44.700          26.400

 14  3  3  0  2  0.0000000  0 12G20G16G23G13G30G06G19G08G07G03G27G10
 128158985.188 6  99864197.33342                  24387840.523
                  24387860.324                          36.600          17.800

 111108147.197 7  86577960.68945                  21143133.711
                  21143141.758                          46.000          35.900

 106585823.103 7  83054103.51045                  20282596.211
                  20282602.723                          46.400          34.500

 106828236.253 7  83242914.15145                  20328706.813
                  20328714.238                          46.500          35.200

 120654401.867 7  94016533.799 7  90099173.035 8  22959739.719
  22959753.477    22959753.480    22959752.703          42.600          46.700
        50.400
 116047247.159 7  90426498.09745                  22083021.039
                  22083032.105                          44.400          30.800

 124747343.682 7  97205847.45443                  23738634.953
                  23738648.199                          42.100          20.900

 131428840.038 6 102412180.13142                  25010085.258
                  25010101.309                          39.700          17.400

 117106535.092 7  91252004.851 7                  22284620.875
  22284630.809    22284631.191                          46.200          42.200

 115055201.566 7  89653538.03544                  21894248.023
                  21894258.676                          44.900          27.600

 118125190.481 7  92045696.542 7  88210475.631 8  22478442.633
  22478454.801    22478455.004    22478454.805          44.700          44.500
        50.600
 120488868.195 7  93887487.56944                  22928246.203
                  22928258.156                          44.700          26.000

 14  3  3  0  2 30.0000000  0 12G20G16G23G13G30G06G19G08G07G03G27G10
 128262133.569 6  99944572.48843                  24407469.508
                  24407487.551                          39.200          18.300

 111172999.055 7  86628494.59545                  21155474.391
                  21155482.773                          46.300          35.800

 106615079.593 7  83076900.77845                  20288164.125
                  20288170.617                          47.000          34.600

 106790958.040 7  83213866.23245                  20321612.852
                  20321620.551                          46.800          35.300

 120724605.180 7  94071237.649 7  90151597.543 8  22973098.852
  22973112.406    22973112.934    22973111.980          43.100          46.700
        49.600
 116025018.874 7  90409177.42245                  22078791.023
                  22078802.758                          44.100          30.200

 124647803.385 7  97128283.91443                  23719692.102
                  23719706.066                          43.200          21.500

 131351570.308 6 102351970.30543                  24995380.711
                  24995396.434                          38.000          18.300

 117042696.060 7  91202260.288 6                  22272472.602
  22272482.809    22272483.332                          46.100          41.800

 114978428.812 7  89593715.24044                  21879638.469
                  21879649.180                          44.100          25.800

 118075042.873 7  92006620.620 7  88173027.898 8  22468899.688
  22468911.719    22468911.418    22468911.688          44.300          43.100
        50.200
 120473502.128 7  93875514.06044                  22925321.539
                  22925333.973                          45.300          25.800

 14  3  3  0  3  0.0000000  0 12G20G16G23G13G30G06G19G08G07G03G27G10
 128365250.183 6 100024922.95243                  24427089.953
                  24427107.563                          37.400          19.600

 111238275.588 7  86679359.41145                  21167896.023
                  21167904.863                          46.000          35.800

 106644845.254 7  83100094.79545                  20293828.469
                  20293834.977                          47.500          35.400

 106754121.841 7  83185162.73145                  20314603.227
                  20314610.840                          45.800          35.400

 120794906.405 7  94126017.814 7  90204095.187 8  22986477.516
  22986490.746    22986491.266    22986490.082          42.400          46.700
        49.700
 116003356.915 7  90392298.06845                  22074669.203
                  22074680.258                          44.300          30.500

 124548391.724 7  97050820.57543                  23700775.039
                  23700789.844                          43.100          23.000

 131274331.854 6 102291784.82643                  24980683.344
                  24980699.961                          40.600          18.300

 116978986.348 7  91152616.492 6                  22260349.031
  22260358.754    22260359.168                          45.300          41.600

 114902079.247 7  89534222.17644                  21865109.594
                  21865118.898                          43.800          25.000

 118025367.280 7  91967912.485 7  88135932.626 8  22459446.320
  22459458.570    22459458.461    22459458.730          45.600          43.600
        49.900
 120458719.159 7  93863994.90544                  22922509.008
                  22922520.617                          45.200          25.700

 14  3  3  0  3 30.0000000  0 12G20G16G23G13G30G06G19G08G07G03G27G10
 128468332.296 6 100105246.53843                  24446707.352
                  24446721.355                          41.300          18.300

 111303974.826 7  86730553.61846                  21180398.438
                  21180406.895                          47.000          36.200

 106675120.355 8  83123685.77345                  20299589.750
                  20299596.215                          48.200          35.400

 106717729.704 7  83156805.25945                  20307677.867
                  20307685.449                          45.000          35.500

 120865305.286 7  94180874.055 7  90256665.746 8  22999873.617
  22999886.996    22999887.582    22999886.512          43.200          46.100
        50.100
 115982262.518 7  90375860.97345                  22070655.445
                  22070666.078                          44.600          31.600

 124449112.174 6  96973460.17843                  23681881.094
                  23681897.098                          41.900          23.600

 131197124.595 6 102231623.60342                  24965990.781
                  24966008.652                          37.800          16.300

 116915406.299 7  91103073.710 6                  22248249.727
  22248259.934    22248260.895                          46.400          41.500

 114826155.763 7  89475061.14844                  21850661.992
                  21850671.172                          45.000          25.900

 117976166.117 7  91929574.051 7  88099191.654 8  22450083.719
  22450095.332    22450095.648    22450095.742          44.600          43.500
        50.100
 120444519.495 7  93852930.24643                  22919805.930
                  22919817.375                          44.600          23.200

 14  3  3  0  4  0.0000000  0 12G20G16G23G13G30G06G19G08G07G03G27G10
 128571377.455 6 100185541.21343                  24466317.445
                  24466329.801                          41.800          18.600

 111370094.197 7  86782075.19645                  21192981.313
                  21192988.762                          46.000          35.100

 106705905.069 7  83147673.86745                  20305447.891
                  20305454.559                          47.800          34.500

 106681783.879 7  83128795.56545                  20300838.328
                  20300846.121                          46.400          35.000

 120935801.393 7  94235806.052 7  90309308.911 8  23013288.617
  23013301.910    23013302.293    23013301.813          42.600          46.300
        50.100
 115961736.965 7  90359867.12345                  22066749.523
                  22066760.223                          45.100          31.900

 124349968.504 6  96896205.65444                  23663015.703
                  23663030.344                          41.700          24.100

 131119948.699 6 102171486.84042                  24951304.977
                  24951322.848                          41.100          17.800

 116851955.919 7  91053631.962 6                  22236176.172
  22236185.727    22236186.609                          47.500          41.700

 114750661.492 7  89416234.57044                  21836295.625
                  21836305.750                          45.800          26.500

 117927441.722 7  91891607.124 7  88062806.703 8  22440811.445
  22440823.363    22440823.375    22440823.469          45.100          44.400
        50.300
 120430903.339 7  93842320.29143                  22917215.039
                  22917226.145                          43.800          22.600

 14  3  3  0  4 30.0000000  0 12G20G16G23G13G30G06G19G08G07G03G27G10
 128674382.779 6 100265804.90142                  24485918.109
                  24485931.730                          39.800          17.400

 111436630.800 7  86833921.88645                  21205642.266
                  21205650.691                          45.100          35.500

 106737199.491 7  83172059.12145                  20311402.938
                  20311408.852                          47.600          34.800

 106646286.015 7  83101134.94545                  20294082.859
                  20294090.688                          45.800          35.700

 121006394.313 7  94290813.508 7  90362024.385 8  23026722.531
  23026735.434    23026735.699    23026735.273          43.100          46.000
        50.000
 115941781.382 7  90344317.42145                  22062951.633
                  22062962.898                          45.700          32.300

 124250963.679 6  96819059.29944                  23644175.109
                  23644189.395                          40.600          25.600

 131042804.300 6 102111374.62543                  24936623.859
                  24936644.617                          39.400          19.000

 116788635.515 7  91004291.511 6                  22224126.453
  22224136.004    22224136.543                          47.200          41.000

 114675599.797 7  89357745.06444                  21822011.672
                  21822023.148                          45.600          28.300

 117879196.478 7  91854013.554 7  88026779.573 8  22431630.961
  22431642.367    22431643.160    22431642.785          45.700          43.900
        50.900
 120417870.860 7  93832165.13744                  22914735.555
                  22914746.941                          44.400          26.000

 14  3  3  0  5  0.0000000  0 12G20G16G23G13G30G06G19G08G07G03G27G10
 128777345.727 6 100346035.65243                  24505511.133
                  24505528.426                          37.900          19.900

 111503581.840 7  86886091.50745                  21218382.281
                  21218390.504                          45.200          35.400

 106769003.606 7  83196841.53645                  20317454.734
                  20317460.465                          46.800          35.400

 106611237.821 7  83073824.71345                  20287413.695
                  20287420.734                          45.900          35.000

 121077083.667 7  94345896.101 7  90414811.876 8  23040173.352
  23040186.699    23040186.938    23040186.570          42.800          45.000
        50.300
 115922397.044 7  90329212.84245                  22059263.195
                  22059273.426                          44.900          32.100

 124152101.125 6  96742023.83244                  23625362.508
                  23625375.168                          40.100          24.500

 130965691.258 6 102051286.87542                  24921949.625
                  24921970.430                          39.700          17.800

 116725445.484 7  90955052.624 6                  22212100.922
  22212111.172    22212111.992                          46.300          41.300

 114600973.752 7  89299595.02344                  21807810.766
                  21807822.332                          46.000          28.100

 117831432.651 7  91816795.093 7  87991111.923 8  22422541.711
  22422553.449    22422554.488    22422553.879          46.000          44.300
        50.300
 120405422.217 7  93822464.94144                  22912366.875
                  22912378.668                          44.300          25.600

 14  3  3  0  5 30.0000000  0 12G20G16G23G13G30G06G19G08G07G03G27G10
 128880263.657 6 100426231.18943                  24525096.531
                  24525116.199                          38.900          19.600

 111570944.913 7  86938582.20545                  21231201.656
                  21231209.707                          45.700          35.200

 106801317.082 7  83222020.88145                  20323603.742
                  20323610.465                          47.200          35.000

 106576641.322 7  83046866.44945                  20280829.617
                  20280837.066                          45.900          35.200

 121147868.790 7  94401053.338 7  90467670.884 8  23053644.070
  23053656.715    23053656.402    23053656.914          42.200          44.600
        50.400
 115903585.456 7  90314554.54845                  22055683.492
                  22055694.461                          45.400          32.400

 124053384.262 6  96665101.86543                  23606576.625
                  23606588.863                          40.200          23.500

 130888609.360 6 101991223.42442                  24907280.570
                  24907302.000                          37.700          17.400

 116662385.895 7  90905915.405 6                  22200100.969
  22200110.980    22200111.512                          45.700          40.200

 114526785.952 7  89241786.46644                  21793693.352
                  21793705.105                          44.300          27.100

 117784152.317 7  91779953.373 7  87955805.327 8  22413545.203
  22413556.531    22413556.289    22413556.387          46.000          42.900
        50.800
 120393557.135 7  93813219.45744                  22910108.414
                  22910120.852                          43.500          24.200

 14  3  3  0  6  0.0000000  0 12G20G16G23G13G30G06G19G08G07G03G27G10
 128983134.391 5 100506390.02442                  24544671.539
                  24544693.637                          35.700          17.800

 111638717.815 7  86991392.24345                  21244097.734
                  21244106.500                          45.800          34.500

 106834140.664 8  83247597.70445                  20329850.172
                  20329857.785                          48.300          35.500

 106542498.767 7  83020261.92545                  20274332.023
                  20274340.211                          45.700          35.600

 121218749.862 7  94456285.341 7  90520601.538 8  23067132.180
  23067144.660    23067144.559    23067144.719          43.900          44.600
        50.400
 115885347.904 7  90300343.55545                  22052212.805
                  22052223.082                          45.100          32.700

 123954816.986 6  96588296.49543                  23587820.148
                  23587830.742                          40.900          23.600

 130811558.945 6 101931184.41843                  24892618.305
                  24892637.824                          39.900          19.300

 116599457.528 7  90856880.424 6                  22188126.133
  22188135.863    22188136.496                          46.500          40.900

 114453040.143 7  89184322.32044                  21779659.641
                  21779670.121                          45.600          28.400

 117737358.333 7  91743490.662 7  87920861.903 8  22404640.008
  22404651.086    22404650.637    22404651.199          46.400          43.300
        50.000
 120382276.110 7  93804429.10344                  22907961.430
                  22907974.402                          44.100          24.600

 14  3  3  0  6 30.0000000  0 12G20G16G23G13G30G06G19G08G07G03G27G10
 129085954.688 6 100586509.59942                  24564237.883
                  24564259.457                          37.900          17.400

 111706897.457 7  87044519.22145                  21257072.000
                  21257080.453                          45.300          35.100

 106867473.731 8  83273571.51345                  20336193.242
                  20336200.613                          48.200          35.000

 106508811.696 7  82994012.32545                  20267921.516
                  20267930.328                          45.300          35.600

 121289726.074 7  94511591.460 7  90573603.235 8  23080638.867
  23080651.684    23080651.324    23080651.484          44.900          45.400
        50.300
 115867684.876 7  90286580.24845                  22048851.633
                  22048862.125                          45.300          31.900

 123856401.979 6  96511609.74144                  23569092.055
                  23569102.523                          40.500          24.700

 130734539.663 6 101871169.70242                  24877962.203
                  24877978.664                          39.000          17.400

 116536660.083 7  90807947.465 6                  22176175.781
  22176186.227    22176186.383                          45.900          41.200

 114379739.100 7  89127204.75544                  21765711.125
                  21765720.609                          46.100          27.200

 117691052.481 7  91707408.315 7  87886283.015 8  22395828.133
  22395839.551    22395839.375    22395839.414          46.300          43.000
        49.200
 120371578.739 7  93796093.54844                  22905926.008
                  22905938.266                          43.700          25.500

 14  3  3  0  7  0.0000000  0 12G20G16G23G13G30G06G19G08G07G03G27G10
 129188722.204 6 100666587.83842                  24583793.586
                  24583815.449                          36.700          16.900

 111775481.420 7  87097961.27145                  21270123.008
                  21270131.613                          45.200          35.200

 106901316.349 7  83299942.38945                  20342633.047
                  20342639.816                          47.200          35.200

 106475582.158 7  82968119.23845                  20261598.578
                  20261606.441                          46.100          35.600

 121360797.162 7  94566971.520 7  90626675.786 8  23094162.711
  23094175.750    23094175.570    23094175.789          42.900          45.700
        50.400
 115850598.096 7  90273265.96545                  22045600.172
                  22045610.793                          44.900          32.500

 123758142.865 6  96435044.48244                  23550393.781
                  23550405.148                          41.700          25.400

 130657551.490 6 101811179.30843                  24863311.047
                  24863325.988                          40.600          18.300

 116473993.802 7  90759116.726 6                  22164251.086
  22164260.785    22164261.160                          46.000          40.700

 114306886.042 7  89070436.28744                  21751847.547
                  21751857.074                          45.800          27.500

 117645237.134 7  91671708.161 7  87852070.400 8  22387109.672
  22387120.785    22387121.238    22387120.395          46.000          45.000
        48.700
 120361465.303 7  93788212.98844                  22904001.344
                  22904013.875                          43.100          24.300

 14  3  3  0  7 30.0000000  0 12G20G16G23G13G30G06G19G08G07G03G27G10
 129291434.165 5 100746622.89142                  24603337.633
                  24603359.680                          34.500          14.800

 111844466.857 7  87151716.13345                  21283250.117
                  21283259.418                          45.300          35.000

 106935668.258 8  83326710.11145                  20349169.836
                  20349176.414                          48.300          35.300

 106442811.685 7  82942583.87245                  20255362.203
                  20255370.094                          44.300          34.600

 121431962.608 7  94622425.081 7  90679818.790 8  23107705.477
  23107718.160    23107718.250    23107718.234          43.800          45.800
        50.500
 115834088.701 7  90260401.58845                  22042458.227
                  22042468.766                          45.400          32.800

 123660043.156 7  96358603.39544                  23531726.063
                  23531736.988                          43.300          24.500

 130580594.421 6 101751212.99042                  24848667.930
                  24848679.730                          39.600          17.800

 116411459.079 7  90710388.482 6                  22152350.602
  22152360.023    22152360.238                          46.200          41.100

 114234483.590 7  89014018.91444                  21738070.133
                  21738079.668                          45.700          28.500

 117599914.340 7  91636391.803 7  87818225.586 8  22378485.148
  22378496.152    22378496.719    22378495.996          45.100          44.000
        49.300
 120351935.367 7  93780787.09044                  22902187.539
                  22902200.832                          43.600          24.100

 14  3  3  0  8  0.0000000  0 12G20G16G23G13G30G06G19G08G07G03G27G10
 129394088.317 6 100826612.89842                  24622874.336
                  24622893.125                          37.300          17.400

 111913851.374 7  87205781.96746                  21296454.133
                  21296463.160                          44.300          36.100

 106970529.788 7  83353874.93545                  20355804.063
                  20355810.000                          47.800          34.400

 106410502.286 7  82917407.77045                  20249214.008
                  20249222.086                          44.600          35.000

 121503222.154 7  94677951.983 7  90733032.073 8  23121265.375
  23121278.480    23121278.848    23121278.188          42.600          45.600
        50.200
 115818157.595 7  90247987.83445                  22039426.484
                  22039436.535                          46.000          32.300

 123562106.045 7  96282289.01344                  23513088.922
                  23513100.246                          43.100          25.900

 130503668.506 6 101691271.02143                  24834028.734
                  24834041.797                          39.600          18.600

 116349056.459 7  90661763.173 6                  22140475.906
  22140485.922    22140485.766                          46.200          40.700

 114162535.091 7  88957955.26444                  21724378.344
                  21724388.852                          46.300          29.300

 117555086.496 7  91601461.113 7  87784750.373 8  22369953.977
  22369965.609    22369965.664    22369965.879          44.200          43.700
        49.800
 120342989.356 7  93773816.22843                  22900485.953
                  22900497.523                          44.000          23.000

 14  3  3  0  8 30.0000000  0 12G20G16G23G13G30G06G19G08G07G03G27G10
 129496681.321 6 100906555.30242                  24642397.672
                  24642414.934                          36.600          16.300

 111983631.883 7  87260156.37946                  21309733.211
                  21309741.828                          46.200          36.400

 107005899.808 7  83381435.98445                  20362534.828
                  20362541.168                          47.900          35.300

 106378655.530 7  82892592.18245                  20243153.453
                  20243161.957                          44.800          35.400

 121574575.024 7  94733551.587 7  90786315.018 8  23134843.516
  23134856.473    23134857.125    23134856.641          44.300          46.100
        50.500
 115802805.304 7  90236025.11345                  22036504.859
                  22036515.559                          44.500          31.900

 123464334.793 7  96206103.86844                  23494483.492
                  23494494.762                          43.600          24.800

 130426773.233 6 101631352.93043                  24819394.914
                  24819411.113                          39.200          19.000

 116286785.607 7  90613240.546 6                  22128626.148
  22128636.410    22128637.039                          45.000          41.500

 114091042.862 7  88902247.15444                  21710773.445
                  21710784.188                          45.300          28.600

 117510755.337 7  91566917.450 7  87751646.048 8  22361518.063
  22361530.102    22361529.824    22361529.566          43.400          44.700
        49.500
 120334626.555 7  93767299.80843                  22898893.570
                  22898906.059                          42.800          22.300

 14  3  3  0  9  0.0000000  0 12G20G16G23G13G30G06G19G08G07G03G27G10
 129599210.794 6 100986448.36042                  24661908.750
                  24661923.727                          40.000          17.800

 112053806.072 7  87314837.54946                  21323087.531
                  21323095.898                          46.600          36.500

 107041778.742 8  83409393.59445                  20369362.422
                  20369369.262                          48.800          34.900

 106347273.034 7  82868138.34745                  20237181.484
                  20237190.242                          45.200          34.900

 121646020.841 7  94789223.633 7  90839667.381 8  23148438.680
  23148452.316    23148452.277    23148452.207          43.500          45.900
        50.800
 115788033.329 7  90224514.55245                  22033694.109
                  22033704.707                          44.800          32.400

 123366732.771 7  96130050.58543                  23475910.320
                  23475921.586                          42.500          22.500

 130349908.759 7 101571458.72443                  24804769.727
                  24804786.027                          42.100          21.100

 116224646.681 7  90564820.715 6                  22116801.625
  22116811.492    22116812.059                          45.700          41.300

 114020010.027 7  88846897.02144                  21697256.289
                  21697267.055                          45.000          29.200

 117466923.065 7  91532762.542 7  87718914.279 8  22353177.336
  22353188.691    22353189.516    22353188.262          45.600          44.800
        49.600
 120326846.978 7  93761237.82143                  22897412.805
                  22897425.125                          43.400          22.800

 14  3  3  0  9 30.0000000  0 12G20G16G23G13G30G06G19G08G07G03G27G10
 129701674.441 6 101066290.02542                  24681406.859
                  24681422.457                          40.200          16.300

 112124371.111 7  87369823.29046                  21336514.938
                  21336523.535                          47.000          37.000

 107078166.684 8  83437747.82645                  20376286.961
                  20376293.164                          48.600          35.000

 106316357.028 7  82844048.01745                  20231298.727
                  20231306.996                          45.600          35.000

 121717559.675 7  94844968.160 7  90893089.211 8  23162052.492
  23162065.703    23162065.766    23162065.809          44.000          45.700
        51.100
 115773842.562 7  90213456.87945                  22030993.523
                  22031003.707                          45.200          32.200

 123269303.579 7  96054131.93143                  23457369.938
                  23457380.246                          42.600          20.900

 130273075.230 6 101511588.68542                  24790147.484
                  24790165.887                          40.200          17.400

 116162640.421 7  90516504.242 6                  22105002.563
  22105012.063    22105012.754                          45.800          41.800

 113949439.784 7  88791907.34344                  21683826.695
                  21683837.605                          46.100          29.800

 117423592.157 7  91498998.300 7  87686556.919 8  22344931.781
  22344942.578    22344943.309    22344942.172          47.500          45.800
        49.300
 120319650.829 7  93755630.48244                  22896043.891
                  22896055.887                          43.000          24.900

 14  3  3  0 10  0.0000000  0 12G20G16G23G13G30G06G19G08G07G03G27G10
 129804069.602 6 101146078.33043                  24700892.484
                  24700908.395                          41.800          19.300

 112195324.316 7  87425111.50046                  21350016.828
                  21350025.516                          46.900          37.000

 107115063.424 8  83466498.53245                  20383308.063
                  20383314.656                          48.000          34.400

 106285909.298 7  82820322.55545                  20225504.641
                  20225512.578                          45.400          35.000

 121789191.049 7  94900784.789 7  90946580.137 8  23175683.695
  23175696.570    23175696.848    23175696.773          43.100          45.800
        50.700
 115760234.417 7  90202853.21045                  22028403.711
                  22028414.266                          45.900          32.900

 123172050.705 7  95978350.63443                  23438862.969
                  23438872.438                          42.700          19.600

 130196272.658 7 101451742.69643                  24775533.563
                  24775551.215                          42.600          21.100

 116100767.091 7  90468291.357 6                  22093227.258
  22093237.645    22093238.379                          46.000          41.300

 113879335.348 7  88737280.63244                  21670487.125
                  21670496.883                          45.400          29.700

 117380764.656 7  91465626.325 7  87654575.475 8  22336781.773
  22336792.691    22336792.832    22336792.051          46.200          44.900
        49.100
 120313037.837 7  93750477.56344                  22894785.695
                  22894798.074                          44.100          26.000

 14  3  3  0 10 30.0000000  0 12G20G16G23G13G30G06G19G08G07G03G27G10
 129906393.746 6 101225811.18043                  24720362.992
                  24720381.691                          40.900          18.600

 112266663.032 7  87480700.09945                  21363592.008
                  21363600.285                          47.500          35.500

 107152468.489 7  83495645.35045                  20390425.656
                  20390432.938                          47.600          34.900

 106255931.620 7  82796963.36045                  20219799.672
                  20219807.926                          44.700          34.500

 121860914.539 7  94956673.181 7  91000139.850 8  23189331.648
  23189345.168    23189344.945    23189344.930          42.400          46.300
        49.800
 115747209.208 7  90192703.78245                  22025925.547
                  22025936.016                          46.400          32.700

 123074977.480 7  95902709.34743                  23420389.750
                  23420400.262                          42.100          20.400

 130119500.721 6 101391920.65843                  24760922.594
                  24760940.500                          41.100          19.300

 116039026.918 7  90420182.230 6                  22081479.063
  22081488.820    22081489.230                          45.700          41.400

 113809699.644 7  88683019.15545                  21657235.656
                  21657245.570                          46.600          30.500

 117338442.612 7  91432648.205 7  87622971.470 8  22328728.211
  22328739.426    22328739.391    22328738.785          46.600          45.100
        48.800
 120307007.750 7  93745778.85444                  22893638.508
                  22893651.063                          44.500          26.000

 14  3  3  0 11  0.0000000  0 12G20G16G23G13G30G06G19G08G07G03G27G10
 130008644.646 6 101305487.03542                  24739821.063
                  24739840.047                          39.000          17.800

 112338384.995 7  87536587.35046                  21377240.477
                  21377248.496                          47.200          36.400

 107190382.118 7  83525188.44145                  20397640.313
                  20397647.086                          47.800          34.400

 106226425.899 7  82773971.94745                  20214185.352
                  20214193.383                          45.000          35.400

 121932729.993 7  95012633.247 7  91053768.264 8  23202998.195
  23203011.609    23203011.859    23203011.023          43.100          47.000
        48.800
 115734768.719 7  90183009.98645                  22023557.789
                  22023568.020                          45.900          33.500

 122978087.631 7  95827210.94243                  23401952.758
                  23401963.789                          43.000          22.900

 130042759.767 7 101332122.72542                  24746320.359
                  24746333.734                          42.600          16.900

 115977420.482 7  90372177.328 6                  22069755.773
  22069765.660    22069765.859                          46.000          41.200

 113740535.720 7  88629125.30045                  21644074.133
                  21644084.219                          46.000          31.100

 117296628.357 7  91400065.792 7  87591746.670 8  22320770.797
  22320782.074    22320782.391    22320781.371          45.200          45.800
        48.700
 120301560.513 7  93741534.31744                  22892601.313
                  22892614.066                          43.600          24.600

 14  3  3  0 11 30.0000000  0 12G20G16G23G13G30G06G19G08G07G03G27G10
 130110819.805 6 101385103.77943                  24759264.898
                  24759283.191                          40.100          19.600

 112410487.505 7  87592771.12645                  21390960.867
                  21390969.465                          47.000          35.500

 107228804.215 7  83555127.73545                  20404952.156
                  20404958.355                          46.600          34.300

 106197394.205 7  82751349.89345                  20208660.352
                  20208669.102                          43.300          35.100

 122004637.206 7  95068664.809 7  91107465.189 8  23216681.531
  23216694.785    23216695.004    23216694.461          43.100          46.500
        49.300
 115722913.543 7  90173772.27145                  22021302.141
                  22021312.121                          45.100          33.400

 122881384.519 7  95751858.08743                  23383551.008
                  23383561.523                          42.000          22.800

 129966049.874 6 101272348.96643                  24731721.930
                  24731735.965                          41.100          18.300

 115915948.213 7  90324276.976 6                  22058057.383
  22058066.832    22058067.066                          46.200          41.400

 113671846.549 7  88575601.39645                  21631002.742
                  21631013.027                          46.600          31.400

 117255324.024 7  91367880.709 7  87560902.645 8  22312910.906
  22312922.484    22312922.953    22312921.875          45.600          46.500
        49.100
 120296695.972 7  93737743.78744                  22891675.555
                  22891687.363                          43.900          25.400

 14  3  3  0 12  0.0000000  0 12G20G16G23G13G30G06G19G08G07G03G27G10
 130212915.893 6 101464659.00442                  24778693.195
                  24778711.602                          39.200          17.800

 112482967.501 7  87649249.03345                  21404753.492
                  21404762.258                          45.800          35.400

 107267733.716 8  83585462.40145                  20412359.977
                  20412366.066                          48.200          34.600

 106168837.597 7  82729098.03845                  20203226.203
                  20203234.605                          44.900          35.200

 122076635.257 7  95124767.164 7  91161229.939 8  23230382.703
  23230395.613    23230395.555    23230395.832          45.900          45.800
        50.200
 115711644.100 7  90164990.95645                  22019157.039
                  22019168.387                          45.600          32.700

 122784871.215 6  95676653.12943                  23365184.063
                  23365195.082                          39.700          22.000

 129889370.759 6 101212599.24243                  24717130.180
                  24717142.410                          41.100          18.600

 115854609.730 7  90276480.884 6                  22046385.234
  22046394.801    22046394.793                          47.300          41.100

 113603634.518 7  88522449.28245                  21618022.461
                  21618032.668                          46.000          30.800

 117214531.086 7  91336094.102 7  87530440.508 8  22305148.383
  22305159.863    22305160.652    22305159.105          46.400          46.900
        49.700
 120292413.337 7  93734406.71544                  22890860.789
                  22890872.141                          43.700          25.500

 14  3  3  0 12 30.0000000  0 12G20G16G23G13G30G06G19G08G07G03G27G10
 130314930.710 6 101544150.86643                  24798106.820
                  24798125.695                          38.600          19.600

 112555822.473 7  87706019.13845                  21418617.281
                  21418625.820                          46.200          34.600

 107307170.471 7  83616192.32845                  20419864.719
                  20419871.227                          47.400          34.300

 106140757.737 7  82707217.65945                  20197882.805
                  20197890.527                          42.900          34.700

 122148723.878 7  95180940.099 7  91215062.323 8  23244101.266
  23244113.016    23244113.395    23244113.906          45.400          45.300
        50.100
 115700961.511 7  90156666.95745                  22017124.195
                  22017135.426                          46.100          33.500

 122688550.939 6  95601598.61943                  23346854.516
                  23346866.465                          39.500          22.000

 129812722.182 6 101152873.23543                  24702544.281
                  24702556.418                          41.700          18.600

 115793405.539 7  90228789.416 6                  22034738.734
  22034747.363    22034748.078                          46.700          41.800

 113535902.725 7  88469671.37645                  21605133.109
                  21605143.336                          45.300          30.200

 117174251.708 7  91304707.669 7  87500361.871 8  22297483.492
  22297494.770    22297495.184    22297494.461          47.200          45.900
        49.500
 120288712.406 7  93731522.91344                  22890156.922
                  22890168.824                          43.400          26.000

 14  3  3  0 13  0.0000000  0 12G20G16G23G13G30G06G19G08G07G03G27G10
 130416861.975 6 101623577.64743                  24817504.328
                  24817522.262                          39.900          19.600

 112629049.982 7  87763079.54145                  21432551.891
                  21432560.023                          45.800          34.400

 107347114.379 7  83647317.45845                  20427465.242
                  20427472.563                          46.600          34.400

 106113156.654 7  82685710.35045                  20192631.070
                  20192638.891                          45.000          35.900

 122220902.850 7  95237183.448 7  91268962.186 8  23257836.359
  23257848.559    23257848.523    23257848.918          43.900          44.700
        49.200
 115690866.356 7  90148800.67145                  22015203.438
                  22015213.941                          45.200          33.300

 122592427.385 6  95526697.38243                  23328562.867
                  23328574.805                          39.800          22.200

 129736104.405 7 101093171.32243                  24687964.750
                  24687979.195                          42.200          19.900

 115732335.729 7  90181202.659 7                  22023116.953
  22023126.211    22023126.617                          46.400          42.300

 113468653.626 7  88417269.59145                  21592336.492
                  21592345.770                          46.200          30.900

 117134487.892 7  91273723.006 7  87470668.249 8  22289916.313
  22289927.594    22289927.270    22289927.016          46.100          45.900
        49.400
 120285593.071 7  93729092.32144                  22889563.180
                  22889576.203                          42.600          26.800

 14  3  3  0 13 30.0000000  0 12G20G16G23G13G30G06G19G08G07G03G27G10
 130518706.603 5 101702936.87842                  24836883.484
                  24836901.086                          35.300          16.300

 112702646.817 7  87820427.72345                  21446557.055
                  21446565.070                          45.200          33.400

 107387564.873 7  83678837.32445                  20435162.984
                  20435170.434                          47.300          34.800

 106086035.634 7  82664577.11045                  20187469.984
                  20187478.219                          46.000          35.700

 122293171.529 7  95293496.698 7  91322929.057 8  23271588.156
  23271600.559    23271600.363    23271600.523          44.100          44.400
        49.400
 115681359.754 7  90141392.98445                  22013394.328
                  22013405.043                          46.000          33.200

 122496503.760 6  95451951.90243                  23310308.984
                  23310319.695                          40.800          22.500

 129659517.124 6 101033493.16443                  24673389.102
                  24673406.016                          40.800          20.100

 115671400.684 7  90133720.908 7                  22011521.328
  22011531.301    22011531.305                          46.900          42.600

 113401890.127 7  88365246.19045                  21579631.406
                  21579641.145                          46.600          30.500

 117095241.459 7  91243141.505 7  87441360.983 8  22282448.367
  22282459.164    22282459.137    22282458.004          45.900          46.000
        49.500
 120283054.825 7  93727114.52544                  22889081.008
                  22889093.301                          46.200          28.600

 14  3  3  0 14  0.0000000  0 12G20G16G23G13G30G06G19G08G07G03G27G10
 130620462.86516 101782227.33552                  24856248.008
                  24856264.223                          37.500          16.900

 112776610.890 7  87878062.06145                  21460631.250
                  21460639.633                          44.200          33.100

 107428522.844 8  83710752.61945                  20442957.617
                  20442964.375                          48.400          35.200

 106059397.436 7  82643820.11345                  20182400.492
                  20182408.621                          45.600          35.200

 122365530.574 7  95349880.357 7  91376963.402 8  23285358.328
  23285370.426    23285369.832    23285370.523          44.100          44.700
        49.000
 115672442.991 7  90134444.92545                  22011697.617
                  22011708.020                          45.400          33.500

 122400784.220 7  95377365.48244                  23292094.797
                  23292104.902                          42.400          25.900

 129582961.056 6 100973839.25343                  24658822.039
                  24658837.996                          39.900          20.400

 115610601.492 8  90086345.026 7                  21999952.172
  21999962.027    21999962.297                          48.000          43.600

 113335616.034 7  88313604.16545                  21567019.641
                  21567029.973                          46.300          30.900

 117056515.245 7  91212965.318 7  87412442.177 8  22275078.430
  22275089.492    22275089.910    22275088.777          45.800          46.300
        49.000
 120281097.834 7  93725589.65544                  22888707.641
                  22888720.566                          44.600          26.500

 14  3  3  0 14 30.0000000  0 12G20G16G23G13G30G06G19G08G07G03G27G10
 130722127.415 5 101861446.22742                  24875593.055
                  24875608.109                          34.100          15.600

 112850939.042 7  87935980.09345                  21474775.727
                  21474783.801                          45.800          33.600

 107469986.629 8  83743062.06245                  20450848.203
                  20450853.875                          48.100          34.900

 106033242.569 7  82623439.72745                  20177423.219
                  20177431.570                          45.400          34.800

 122437978.528 7  95406333.305 7  91431064.156 8  23299144.398
  23299156.930    23299156.457    23299157.086          45.500          44.600
        49.300
 115664115.671 7  90127956.18445                  22010112.398
                  22010122.332                          46.300          32.900

 122305271.402 7  95302940.13444                  23273918.930
                  23273928.832                          42.300          26.400

 129506435.307 6 100914209.05443                  24644259.078
                  24644275.598                          39.500          20.100

 115549937.519 8  90039074.516 7                  21988408.211
  21988417.680    21988418.129                          49.100          43.800

 113269833.112 7  88262344.85445                  21554501.656
                  21554511.488                          46.500          30.900

 117018310.109 7  91183195.187 7  87383912.489 8  22267808.445
  22267819.551    22267819.922    22267818.668          45.700          47.000
        50.000
 120279720.857 7  93724516.72544                  22888445.555
                  22888456.949                          44.000          26.200

 14  3  3  0 15  0.0000000  0 12G20G16G23G13G30G06G19G08G07G03G27G10
 130823698.116 6 101940592.05442                  24894921.633
                  24894936.781                          38.900          14.800

 112925628.965 7  87994180.02545                  21488989.086
                  21488997.137                          44.600          33.700

 107511956.113 8  83775765.53145                  20458834.023
                  20458839.891                          48.400          33.900

 106007573.122 7  82603437.58145                  20172538.883
                  20172546.086                          45.800          35.500

 122510515.503 7  95462855.590 7  91485231.366 8  23312948.203
  23312960.055    23312960.086    23312960.660          46.000          45.000
        49.900
 115656378.864 7  90121927.56245                  22008639.945
                  22008650.145                          46.000          33.600

 122209968.706 7  95228678.55544                  23255783.672
                  23255792.227                          42.800          26.200

 129429940.139 6 100854602.69742                  24629701.578
                  24629718.535                          37.600          17.800

 115489409.414 8  89991909.861 7                  21976890.195
  21976900.086    21976900.551                          48.900          43.600

 113204544.599 7  88211470.79045                  21542077.695
                  21542087.660                          46.000          31.100

 116980628.385 7  91153832.907 7  87355773.653 8  22260637.914
  22260648.930    22260649.699    22260648.445          46.300          47.400
        49.800
 120278923.877 7  93723895.72444                  22888294.320
                  22888304.461                          44.300          25.800

 14  3  3  0 15 30.0000000  0 12G20G16G23G13G30G06G19G08G07G03G27G10
 130925172.697 6 102019662.97042                  24914231.555
                  24914247.730                          39.800          15.600

 113000677.620 7  88052659.48845                  21503270.305
                  21503278.555                          45.700          34.800

 107554431.026 8  83808862.84245                  20466916.633
                  20466922.531                          48.300          34.000

 105982390.863 7  82583815.06645                  20167747.156
                  20167754.715                          46.800          35.500

 122583141.101 7  95519446.981 7  91539464.774 8  23326768.414
  23326780.375    23326780.500    23326781.246          45.600          43.900
        49.800
 115649233.847 7  90116360.08245                  22007280.875
                  22007292.098                          45.200          34.200

 122114879.903 7  95154583.66344                  23237688.281
                  23237697.543                          42.600          27.100

 129353475.331 6 100795019.98543                  24615151.211
                  24615166.898                          39.300          20.400

 115429017.593 8  89944851.395 7                  21965397.766
  21965407.441    21965408.180                          48.300          43.700

 113139753.347 7  88160984.20245                  21529748.313
                  21529758.598                          46.800          31.000

 116943471.967 7  91124879.948 7  87328027.100 8  22253566.938
  22253578.426    22253578.629    22253577.551          46.200          47.000
        49.800
 120278706.224 7  93723726.14944                  22888252.844
                  22888263.531                          45.100          26.200

 14  3  3  0 16  0.0000000  0 12G20G16G23G13G30G06G19G08G07G03G27G10
 131026548.617 6 102098656.99042                  24933522.672
                  24933539.617                          38.700          15.600

 113076082.588 7  88111416.59145                  21517619.391
                  21517628.070                          46.400          34.700

 107597411.110 7  83842353.82345                  20475095.508
                  20475103.063                          47.300          34.800

 105957697.573 7  82564573.58046                  20163047.578
                  20163055.816                          46.200          36.000

 122655855.226 7  95576107.350 7  91593764.270 8  23340604.867
  23340617.594    23340617.629    23340618.316          45.400          44.700
        50.000
 115642680.726 7  90111253.81345                  22006033.359
                  22006044.387                          45.200          33.100

 122020008.502 7  95080658.16144                  23219635.016
                  23219643.359                          43.400          28.300

 129277041.321 6 100735461.25343                  24600605.625
                  24600621.648                          40.000          19.900

 115368762.273 8  89897899.306 7                  21953931.383
  21953941.074    21953941.309                          48.400          43.000

 113075462.072 7  88110887.20145                  21517514.336
                  21517523.820                          46.500          31.400

 116906842.866 7  91096337.890 7  87300674.313 8  22246596.180
  22246607.473    22246607.238    22246606.633          46.600          46.400
        49.600
 120279067.920 7  93724008.02544                  22888320.688
                  22888334.023                          43.600          27.800

 14  3  3  0 16 30.0000000  0 12G20G16G23G13G30G06G19G08G07G03G27G10
 131127823.190 6 102177572.00742                  24952795.727
                  24952813.164                          41.100          14.800

 113151841.148 7  88170449.22045                  21532035.836
                  21532044.457                          45.000          35.200

 107640895.621 7  83876237.84645                  20483370.875
                  20483377.449                          47.300          35.100

 105933494.650 7  82545714.19245                  20158442.594
                  20158450.102                          46.600          35.600

 122728657.366 7  95632836.279 7  91648129.475 8  23354458.750
  23354470.770    23354471.352    23354472.039          42.900          43.800
        50.300
 115636720.311 7  90106609.39845                  22004899.711
                  22004909.934                          45.800          33.400

 121925357.525 7  95006904.42144                  23201623.383
                  23201633.375                          42.500          28.500

 129200637.587 6 100675926.14743                  24586065.750
                  24586081.602                          39.800          19.000

 115308643.458 7  89851053.584 7                  21942490.469
  21942499.672    21942500.164                          47.900          42.500

 113011673.510 7  88061181.93945                  21505375.211
                  21505384.223                          44.900          30.100

 116870742.728 7  91068208.023 7  87273716.535 8  22239727.406
  22239737.742    22239737.938    22239736.863          46.300          47.000
        49.300
 120280008.030 7  93724740.64344                  22888499.758
                  22888513.586                          42.900          27.600

 14  3  3  0 17  0.0000000  0 12G20G16G23G13G30G06G19G08G07G03G27G10
 131228994.213 6 102256406.35842                  24972047.180
                  24972067.758                          38.600          16.300

 113227950.869 7  88229755.48445                  21546518.930
                  21546527.488                          45.700          35.000

 107684884.605 7  83910514.96845                  20491741.305
                  20491748.512                          47.900          34.600

 105909783.998 7  82527238.38845                  20153929.836
                  20153937.656                          45.400          35.300

 122801547.408 7  95689633.707 7  91702560.323 8  23368329.758
  23368341.785    23368342.063    23368342.867          44.400          44.300
        50.100
 115631354.035 7  90102427.95045                  22003877.797
                  22003888.680                          45.100          33.700

 121830930.519 7  94933325.18044                  23183654.875
                  23183665.250                          43.300          28.100

 129124264.326 7 100616414.81243                  24571533.430
                  24571547.227                          42.100          19.000

 115248662.297 7  89804315.130 7                  21931076.539
  21931086.270    21931086.273                          47.400          42.700

 112948390.548 7  88011870.64745                  21493332.719
                  21493342.148                          46.200          30.600

 116835173.698 7  91040491.980 7  87247155.354 8  22232958.031
  22232969.492    22232969.867    22232967.680          46.300          47.500
        48.900
 120281526.280 7  93725923.75644                  22888788.711
                  22888802.621                          43.400          27.600

 14  3  3  0 17 30.0000000  0 12G20G16G23G13G30G06G19G08G07G03G27G10
 131330059.261 6 102335158.18142                  24991280.219
                  24991300.695                          37.600          16.900

 113304408.858 7  88289333.11945                  21561068.602
                  21561076.473                          46.100          35.500

 107729377.431 7  83945184.70345                  20500208.266
                  20500214.660                          47.200          33.900

 105886567.250 7  82509147.45945                  20149511.758
                  20149519.613                          46.300          34.500

 122874524.908 7  95746499.287 7  91757056.486 8  23382216.477
  23382229.012    23382228.664    23382229.820          44.600          43.700
        50.800
 115626581.748 7  90098709.33845                  22002970.047
                  22002980.566                          44.900          33.300

 121736731.317 7  94859923.42844                  23165728.320
                  23165740.430                          42.400          27.500

 129047921.376 6 100556927.09443                  24557004.797
                  24557019.500                          40.900          19.900

 115188818.702 7  89757683.852 7                  21919688.406
  21919697.750    21919698.520                          46.200          43.000

 112885616.146 7  87962955.62745                  21481387.211
                  21481396.504                          44.700          30.400

 116800137.440 7  91013191.104 8  87220992.031 8  22226291.094
  22226302.125    22226302.500    22226300.367          46.700          48.200
        49.000
 120283622.083 7  93727556.90044                  22889187.086
                  22889200.332                          43.800          26.200

 14  3  3  0 18  0.0000000  0 12G20G16G23G13G30G06G19G08G07G03G27G10
 131431015.332 6 102413825.14542                  25010491.336
                  25010511.023                          36.500          16.300

 113381212.375 7  88349179.99046                  21575684.469
                  21575692.395                          46.400          36.200

 107774373.501 8  83980246.54845                  20508770.797
                  20508777.438                          48.800          35.200

 105863845.735 7  82491442.41845                  20145188.633
                  20145195.785                          46.300          35.500

 122947589.448 7  95803432.685 7  91811617.636 8  23396120.648
  23396133.316    23396133.063    23396133.695          43.800          44.100
        50.300
 115622403.651 7  90095453.73545                  22002174.898
                  22002184.898                          44.200          33.500

 121642762.931 7  94786701.51844                  23147846.203
                  23147858.113                          42.300          25.400

 128971608.865 7 100497463.01143                  24542483.375
                  24542497.801                          42.100          21.300

 115129112.866 7  89711159.935 7                  21908327.266
  21908336.445    21908336.832                          47.000          42.500

 112823352.578 7  87914438.66445                  21469538.539
                  21469548.801                          45.600          30.100

 116765635.544 7  90986306.608 8  87195227.738 8  22219725.273
  22219737.234    22219737.414    22219735.984          47.200          48.500
        49.800
 120286294.755 7  93729639.54144                  22889696.133
                  22889708.160                          44.400          26.600

 14  3  3  0 18 30.0000000  0 12G20G16G23G13G30G06G19G08G07G03G27G10
 131531860.022 6 102492405.18842                  25029681.836
                  25029699.082                          37.100          13.900

 113458358.484 7  88409293.83246                  21590364.844
                  21590372.973                          47.400          36.200

 107819871.677 7  84015699.65045                  20517428.508
                  20517435.070                          47.900          35.200

 105841620.667 7  82474124.22345                  20140959.227
                  20140966.859                          45.700          35.500

 123020740.417 7  95860433.403 7  91866243.343 8  23410040.258
  23410053.563    23410053.422    23410053.289          44.100          44.300
        50.500
 115618820.341 7  90092661.61045                  22001492.789
                  22001503.684                          44.800          34.100

 121549028.410 7  94713661.84244                  23130009.313
                  23130020.320                          43.000          25.400

 128895326.513 6 100438022.48343                  24527967.367
                  24527983.145                          41.000          20.900

 115069544.794 7  89664743.361 6                  21896991.461
  21897000.559    21897001.145                          46.400          41.800

 112761602.376 7  87866321.71945                  21457787.883
                  21457798.574                          44.900          31.000

 116731669.520 7  90959839.683 8  87169863.612 8  22213262.320
  22213273.367    22213273.727    22213272.707          46.400          48.600
        49.800
 120289543.191 7  93732170.81644                  22890314.305
                  22890324.461                          44.700          25.600

 14  3  3  0 19  0.0000000  0 12G20G16G23G13G30G06G19G08G07G03G27G10
 131632591.205 6 102570896.93452                  25048851.422
                  25048866.445                          39.600          15.600

 113535844.728 7  88469672.70846                  21605109.445
                  21605118.191                          47.500          36.200

 107865872.016 7  84051544.07145                  20526181.930
                  20526188.742                          47.600          35.000

 105819894.283 7  82457194.61545                  20136824.945
                  20136832.148                          45.100          35.400

 123093977.918 7  95917501.585 7  91920933.668 8  23423977.219
  23423990.625    23423990.410    23423990.570          44.100          44.600
        50.000
 115615832.748 7  90090333.65145                  22000924.289
                  22000935.086                          45.400          33.800

 121455531.591 7  94640807.38043                  23112217.398
                  23112227.563                          43.200          23.800

 128819074.597 7 100378605.66743                  24513456.422
                  24513474.406                          42.000          22.200

 115010115.648 7  89618435.050 7                  21885682.328
  21885691.840    21885692.422                          46.600          42.600

 112700368.267 7  87818606.91445                  21446134.914
                  21446145.898                          44.000          30.900

 116698241.473 7  90933791.957 7  87144901.225 8  22206900.883
  22206912.156    22206912.391    22206911.254          45.800          47.900
        49.000
 120293367.144 7  93735150.53944                  22891042.250
                  22891052.941                          45.600          27.600

 14  3  3  0 19 30.0000000  0 12G20G16G23G13G30G06G19G08G07G03G27G10
 131733206.196 6 102649298.07742                  25067996.703
                  25068014.543                          40.300          16.300

 113613668.599 7  88530314.66046                  21619918.984
                  21619927.355                          46.200          36.100

 107912373.673 8  84087779.12345                  20535030.953
                  20535037.715                          48.300          34.700

 105798667.362 7  82440654.19345                  20132785.367
                  20132792.664                          46.100          35.600

 123167301.280 7  95974636.627 7  91975688.083 8  23437929.828
  23437943.320    23437943.148    23437943.016          42.600          44.900
        50.400
 115613440.121 7  90088469.34345                  22000468.992
                  22000479.113                          45.500          34.000

 121362275.552 7  94568140.56943                  23094471.359
                  23094479.973                          42.700          23.000

 128742852.658 7 100319212.16343                  24498952.930
                  24498970.559                          42.600          22.600

 114950825.098 7  89572234.728 7                  21874399.953
  21874409.180    21874409.590                          46.700          42.300

 112639652.831 7  87771296.26344                  21434581.000
                  21434590.887                          45.200          29.800

 116665352.788 7  90908164.526 8  87120341.618 8  22200641.703
  22200652.930    22200653.219    22200651.555          45.200          48.000
        49.500
 120297765.807 7  93738578.11044                  22891879.297
                  22891891.480                          46.400          26.700

 14  3  3  0 20  0.0000000  0 11G16G23G13G30G06G19G08G07G03G27G10
 113691827.262 7  88591217.49745                  21634792.125
                  21634800.379                          46.900          34.900

 107959376.985 8  84124405.07245                  20543975.891
                  20543981.973                          49.800          35.200

 105777942.447 7  82424504.94945                  20128841.523
                  20128849.125                          45.600          35.000

 123240710.960 7  96031838.938 7  92030506.960 8  23451898.164
  23451912.785    23451912.754    23451912.563          42.700          45.300
        50.500
 115611644.823 7  90087070.46745                  22000127.063
                  22000137.801                          44.100          33.700

 121269264.499 7  94495664.63943                  23076771.688
                  23076778.473                          42.600          22.800

 128666661.643 6 100259842.76843                  24484453.008
                  24484470.316                          41.600          20.600

 114891673.910 7  89526142.998 7                  21863143.594
  21863152.340    21863152.871                          46.400          42.100

 112579459.566 7  87724392.51245                  21423126.805
                  21423136.203                          46.000          30.100

 116633005.877 7  90882959.243 8  87096186.575 8  22194486.445
  22194497.688    22194498.078    22194495.652          45.900          48.100
        49.600
 120302739.293 7  93742453.58644                  22892825.906
                  22892838.383                          46.500          28.500

 14  3  3  0 20 30.0000000  0 12G09G16G23G13G30G06G19G08G07G03G27G10
 130341214.72216 101564676.97152                  24803113.789
                  24803132.184                          39.100          17.800

 113770317.918 7  88652379.02845                  21649728.156
                  21649736.301                          46.200          35.400

 108006880.618 8  84161420.88145                  20553015.727
                  20553022.469                          49.100          35.200

 105757720.282 7  82408747.46745                  20124992.805
                  20125000.902                          45.000          34.400

 123314206.021 6  96089107.789 7  92085389.610 8  23465884.469
  23465897.875    23465898.219    23465897.676          41.800          45.100
        50.300
 115610446.016 7  90086136.37945                  21999899.070
                  21999908.840                          45.800          34.200

 121176501.105 7  94423381.68643                  23059118.883
                  23059126.145                          42.300          22.800

 128590500.899 6 100200496.96243                  24469959.648
                  24469976.844                          40.800          18.600

 114832662.032 7  89480159.813 6                  21851914.016
  21851922.602    21851923.090                          46.100          41.800

 112519790.480 7  87677897.21545                  21411772.320
                  21411781.727                          46.300          31.400

 116601201.812 7  90858176.956 8  87072436.903 8  22188434.469
  22188445.848    22188446.289    22188443.805          45.300          48.400
        50.000
 120308286.253 7  93746775.93644                  22893881.328
                  22893894.191                          46.000          27.300

 14  3  3  0 21  0.0000000  0 12G09G16G23G13G30G06G19G08G07G03G27G10
 130247146.649 6 101491377.51242                  24785212.648
                  24785231.316                          36.300          14.800

 113849138.680 7  88713797.79545                  21664727.344
                  21664735.602                          46.800          34.800

 108054884.709 8  84198826.65245                  20562150.273
                  20562157.207                          49.800          35.300

 105738003.576 7  82393383.84645                  20121241.039
                  20121248.785                          44.600          34.200

 123387786.954 7  96146443.551 7  92140336.383 8  23479886.305
  23479900.160    23479900.035    23479899.668          42.200          45.100
        50.200
 115609845.405 7  90085668.44445                  21999784.695
                  21999794.727                          44.900          34.100

 121083989.630 7  94351295.02843                  23041513.586
                  23041521.863                          42.000          22.900

 128514371.011 6 100141175.24343                  24455473.023
                  24455487.781                          40.800          18.300

 114773790.936 7  89434286.348 6                  21840710.703
  21840720.156    21840719.949                          45.700          41.800

 112460648.603 7  87631812.72445                  21400517.977
                  21400526.988                          46.500          31.400

 116569943.041 7  90833819.560 8  87049094.421 8  22182485.734
  22182496.668    22182496.805    22182495.438          45.500          48.100
        49.900
 120314406.605 7  93751545.08744                  22895045.680
                  22895058.055                          46.000          26.800

 14  3  3  0 21 30.0000000  0 12G09G16G23G13G30G06G19G08G07G03G27G10
 130153085.003 6 101418083.04342                  24767313.609
                  24767331.379                          39.800          16.900

 113928286.528 7  88775471.43645                  21679788.469
                  21679797.133                          47.100          35.100

 108103388.164 8  84236621.55645                  20571380.289
                  20571386.828                          48.700          34.600

 105718793.418 7  82378414.93045                  20117585.352
                  20117593.637                          44.400          35.300

 123461453.093 6  96203845.737 7  92195346.786 8  23493904.078
  23493917.977    23493917.828    23493917.695          41.400          44.900
        50.000
 115609842.965 7  90085666.59745                  21999784.094
                  21999794.684                          44.700          33.600

 120991733.233 6  94279407.14744                  23023957.750
                  23023967.121                          41.100          25.000

 128438271.478 6 100081877.19843                  24440991.945
                  24441003.621                          40.800          18.600

 114715060.131 7  89388522.187 7                  21829534.836
  21829543.559    21829544.203                          46.400          42.400

 112402036.457 7  87586141.01545                  21389364.906
                  21389373.914                          47.200          32.400

 116539230.754 7  90809888.006 7  87026160.036 8  22176641.594
  22176652.535    22176652.328    22176651.660          45.900          47.600
        50.600
 120321099.288 7  93756760.18144                  22896318.523
                  22896330.973                          43.700          26.000

 14  3  3  0 22  0.0000000  0 12G09G16G23G13G30G06G19G08G07G03G27G10
 130059029.962 6 101344793.80143                  24749415.523
                  24749433.410                          41.100          19.000

 114007758.174 7  88837397.38345                  21694911.508
                  21694919.934                          47.100          35.500

 108152390.060 8  84274804.85145                  20580704.828
                  20580711.195                          49.000          34.200

 105700090.314 7  82363841.12045                  20114026.516
                  20114033.820                          44.800          34.400

 123535203.808 7  96261313.795 7  92250420.337 8  23507939.039
  23507952.543    23507952.805    23507952.207          42.100          45.700
        49.600
 115610438.123 7  90086130.40845                  21999897.141
                  21999908.063                          45.500          34.400

 120899734.624 6  94207720.12244                  23006451.852
                  23006461.613                          41.800          25.400

 128362202.198 6 100022602.65142                  24426514.414
                  24426526.934                          40.400          17.400

 114656469.845 7  89342867.531 7                  21818385.594
  21818393.969    21818394.219                          47.500          42.700

 112343956.034 7  87540883.62745                  21378312.000
                  21378322.090                          47.200          32.600

 116509066.209 7  90786383.260 8  87003634.676 8  22170901.070
  22170911.914    22170912.684    22170912.074          44.600          48.100
        50.300
 120328362.984 7  93762420.23144                  22897701.344
                  22897712.355                          45.100          25.200

 14  3  3  0 22 30.0000000  0 12G09G16G23G13G30G06G19G08G07G03G27G10
 129964982.193 6 101271510.16942                  24731516.594
                  24731537.316                          37.200          15.600

 114087551.312 7  88899573.84945                  21710096.078
                  21710104.113                          47.300          35.600

 108201890.056 8  84313376.25345                  20590124.188
                  20590130.059                          50.600          33.900

 105681896.308 7  82349664.02245                  20110564.203
                  20110571.699                          45.400          35.100

 123609038.974 7  96318847.655 7  92305556.950 8  23521988.977
  23522002.898    23522003.031    23522002.605          42.200          45.700
        49.300
 115611631.406 7  90087060.30445                  22000124.445
                  22000133.918                          44.500          33.600

 120807997.577 7  94136236.93044                  22988994.727
                  22989005.234                          43.500          28.500

 128286163.092 6  99963351.66042                  24412046.273
                  24412058.785                          41.500          17.800

 114598020.624 8  89297322.770 7                  21807263.516
  21807271.871    21807272.348                          48.100          42.600

 112286410.152 7  87496042.76345                  21367361.383
                  21367371.387                          45.300          32.100

 116479451.231 7  90763306.725 7  86981519.686 8  22165265.891
  22165276.074    22165276.887    22165275.633          46.000          47.600
        50.700
 120336197.346 7  93768524.92344                  22899192.617
                  22899203.453                          45.700          26.500

 14  3  3  0 23  0.0000000  0 12G09G16G23G13G30G06G19G08G07G03G27G10
 129870942.202 6 101198232.58742                  24713623.656
                  24713639.684                          41.800          17.800

 114167663.047 7  88961998.56945                  21725340.609
                  21725349.613                          47.300          35.700

 108251887.671 8  84352335.43045                  20599638.477
                  20599644.664                          49.500          35.000

 105664212.885 7  82335884.76645                  20107199.102
                  20107206.594                          44.600          35.400

 123682958.382 7  96376447.155 7  92360756.477 8  23536055.641
  23536069.531    23536069.336    23536069.145          43.400          46.000
        48.500
 115613423.395 7  90088456.71845                  22000465.313
                  22000474.934                          43.400          34.000

 120716525.715 7  94064960.39144                  22971588.000
                  22971598.367                          43.100          29.600

 128210154.451 6  99904124.38042                  24397580.328
                  24397597.055                          38.100          17.800

 114539713.180 7  89251888.496 7                  21796167.789
  21796176.484    21796176.844                          47.700          43.600

 112229401.648 7  87451620.62645                  21356512.727
                  21356522.672                          46.500          33.200

 116450387.351 7  90740659.650 7  86959816.253 8  22159735.539
  22159745.914    22159745.895    22159744.059          46.300          47.100
        50.000
 120344601.405 7  93775073.58844                  22900791.664
                  22900803.211                          45.900          27.900

 14  3  3  0 23 30.0000000  0 12G09G16G23G13G30G06G19G08G07G03G27G10
 129776909.905 6 101124960.94442                  24695730.109
                  24695745.637                          41.400          17.400

 114248090.577 7  89024669.35745                  21740645.680
                  21740654.121                          46.900          35.000

 108302381.340 8  84391681.14145                  20609247.125
                  20609254.379                          48.800          35.200

 105647040.984 7  82322504.10545                  20103930.813
                  20103938.980                          45.100          35.500

 123756961.295 7  96434111.717 7  92416018.363 8  23550137.938
  23550151.730    23550151.676    23550151.074          43.700          45.000
        48.200
 115615814.105 7  90090319.66745                  22000920.859
                  22000930.973                          44.400          34.700

 120625321.898 7  93993892.72444                  22954231.781
                  22954241.797                          42.900          29.000

 128134175.703 6  99844920.35342                  24383122.125
                  24383139.289                          37.300          16.300

 114481547.094 8  89206564.373 7                  21785098.844
  21785108.566    21785108.879                          48.500          43.900

 112172932.372 7  87407618.68845                  21345767.078
                  21345775.965                          46.700          32.300

 116421875.749 7  90718442.882 7  86938525.206 8  22154309.922
  22154320.215    22154320.160    22154318.672          45.500          47.900
        50.400
 120353573.998 7  93782065.26244                  22902499.250
                  22902511.043                          46.200          26.700

 14  3  3  0 24  0.0000000  0 12G09G16G23G13G30G06G19G08G07G03G27G10
 129682885.869 6 101051695.88942                  24677836.602
                  24677851.598                          40.600          15.600

 114328831.561 7  89087584.39145                  21756009.945
                  21756018.848                          46.600          35.200

 108353370.934 8  84431413.28245                  20618950.141
                  20618957.402                          49.200          34.000

 105630382.586 7  82309523.58645                  20100761.727
                  20100769.102                          45.700          35.500

 123831047.896 7  96491841.522 7  92471342.773 8  23564236.859
  23564249.855    23564249.977    23564249.492          44.100          45.400
        48.400
 115618804.161 7  90092649.64045                  22001489.133
                  22001499.250                          45.700          34.200

 120534389.968 7  93923036.89444                  22936928.266
                  22936936.957                          42.700          29.100

 128058227.309 6  99785739.99443                  24368670.063
                  24368687.164                          40.700          18.600

 114423523.130 7  89161350.984 7                  21774056.969
  21774066.191    21774066.969                          47.300          43.800

 112117005.069 7  87364039.07545                  21335124.570
                  21335133.227                          46.000          31.400

 116393918.345 7  90696657.967 8  86917648.011 8  22148989.391
  22149000.273    22149000.520    22148999.031          46.800          48.200
        50.700
 120363114.623 7  93789499.56144                  22904313.797
                  22904327.016                          44.900          26.000

 14  3  3  0 24 30.0000000  0 12G09G16G23G13G30G06G19G08G07G03G27G10
 129588870.805 7 100978437.62842                  24659946.109
                  24659959.434                          42.000          17.400

 114409883.389 7  89150741.63745                  21771433.344
                  21771441.891                          46.800          35.100

 108404855.870 8  84471531.39645                  20628747.367
                  20628754.551                          48.600          34.400

 105614239.231 7  82296944.36645                  20097689.391
                  20097696.059                          45.500          35.200

 123905217.928 7  96549636.347 7  92526729.493 7  23578350.914
  23578363.379    23578363.793    23578363.016          43.700          44.600
        47.600
 115622393.384 7  90095446.47745                  22002171.898
                  22002182.406                          45.000          34.000

 120443733.090 7  93852395.39344                  22919676.266
                  22919685.883                          42.500          29.300

 127982309.448 7  99726583.39943                  24354224.031
                  24354240.883                          42.400          19.900

 114365642.058 7  89116248.932 7                  21763042.055
  21763051.621    21763052.531                          45.800          43.400

 112061622.707 7  87320884.08045                  21324584.922
                  21324595.281                          44.700          32.100

 116366516.614 7  90675306.053 8  86897185.785 8  22143774.789
  22143785.656    22143785.941    22143784.219          45.300          48.700
        50.500
 120373222.411 7  93797375.83544                  22906238.031
                  22906249.938                          44.700          26.000

 14  3  3  0 25  0.0000000  0 12G09G16G23G13G30G06G19G08G07G03G27G10
 129494864.863 6 100905186.53342                  24642057.344
                  24642072.020                          37.200          16.300

 114491243.388 7  89214139.02545                  21786915.992
                  21786923.652                          46.300          35.000

 108456835.474 8  84512034.98145                  20638638.883
                  20638645.277                          48.400          33.700

 105598612.248 7  82284767.52445                  20094715.883
                  20094722.832                          45.700          34.700

 123979471.171 7  96607496.012 7  92582178.345 7  23592480.828
  23592493.551    23592493.477    23592493.055          44.500          44.000
        47.700
 115626582.286 7  90098710.61045                  22002969.156
                  22002979.395                          44.300          34.000

 120353354.815 7  93781970.98244                  22902477.875
                  22902487.273                          42.800          29.100

 127906421.870 7  99667450.42343                  24339782.852
                  24339799.070                          43.900          20.100

 114307904.077 7  89071258.378 7                  21752055.047
  21752064.477    21752065.211                          47.200          43.300

 112006787.524 7  87278155.44745                  21314150.656
                  21314161.070                          46.700          33.100

 116339672.096 7  90654388.314 8  86877139.638 8  22138666.023
  22138677.230    22138677.453    22138676.609          43.600          48.000
        50.700
 120383896.545 7  93805693.38344                  22908268.648
                  22908281.188                          43.700          25.300

 14  3  3  0 25 30.0000000  0 12G09G16G23G13G30G06G19G08G07G03G27G10
 129400868.445 7 100831942.86143                  24624171.656
                  24624185.617                          42.000          20.400

 114572909.107 7  89277774.63045                  21802456.281
                  21802464.090                          45.600          34.200

 108509308.886 7  84552923.34445                  20648623.992
                  20648630.176                          47.600          33.400

 105583502.882 7  82272994.00945                  20091840.297
                  20091847.879                          44.700          35.400

 124053807.238 7  96665420.202 7  92637689.037 7  23606626.805
  23606639.066    23606639.027    23606638.191          45.000          43.300
        47.100
 115631371.014 7  90102442.16145                  22003880.430
                  22003889.984                          44.300          32.800

 120263258.266 7  93711766.10744                  22885333.500
                  22885342.922                          43.400          29.100

 127830564.472 7  99608340.94943                  24325348.102
                  24325362.492                          44.100          20.600

 114250309.529 7  89026379.593 7                  21741095.195
  21741104.180    21741104.859                          47.500          43.000

 111952501.980 7  87235855.11045                  21303820.242
                  21303830.199                          46.900          33.500

 116313386.104 7  90633905.789 7  86857510.565 8  22133663.734
  22133674.465    22133674.930    22133674.383          44.300          47.900
        51.100
 120395135.750 7  93814451.22644                  22910407.539
                  22910418.395                          43.800          24.400

 14  3  3  0 26  0.0000000  0 12G09G16G23G13G30G06G19G08G07G03G27G10
 129306882.022 6 100758706.71642                  24606285.875
                  24606301.793                          39.100          16.900

 114654877.148 7  89341645.82945                  21818054.422
                  21818062.250                          47.200          34.400

 108562274.916 8  84594195.56145                  20658703.055
                  20658709.031                          48.200          33.100

 105568912.162 7  82261624.64745                  20089063.297
                  20089071.504                          44.300          35.700

 124128225.669 7  96723408.578 7  92693261.229 7  23620787.578
  23620800.652    23620800.563    23620799.316          43.100          42.400
        47.200
 115636759.458 7  90106641.00645                  22004905.703
                  22004915.258                          45.100          33.500

 120173447.031 7  93641783.54945                  22868242.922
                  22868253.078                          43.400          30.200

 127754737.345 7  99549255.11543                  24310918.078
                  24310931.398                          44.200          22.200

 114192858.529 7  88981612.667 7                  21730162.383
  21730171.461    21730171.859                          47.000          43.100

 111898768.314 7  87193984.80745                  21293594.992
                  21293604.203                          46.900          33.700

 116287659.845 7  90613859.456 7  86838299.501 8  22128768.406
  22128779.141    22128779.191    22128778.762          45.800          47.900
        50.900
 120406939.092 7  93823648.64844                  22912653.281
                  22912663.766                          44.700          24.700

 14  3  3  0 26 30.0000000  0 12G09G16G23G13G30G06G19G08G07G03G27G10
 129212905.832 6 100685478.79543                  24588401.914
                  24588418.875                          38.700          19.300

 114737145.021 7  89405750.65645                  21833709.219
                  21833716.949                          46.700          33.800

 108615732.594 8  84635850.88545                  20668875.656
                  20668882.273                          48.300          33.000

 105554841.421 7  82250660.46945                  20086386.102
                  20086393.375                          44.800          35.300

 124202726.169 7  96781460.900 7  92748894.706 7  23634965.414
  23634977.031    23634977.613    23634976.367          43.800          42.700
        47.300
 115642747.045 7  90111306.73745                  22006045.586
                  22006055.355                          45.100          34.200

 120083924.566 7  93572026.00044                  22851206.523
                  22851217.863                          43.400          29.400

 127678940.343 7  99490192.70443                  24296493.359
                  24296506.961                          42.500          21.300

 114135551.644 7  88936958.051 7                  21719257.438
  21719265.430    21719266.320                          46.400          43.400

 111845588.676 7  87152546.22845                  21283475.844
                  21283484.957                          46.600          33.200

 116262494.732 7  90594250.374 7  86819507.470 8  22123979.391
  22123990.629    22123990.602    22123989.234          44.900          47.400
        50.700
 120419305.323 7  93833284.68944                  22915006.563
                  22915016.965                          44.600          24.200

 14  3  3  0 27  0.0000000  0 12G09G16G23G13G30G06G19G08G07G03G27G10
 129118940.830 6 100612259.50043                  24570521.219
                  24570537.922                          40.200          19.000

 114819710.483 7  89470087.37045                  21849420.992
                  21849429.117                          46.800          34.700

 108669681.690 7  84677889.10745                  20679141.609
                  20679148.387                          47.700          33.700

 105541292.583 7  82240102.96445                  20083807.469
                  20083815.676                          44.500          34.500

 124277308.941 7  96839577.346 7  92804589.616 7  23649158.453
  23649169.652    23649169.871    23649169.680          44.900          42.500
        47.500
 115649335.312 7  90116440.51445                  22007298.766
                  22007308.582                          45.300          33.600

 119994694.257 6  93502496.09244                  22834226.227
                  22834236.957                          40.700          28.900

 127603173.906 7  99431154.11543                  24282075.367
                  24282089.867                          42.800          21.500

 114078389.534 7  88892416.253 7                  21708379.938
  21708388.461    21708388.715                          47.000          43.000

 111792965.953 7  87111541.62845                  21273461.180
                  21273471.289                          46.300          34.100

 116237892.572 7  90575079.937 8  86801135.822 8  22119297.516
  22119308.461    22119309.113    22119307.215          44.600          48.100
        50.800
 120432233.965 7  93843358.96744                  22917466.641
                  22917477.887                          44.700          26.400

 14  3  3  0 27 30.0000000  0 12G09G16G23G13G30G06G19G08G07G03G27G10
 129024987.333 6 100539049.15042                  24552640.320
                  24552658.117                          36.900          15.600

 114902571.112 7  89534654.08745                  21865188.984
                  21865197.742                          46.300          34.600

 108724121.583 7  84720309.79945                  20689501.172
                  20689508.016                          47.100          33.100

 105528267.097 7  82229953.25345                  20081329.266
                  20081336.887                          45.000          35.600

 124351973.814 7  96897757.745 6  92860345.835 8  23663366.047
  23663378.133    23663377.594    23663378.520          43.800          41.600
        48.600
 115656524.017 7  90122042.15245                  22008666.938
                  22008676.309                          46.300          34.400

 119905759.646 7  93433196.57344                  22817303.422
                  22817311.625                          42.500          28.900

 127527438.085 7  99372139.37343                  24267663.828
                  24267677.977                          44.100          22.500

 114021372.924 7  88847987.830 7                  21697529.797
  21697538.730    21697538.793                          47.800          42.700

 111740902.412 7  87070972.71745                  21263553.547
                  21263564.012                          45.600          33.200

 116213854.757 7  90556349.243 7  86783185.600 8  22114723.781
  22114734.480    22114734.496    22114733.535          46.100          47.800
        51.400
 120445723.961 7  93853870.69344                  22920034.070
                  22920045.906                          45.700          25.000

 14  3  3  0 28  0.0000000  0 12G09G16G23G13G30G06G19G08G07G03G27G10
 128931045.546 6 100465848.01543                  24534765.391
                  24534781.367                          40.300          18.300

 114985723.896 7  89599448.44845                  21881012.469
                  21881020.938                          45.900          34.700

 108779050.976 7  84763111.91845                  20699954.461
                  20699960.992                          47.500          33.800

 105515765.979 7  82220212.15045                  20078950.258
                  20078958.250                          45.500          35.800

 124426720.312 7  96956001.742 6  92916162.989 8  23677589.422
  23677602.113    23677600.906    23677602.063          42.200          41.600
        48.200
 115664312.937 7  90128111.49845                  22010149.117
                  22010158.582                          46.300          33.900

 119817124.058 7  93364130.06444                  22800435.930
                  22800443.625                          43.700          28.300

 127451732.569 7  99313148.29043                  24253258.172
                  24253271.883                          44.900          23.000

 113964501.876 7  88803672.816 7                  21686707.648
  21686715.926    21686716.488                          47.000          43.500

 111689400.365 7  87030841.34645                  21253753.492
                  21253762.980                          47.200          33.900

 116190382.427 7  90538059.201 7  86765657.660 8  22110257.047
  22110267.922    22110268.344    22110266.859          46.100          47.800
        51.000
 120459774.233 7  93864819.00344                  22922707.836
                  22922720.473                          45.300          27.500

 14  3  3  0 28 30.0000000  0 12G09G16G23G13G30G06G19G08G07G03G27G10
 128837115.879 6 100392656.31243                  24516891.188
                  24516906.645                          40.600          19.000

 115069165.883 7  89664468.16045                  21896891.320
                  21896899.301                          46.600          35.100

 108834469.057 8  84806294.83345                  20710500.172
                  20710507.164                          48.800          34.900

 105503790.236 7  82210880.43345                  20076671.609
                  20076679.582                          44.700          35.800

 124501547.906 7  97014308.959 6  92972040.720 8  23691829.242
  23691841.801    23691841.156    23691841.609          42.900          41.200
        48.500
 115672701.578 7  90134648.15345                  22011745.891
                  22011754.992                          45.800          33.700

 119728790.475 7  93295298.88744                  22783626.023
                  22783634.449                          43.500          26.400

 127376057.429 7  99254180.83043                  24238855.664
                  24238871.066                          43.900          22.600

 113907776.451 8  88759471.264 7                  21675912.570
  21675921.664    21675921.949                          48.000          43.900

 111638462.019 7  86991149.22945                  21244060.117
                  21244069.945                          47.700          34.200

 116167476.659 7  90520210.632 7  86748552.796 8  22105898.055
  22105909.035    22105909.328    22105907.957          46.200          47.600
        51.000
 120474383.507 7  93876202.90244                  22925488.195
                  22925500.121                          44.800          25.800

 14  3  3  0 29  0.0000000  0 12G09G16G23G13G30G06G19G08G07G03G27G10
 128743198.835 6 100319474.50543                  24499018.555
                  24499034.563                          41.300          18.300

 115152894.929 7  89729711.56345                  21912824.492
                  21912832.621                          46.300          35.900

 108890375.128 8  84849857.96945                  20721138.516
                  20721145.547                          48.100          35.200

 105492341.472 7  82201959.34845                  20074493.008
                  20074500.313                          45.600          35.300

 124576456.728 7  97072679.458 6  93027979.074 8  23706084.289
  23706096.359    23706095.648    23706096.336          43.400          41.700
        48.900
 115681690.644 7  90141652.65745                  22013455.750
                  22013465.258                          45.900          33.800

 119640762.488 7  93226705.84044                  22766875.555
                  22766883.707                          44.200          27.700

 127300412.729 7  99195237.12543                  24224462.234
                  24224476.566                          42.900          23.900

 113851197.642 7  88715383.970 7                  21665146.367
  21665155.344    21665155.555                          47.300          44.200

 111588089.823 7  86951898.27845                  21234474.445
                  21234484.785                          46.900          34.100

 116145138.969 7  90502804.705 7  86731872.146 8  22101646.820
  22101657.773    22101657.813    22101656.914          45.500          47.200
        51.000
 120489550.492 7  93888021.37244                  22928373.734
                  22928385.242                          44.700          25.600

 14  3  3  0 29 30.0000000  0 12G09G16G23G13G30G06G19G08G07G03G27G10
 128649294.831 7 100246302.74743                  24481149.789
                  24481166.301                          42.600          22.000

 115236908.320 7  89795176.52445                  21928811.578
                  21928819.918                          47.200          35.600

 108946768.236 7  84893800.62945                  20731869.703
                  20731876.500                          47.600          34.400

 105481420.830 7  82193449.78145                  20072414.289
                  20072422.344                          44.700          35.000

 124651446.411 7  97131112.931 7  93083977.794 8  23720353.578
  23720366.863    23720366.309    23720366.762          43.800          42.500
        49.200
 115691279.347 7  90149124.43445                  22015280.211
                  22015289.891                          45.600          33.200

 119553043.392 7  93158353.47444                  22750181.969
                  22750191.535                          43.000          29.300

 127224798.564 6  99136317.19943                  24210071.898
                  24210086.621                          41.800          22.300

 113794765.705 7  88671411.109 7                  21654407.305
  21654416.754    21654416.926                          47.600          43.800

 111538286.129 7  86913090.27445                  21224996.797
                  21225007.441                          46.500          33.700

 116123370.531 7  90485842.365 7  86715616.577 8  22097504.477
  22097515.574    22097515.465    22097514.973          45.000          47.500
        51.400
 120505274.190 7  93900273.60344                  22931367.180
                  22931376.500                          45.900          25.000

 14  3  3  0 30  0.0000000  4  5
DSRC (COGO code)                                            COMMENT
   0.000      (antenna height)                              COMMENT
 +39.99147598 (latitude)                                    COMMENT
-105.26107939 (longitude)                                   COMMENT
1655.057      (elevation)                                   COMMENT
 14  3  3  0 30  0.0000000  0 12G09G16G23G13G30G06G19G08G07G03G27G10
 128555404.387 6 100173141.63743                  24463282.258
                  24463300.234                          41.600          22.800

 115321203.074 7  89860860.73545                  21944852.328
                  21944860.367                          46.700          35.900

 109003647.329 8  84938121.98645                  20742693.828
                  20742700.438                          48.300          34.900

 105471029.312 7  82185352.53745                  20070437.297
                  20070444.711                          45.100          35.000

 124726516.685 6  97189609.210 7  93140036.704 8  23734638.641
  23734652.289    23734651.590    23734652.688          41.600          43.200
        49.100
 115701468.377 7  90157063.96745                  22017219.086
                  22017229.266                          45.400          33.500

 119465636.769 7  93090244.58944                  22733549.422
                  22733559.750                          43.700          29.600

 127149214.709 6  99077420.94743                  24195689.188
                  24195703.254                          41.800          21.800

 113738481.023 8  88627552.995 7                  21643696.844
  21643706.137    21643706.227                          48.200          43.900

 111489052.932 7  86874726.84445                  21215627.859
                  21215637.281                          46.900          33.300

 116102172.551 7  90469324.551 8  86699787.015 8  22093470.508
  22093481.660    22093482.219    22093480.379          46.200          48.000
        50.900
 120521553.419 7  93912958.70544                  22934463.984
                  22934474.906                          45.100          24.400

 14  3  3  0 30 30.0000000  0 12G09G16G23G13G30G06G19G08G07G03G27G10
 128461528.305 6 100099991.76743                  24445418.406
                  24445435.332                          39.900          19.300

 115405777.019 7  89926762.50445                  21960946.219
                  21960953.914                          46.900          35.500

 109061011.693 8  84982821.47745                  20753610.211
                  20753616.074                          48.900          35.400

 105461168.877 7  82177669.10045                  20068560.578
                  20068568.320                          44.700          35.200

 124801667.566 6  97248168.313 7  93196155.838 8  23748939.063
  23748952.789    23748952.699    23748952.977          40.800          44.100
        49.500
 115712257.722 7  90165471.29845                  22019272.586
                  22019281.699                          45.600          32.800

 119378546.259 7  93022382.01944                  22716976.305
                  22716986.438                          43.700          28.500

 127073661.434 6  99018548.49643                  24181311.430
                  24181324.883                          40.000          21.500

 113682344.485 8  88583810.323 7                  21633014.508
  21633023.730    21633023.801                          48.800          42.900

 111440392.744 7  86836809.91645                  21206368.773
                  21206377.137                          47.200          33.900

 116081546.490 7  90453252.370 7  86684384.554 8  22089546.000
  22089556.777    22089557.082    22089555.184          46.200          47.800
        50.700
 120538387.273 7  93926076.03544                  22937667.266
                  22937679.188                          44.600          24.100

 14  3  3  0 31  0.0000000  0 12G09G16G23G13G30G06G19G08G07G03G27G10
 128367666.528 7 100026852.87643                  24427556.992
                  24427572.582                          42.300          21.100

 115490627.173 7  89992879.49745                  21977092.414
                  21977100.297                          46.700          35.600

 109118860.068 8  85027898.11245                  20764618.328
                  20764624.699                          48.400          34.900

 105451839.979 7  82170399.86245                  20066785.430
                  20066792.895                          44.600          35.300

 124876898.483 6  97306789.783 7  93252334.742 8  23763256.063
  23763269.281    23763268.938    23763268.629          41.500          45.000
        49.000
 115723646.294 7  90174345.56545                  22021439.523
                  22021448.430                          45.100          32.500

 119291774.798 7  92954768.02944                  22700464.227
                  22700473.965                          43.200          27.700

 126998138.834 6  98959699.89243                  24166939.773
                  24166954.758                          40.500          22.300

 113626355.849 8  88540182.891 7                  21622360.063
  21622368.645    21622369.066                          48.400          44.200

 111392307.787 7  86799341.20245                  21197218.227
                  21197227.648                          46.300          34.900

 116061493.237 7  90437626.533 7  86669409.814 8  22085729.852
  22085740.223    22085740.520    22085739.500          45.100          47.600
        51.100
 120555774.335 7  93939624.44144                  22940975.211
                  22940987.824                          43.900          24.600

 14  3  3  0 31 30.0000000  0 12G09G16G23G13G30G06G19G08G07G03G27G10
 128273819.333 6  99953725.46843                  24409695.813
                  24409713.332                          38.000          18.600

 115575751.223 7  90059209.91745                  21993291.156
                  21993299.410                          46.900          34.900

 109177191.624 8  85073351.25345                  20775718.742
                  20775725.438                          49.200          35.300

 105443044.261 7  82163546.09645                  20065111.492
                  20065119.094                          44.400          34.800

 124952209.456 7  97365473.602 7  93308573.408 8  23777586.711
  23777600.223    23777599.902    23777599.594          42.300          45.800
        48.500
 115735634.673 7  90183687.19445                  22023720.906
                  22023730.785                          45.600          33.600

 119205325.800 7  92887405.32944                  22684013.875
                  22684022.059                          43.900          27.700

 126922646.983 6  98900875.26343                  24152573.898
                  24152588.980                          40.800          23.200

 113570516.056 8  88496671.448 7                  21611734.211
  21611743.031    21611743.543                          48.800          43.900

 111344799.905 7  86762322.16245                  21188178.016
                  21188188.102                          47.500          34.100

 116042014.070 7  90422448.058 8  86654863.778 8  22082022.531
  22082033.449    22082033.441    22082032.656          45.800          48.100
        51.800
 120573713.529 7  93953603.08944                  22944388.758
                  22944401.395                          44.400          25.600

 14  3  3  0 32  0.0000000  0 12G09G16G23G13G30G06G19G08G07G03G27G10
 128179987.444 6  99880609.95643                  24391842.820
                  24391857.043                          41.900          20.900

 115661146.715 7  90125751.84845                  22009541.703
                  22009550.148                          46.300          35.000

 109236005.457 8  85119180.20145                  20786910.352
                  20786917.617                          48.100          35.800

 105434782.780 7  82157108.60045                  20063539.648
                  20063546.973                          44.600          35.000

 125027600.318 6  97424219.685 7  93364871.748 8  23791933.102
  23791946.977    23791947.246    23791946.879          41.700          45.800
        48.800
 115748222.440 7  90193495.86245                  22026115.977
                  22026126.586                          44.700          34.100

 119119202.479 7  92820296.40944                  22667624.984
                  22667631.488                          45.000          29.100

 126847185.983 7  98842074.67343                  24138214.344
                  24138229.285                          42.400          23.900

 113514825.638 8  88453276.392 7                  21601136.539
  21601145.195    21601145.887                          49.200          43.500

 111297871.471 7  86725754.63245                  21179247.992
                  21179257.211                          46.600          34.700

 116023110.262 7  90407717.909 8  86640747.403 8  22078425.727
  22078436.137    22078436.656    22078435.402          46.300          48.500
        51.100
 120592203.449 7  93968010.82344                  22947908.148
                  22947918.871                          45.800          26.000

 14  3  3  0 32 30.0000000  0 12G09G16G23G13G30G06G19G08G07G03G27G10
 128086171.176 6  99807506.50742                  24373987.594
                  24374003.441                          39.800          17.800

 115746810.077 7  90192502.50745                  22025842.297
                  22025851.223                          46.600          34.800

 109295299.905 8  85165383.65245                  20798193.688
                  20798200.938                          48.700          35.000

 105427056.111 7  82151087.84545                  20062069.383
                  20062076.680                          45.400          35.300

 125103070.329 7  97483027.477 7  93421229.211 8  23806295.086
  23806308.250    23806308.648    23806308.047          42.600          46.000
        48.800
 115761409.023 7  90203771.15145                  22028625.117
                  22028635.008                          44.900          33.300

 119033408.040 7  92753443.77844                  22651298.586
                  22651303.797                          45.600          27.700

 126771755.196 7  98783297.61444                  24123861.133
                  24123875.691                          45.000          25.200

 113459284.415 8  88409997.601 7                  21590567.320
  21590575.887    21590576.008                          48.500          43.600

 111251524.101 7  86689639.86945                  21170427.484
                  21170436.078                          45.700          34.000

 116004782.394 7  90393436.523 7  86627061.097 8  22074937.938
  22074948.105    22074948.770    22074948.277          45.800          47.800
        51.600
 120611242.401 7  93982846.36744                  22951531.031
                  22951541.293                          45.900          25.400

 14  3  3  0 33  0.0000000  0 12G09G16G23G13G30G06G19G08G07G03G27G10
 127992370.878 6  99734415.55842                  24356138.859
                  24356154.961                          41.100          16.900

 115832739.005 7  90259460.09445                  22042194.172
                  22042203.297                          46.400          34.700

 109355074.265 8  85211961.05645                  20809568.023
                  20809574.664                          48.300          34.800

 105419865.762 7  82145485.01145                  20060700.852
                  20060708.613                          43.800          35.400

 125178619.500 7  97541896.918 7  93477645.772 8  23820671.805
  23820685.406    23820685.883    23820684.402          42.200          46.500
        48.500
 115775194.437 7  90214513.07145                  22031248.703
                  22031259.141                          45.600          34.300

 118947945.940 7  92686850.10344                  22635035.008
                  22635041.348                          45.600          26.500

 126696355.080 7  98724544.45743                  24109513.008
                  24109525.508                          42.900          22.600

 113403893.299 8  88366835.780 7                  21580026.492
  21580035.254    21580035.754                          48.200          43.600

 111205760.236 7  86653979.79645                  21161719.031
                  21161727.734                          47.600          33.800

 115987031.783 7  90379604.943 7  86613805.840 8  22071560.008
  22071570.590    22071570.414    22071569.980          46.200          47.600
        51.300
 120630829.517 7  93998109.05044                  22955258.031
                  22955268.695                          45.200          25.800

 14  3  3  0 33 30.0000000  0 12G09G16G23G13G30G06G19G08G07G03G27G10
 127898587.539 6  99661337.86342                  24338292.891
                  24338308.039                          40.800          17.800

 115918931.198 7  90326622.83745                  22058596.219
                  22058604.461                          47.000          34.500

 109415327.886 8  85258911.91045                  20821033.633
                  20821040.473                          48.500          34.200

 105413213.129 7  82140301.18246                  20059435.039
                  20059443.051                          44.600          36.100

 125254247.786 7  97600828.014 7  93534121.411 8  23835062.641
  23835076.512    23835076.797    23835075.727          42.000          45.400
        48.500
 115789578.490 7  90225721.45745                  22033985.656
                  22033995.801                          45.900          34.200

 118862819.665 7  92620518.11044                  22618835.664
                  22618843.914                          45.500          28.600

 126620985.888 7  98665815.36643                  24095169.164
                  24095182.914                          42.400          20.900

 113348652.883 8  88323791.385 7                  21569514.406
  21569523.527    21569523.563                          48.100          43.700

 111160582.239 8  86618776.26045                  21153121.875
                  21153131.109                          48.000          34.400

 115969859.599 7  90366224.101 7  86600982.541 8  22068292.094
  22068302.754    22068303.313    22068301.004          45.600          47.800
        51.400
 120650963.412 7  94013797.84444                  22959089.461
                  22959101.289                          44.900          26.200

 14  3  3  0 34  0.0000000  0 12G09G16G23G13G30G06G19G08G07G03G27G10
 127804821.576 6  99588273.60042                  24320449.477
                  24320466.191                          38.400          17.400

 116005384.259 7  90393988.85245                  22075047.281
                  22075055.777                          46.400          34.600

 109476059.665 8  85306235.36345                  20832590.828
                  20832597.434                          48.500          34.400

 105407099.418 7  82135537.27745                  20058271.086
                  20058279.137                          43.200          34.800

 125329955.038 6  97659820.650 7  93590656.026 8  23849469.414
  23849483.188    23849483.234    23849482.867          41.300          45.900
        48.300
 115804561.096 7  90237396.27245                  22036837.078
                  22036846.723                          44.900          34.000

 118778032.624 7  92554450.42444                  22602701.219
                  22602711.465                          45.500          29.700

 126545647.662 7  98607110.44443                  24080833.430
                  24080845.297                          42.300          21.700

 113293563.730 7  88280864.855 7                  21559031.500
  21559039.961    21559040.406                          47.900          43.200

 111115992.064 7  86584030.74645                  21144636.773
                  21144645.590                          47.000          34.000

 115953266.996 7  90353294.864 8  86588592.057 8  22065134.688
  22065145.617    22065145.859    22065143.492          46.300          49.400
        51.200
 120671642.917 7  94029911.77744                  22963024.984
                  22963038.055                          45.500          28.300

 14  3  3  0 34 30.0000000  0 12G09G16G23G13G30G06G19G08G07G03G27G10
 127711073.260 6  99515223.17843                  24302610.180
                  24302627.367                          39.400          19.000

 116092095.232 7  90461555.84145                  22091548.047
                  22091556.238                          45.700          33.900

 109537268.076 8  85353930.21245                  20844238.727
                  20844245.734                          48.900          35.200

 105401525.251 7  82131193.80545                  20057210.641
                  20057217.938                          44.000          34.900

 125405740.831 6  97718874.499 7  93647249.297 8  23863890.484
  23863904.535    23863904.617    23863904.133          41.200          45.400
        48.700
 115820141.875 7  90249537.16745                  22039801.547
                  22039811.223                          45.600          33.600

 118693587.885 7  92488649.48045                  22586632.109
                  22586643.355                          45.400          31.200

 126470340.346 7  98548429.58943                  24066502.867
                  24066514.402                          42.400          21.500

 113238626.140 7  88238056.421 7                  21548577.430
  21548585.484    21548585.641                          47.900          42.600

 111071991.809 7  86549744.90845                  21136263.469
                  21136272.867                          47.800          34.700

 115937254.792 7  90340817.870 7  86576634.979 8  22062087.414
  22062097.996    22062098.637    22062097.914          45.200          47.600
        51.400
 120692866.546 7  94046449.66344                  22967064.281
                  22967076.570                          46.500          27.500

 14  3  3  0 35  0.0000000  0 12G09G16G23G13G30G06G19G08G07G03G27G10
 127617343.275 6  99442187.04042                  24284772.844
                  24284793.313                          36.400          17.400

 116179061.473 7  90529321.73745                  22108097.195
                  22108106.043                          45.300          34.200

 109598951.911 8  85401995.52045                  20855976.578
                  20855983.961                          49.100          34.800

 105396491.854 7  82127271.70045                  20056252.414
                  20056260.242                          43.400          35.500

 125481604.999 7  97777989.405 7  93703901.090 8  23878327.664
  23878340.988    23878341.477    23878341.465          42.000          45.200
        48.500
 115836320.339 7  90262143.79245                  22042880.109
                  22042890.379                          45.400          34.400

 118609488.773 7  92423117.86845                  22570628.570
                  22570638.922                          45.300          32.400

 126395063.944 7  98489772.81643                  24052176.711
                  24052189.375                          43.200          21.300

 113183840.315 8  88195366.248 7                  21538151.727
  21538160.141    21538160.066                          48.300          42.600

 111028583.312 7  86515920.17745                  21128002.914
                  21128012.598                          46.400          34.400

 115921823.932 7  90328793.884 7  86565111.997 8  22059150.820
  22059161.379    22059161.434    22059161.352          45.200          47.900
        51.300
 120714632.645 7  94063410.26644                  22971205.430
                  22971217.445                          45.700          26.000

 14  3  3  0 35 30.0000000  0 12G09G16G23G13G30G06G19G08G07G03G27G10
 127523631.718 6  99369165.33642                  24266940.703
                  24266960.938                          38.800          17.800

 116266280.545 7  90597284.63445                  22124693.695
                  22124702.867                          45.600          34.300

 109661110.485 7  85450430.77845                  20867804.727
                  20867811.691                          47.300          34.000

 105391999.845 7  82123771.48045                  20055398.055
                  20055405.277                          43.600          34.800

 125557547.092 6  97837165.059 7  93760611.082 8  23892778.984
  23892792.066    23892792.668    23892792.301          41.600          44.600
        48.600
 115853095.667 7  90275215.50545                  22046072.313
                  22046082.504                          45.200          34.200

 118525738.549 7  92357858.10645                  22554691.344
                  22554700.301                          44.000          30.700

 126319818.287 7  98431140.03943                  24037858.555
                  24037871.660                          42.400          22.000

 113129206.814 7  88152794.762 7                  21527755.297
  21527763.734    21527763.836                          47.900          42.400

 110985768.354 7  86482557.93245                  21119855.016
                  21119865.141                          46.300          34.600

 115906975.181 7  90317223.509 7  86554023.720 8  22056325.266
  22056335.797    22056335.504    22056334.895          45.900          47.800
        51.400
 120736939.754 7  94080792.43244                  22975449.930
                  22975462.137                          43.800          25.800

 14  3  3  0 36  0.0000000  0 12G09G16G23G13G30G06G19G08G07G03G27G10
 127429939.750 6  99296158.80043                  24249111.219
                  24249131.059                          38.000          19.900

 116353749.743 7  90665442.43345                  22141339.258
                  22141348.219                          46.000          34.700

 109723742.700 7  85499235.09945                  20879722.781
                  20879729.844                          47.000          33.500

 105388050.764 7  82120694.30545                  20054646.563
                  20054654.113                          44.000          34.800

 125633567.273 6  97896401.534 7  93817379.373 8  23907245.672
  23907258.645    23907258.516    23907258.500          41.000          44.300
        48.000
 115870468.304 7  90288752.65245                  22049378.797
                  22049388.156                          46.400          34.300

 118442340.848 7  92292873.04045                  22538821.297
                  22538828.922                          44.600          30.400

 126244603.790 7  98372531.53143                  24023545.852
                  24023558.863                          42.400          22.600

 113074726.445 8  88110342.608 7                  21517387.859
  21517396.250    21517396.352                          48.900          42.300

 110943549.705 7  86449660.36445                  21111821.914
                  21111830.793                          46.300          34.400

 115892709.852 7  90306107.735 7  86543371.118 8  22053610.672
  22053621.008    22053620.926    22053619.848          44.600          47.900
        51.200
 120759786.856 7  94098595.37443                  22979797.164
                  22979809.133                          43.400          22.600

 14  3  3  0 36 30.0000000  0 12G09G16G23G13G30G06G19G08G07G03G27G10
 127336267.648 6  99223167.83543                  24231284.617
                  24231304.262                          37.500          19.300

 116441467.021 7  90733793.54045                  22158030.750
                  22158039.547                          45.700          34.400

 109786847.437 7  85548407.62145                  20891731.742
                  20891738.102                          46.800          33.200

 105384646.060 7  82118041.30745                  20053998.617
                  20054006.148                          44.300          35.700

 125709665.559 7  97955698.857 7  93874205.977 7  23921725.742
  23921739.004    23921739.039    23921739.375          42.800          43.200
        47.900
 115888437.852 7  90302754.93245                  22052798.422
                  22052807.738                          46.300          34.300

 118359298.966 7  92228165.24844                  22523018.156
                  22523025.488                          43.900          29.800

 126169420.719 7  98313947.54443                  24009239.977
                  24009252.039                          45.000          23.300

 113020400.219 8  88068010.566 7                  21507049.734
  21507057.715    21507057.988                          48.600          42.900

 110901929.166 7  86417228.86945                  21103901.484
                  21103910.191                          47.600          34.400

 115879029.042 7  90295447.409 8  86533154.991 8  22051007.086
  22051017.730    22051017.816    22051017.211          45.200          48.100
        51.400
 120783172.783 7  94116818.18144                  22984247.352
                  22984259.250                          43.600          25.300

 14  3  3  0 37  0.0000000  0 12G09G16G23G13G30G06G19G08G07G03G27G10
 127242615.992 6  99150192.77743                  24213464.500
                  24213482.281                          40.300          19.300

 116529429.228 7  90802335.51045                  22174769.898
                  22174777.992                          46.400          34.700

 109850423.469 7  85597947.36045                  20903829.898
                  20903835.742                          47.000          33.400

 105381786.089 7  82115812.79345                  20053454.781
                  20053462.023                          44.600          35.500

 125785841.393 6  98015056.622 7  93931090.500 7  23936221.492
  23936234.984    23936234.375    23936235.180          41.300          43.400
        47.600
 115907003.324 7  90317221.56645                  22056330.336
                  22056340.660                          45.100          33.800

 118276616.117 7  92163737.21544                  22507283.813
                  22507291.270                          43.400          29.300

 126094268.841 7  98255387.84743                  23994937.391
                  23994951.297                          42.900          22.900

 112966228.134 7  88025798.631 7                  21496741.453
  21496749.125    21496749.660                          47.600          43.400

 110860908.133 7  86385264.49745                  21096095.195
                  21096104.887                          46.900          35.000

 115865933.292 7  90285242.976 8  86523375.762 8  22048515.141
  22048525.293    22048525.496    22048524.594          45.800          48.100
        51.200
 120807095.528 7  94135459.27944                  22988800.781
                  22988812.195                          44.300          24.000

 14  3  3  0 37 30.0000000  0 12G09G16G23G13G30G06G19G08G07G03G27G10
 127148985.275 6  99077234.06943                  24195646.102
                  24195663.086                          39.500          18.300

 116617634.359 7  90871066.78245                  22191554.797
                  22191563.004                          46.200          33.900

 109914469.908 7  85647853.66645                  20916017.539
                  20916022.977                          47.500          33.100

 105379472.459 7  82114009.99545                  20053014.398
                  20053021.883                          45.100          35.300

 125862094.983 6  98074474.977 7  93988033.097 7  23950732.414
  23950745.852    23950745.855    23950746.543          41.100          43.800
        47.200
 115926164.828 7  90332152.64945                  22059977.242
                  22059986.480                          46.200          33.000

 118194295.607 7  92099591.51545                  22491618.891
                  22491626.406                          44.300          30.000

 126019148.653 7  98196852.80643                  23980642.391
                  23980655.199                          43.200          21.300

 112912210.910 7  87983707.357 7                  21486462.164
  21486470.156    21486471.098                          47.800          43.900

 110820489.250 7  86353769.33045                  21088403.695
                  21088413.816                          47.200          35.200

 115853423.869 7  90275495.423 7  86514034.369 8  22046134.383
  22046144.688    22046144.922    22046143.668          46.100          47.900
        51.300
 120831553.697 7  94154517.60544                  22993454.430
                  22993467.273                          43.800          24.200

 14  3  3  0 38  0.0000000  0 12G09G16G23G13G30G06G19G08G07G03G27G10
 127055375.778 6  99004291.88143                  24177832.984
                  24177848.363                          41.800          20.100

 116706079.371 7  90939984.96445                  22208385.734
                  22208393.918                          46.500          34.700

 109978985.015 8  85698125.15245                  20928294.867
                  20928300.727                          48.300          32.800

 105377705.642 7  82112633.29445                  20052677.859
                  20052685.516                          43.700          34.900

 125938425.761 7  98133953.496 7  94045033.344 7  23965257.852
  23965271.410    23965272.117    23965271.750          42.000          43.700
        47.100
 115945921.087 7  90347547.18845                  22063736.359
                  22063746.324                          45.000          33.500

 118112340.570 7  92035730.60545                  22476023.375
                  22476032.215                          44.500          30.200

 125944059.835 7  98138342.29043                  23966353.227
                  23966364.629                          43.800          20.900

 112858348.893 8  87941737.032 7                  21476211.961
  21476220.734    21476221.672                          48.800          44.300

 110780674.084 7  86322744.59245                  21080827.234
                  21080836.504                          47.300          34.800

 115841501.210 7  90266205.083 8  86505131.139 8  22043865.711
  22043875.988    22043876.441    22043875.832          46.300          48.700
        52.300
 120856545.762 7  94173991.93044                  22998210.898
                  22998223.277                          43.900          26.000

 14  3  3  0 38 30.0000000  0 12G09G16G23G13G30G06G19G08G07G03G27G10
 126961788.021 7  98931366.61643                  24160024.680
                  24160039.734                          42.700          19.900

 116794762.256 7  91009088.49345                  22225260.914
                  22225269.566                          46.100          34.600

 110043967.591 8  85748760.90045                  20940660.133
                  20940666.512                          48.700          32.100

 105376486.682 7  82111683.47845                  20052446.063
                  20052452.906                          43.800          35.400

 126014833.594 7  98193492.050 7  94102091.115 7  23979798.297
  23979811.289    23979811.672    23979810.836          42.500          43.000
        46.300
 115966272.233 7  90363405.25445                  22067609.094
                  22067618.691                          44.900          33.000

 118030754.125 7  91972156.91345                  22460498.117
                  22460507.266                          44.600          30.900

 125869002.369 7  98079856.16143                  23952070.422
                  23952080.844                          43.700          20.900

 112804642.390 8  87899887.887 7                  21465992.258
  21466001.137    21466001.625                          48.500          44.100

 110741464.133 7  86292191.44445                  21073365.406
                  21073374.430                          46.600          34.900

 115830166.145 7  90257372.601 8  86496666.692 8  22041708.805
  22041719.266    22041719.715    22041719.227          44.900          48.000
        51.800
 120882069.933 7  94193880.89744                  23003067.445
                  23003080.438                          42.900          25.400

 14  3  3  0 39  0.0000000  0 12G09G16G23G13G30G06G19G08G07G03G27G10
 126868222.439 7  98858458.65743                  24142219.281
                  24142234.234                          43.400          21.800

 116883679.480 7  91078374.63745                  22242181.609
                  22242189.875                          45.800          34.100

 110109416.249 8  85799759.84645                  20953114.234
                  20953120.879                          48.300          33.100

 105375816.059 7  82111160.94345                  20052318.695
                  20052325.668                          44.900          35.100

 126091318.087 7  98253090.357 7  94159206.142 7  23994352.273
  23994365.070    23994365.039    23994364.379          42.600          42.500
        45.500
 115987217.394 7  90379726.21245                  22071594.797
                  22071603.723                          45.300          32.600

 117949539.464 7  91908872.90344                  22445043.516
                  22445052.293                          44.100          29.900

 125793976.336 6  98021394.51143                  23937792.547
                  23937804.289                          41.700          20.900

 112751092.197 8  87858160.535 7                  21455802.320
  21455810.773    21455811.473                          49.600          44.800

 110702861.561 7  86262111.58945                  21066019.336
                  21066028.535                          47.800          35.100

 115819419.311 7  90248998.478 8  86488641.500 8  22039663.641
  22039674.371    22039674.699    22039673.387          44.400          48.100
        51.700
 120908124.721 7  94214183.32143                  23008024.992
                  23008037.531                          42.400          23.500

 14  3  3  0 39 30.0000000  0 12G09G16G23G13G30G06G19G08G07G03G27G10
 126774679.764 7  98785568.47643                  24124419.164
                  24124433.238                          44.300          22.000

 116972828.986 7  91147841.77245                  22259146.297
                  22259154.367                          45.700          33.600

 110175329.874 8  85851121.10245                  20965657.570
                  20965663.918                          48.200          33.100

 105375695.011 7  82111066.64945                  20052294.906
                  20052302.449                          44.900          35.800

 126167879.151 7  98312748.310 6  94216378.344 7  24008921.531
  24008933.797    24008933.418    24008933.461          42.500          41.700
        45.500
 116008756.152 7  90396509.70845                  22075693.023
                  22075702.695                          45.000          32.600

 117868700.288 7  91845881.46245                  22429660.086
                  22429668.504                          43.700          30.500

 125718981.810 6  97962957.39643                  23923520.602
                  23923533.637                          40.900          21.300

 112697698.787 8  87816555.355 7                  21445641.320
  21445649.813    21445650.895                          48.700          44.600

 110664867.877 7  86232506.20145                  21058790.258
                  21058798.164                          47.500          34.900

 115809261.531 7  90241083.378 8  86481056.205 8  22037730.109
  22037740.469    22037740.875    22037739.797          45.500          48.600
        52.000
 120934708.616 6  94234898.05644                  23013083.992
                  23013095.891                          41.900          24.700

 14  3  3  0 40  0.0000000  0 12G09G16G23G13G30G06G19G08G07G03G27G10
 126681160.516 7  98712696.60743                  24106622.852
                  24106637.695                          44.600          23.200

 117062208.297 7  91217487.97145                  22276154.266
                  22276162.828                          45.600          33.600

 110241707.458 8  85902843.89245                  20978289.406
                  20978296.418                          48.800          33.900

 105376124.365 7  82111401.24245                  20052376.867
                  20052384.109                          45.500          35.400

 126244516.749 7  98372465.873 6  94273607.688 7  24023504.555
  24023517.184    24023516.660    24023517.465          42.600          40.300
        46.100
 116030887.712 7  90413755.09745                  22079904.984
                  22079915.254                          46.400          33.700

 117788239.374 7  91783184.77445                  22414348.609
                  22414356.504                          44.500          30.300

 125644019.047 6  97904545.02343                  23909255.844
                  23909269.270                          41.400          20.100

 112644462.765 8  87775072.811 7                  21435511.195
  21435519.922    21435520.375                          48.600          44.500

 110627485.312 7  86203377.00345                  21051676.000
                  21051684.621                          47.200          34.400

 115799693.706 7  90233627.980 7  86473911.454 8  22035909.375
  22035920.344    22035920.465    22035919.973          44.600          47.900
        52.400
 120961820.127 7  94256023.89544                  23018243.086
                  23018255.629                          43.400          24.900

 14  3  3  0 40 30.0000000  0 12G09G16G23G13G30G06G19G08G07G03G27G10
 126587665.307 6  98639843.38043                  24088829.820
                  24088846.004                          41.500          21.700

 117151814.766 7  91287311.16445                  22293206.109
                  22293214.855                          46.000          34.100

 110308547.425 8  85954926.96345                  20991008.023
                  20991014.660                          49.200          32.700

 105377104.928 7  82112165.34745                  20052563.938
                  20052571.215                          44.100          35.700

 126321230.622 6  98432242.908 6  94330893.997 7  24038102.922
  24038115.551    24038115.633    24038116.500          41.000          40.700
        46.200
 116053611.417 7  90431461.92745                  22084229.500
                  22084238.672                          46.600          34.500

 117708160.183 7  91720785.55845                  22399110.125
                  22399117.145                          46.000          30.500

 125569087.960 7  97846157.34943                  23894997.445
                  23895011.539                          42.700          21.500

 112591384.908 8  87733713.510 7                  21425410.578
  21425419.039    21425419.941                          49.300          43.900

 110590715.102 7  86174724.95745                  21044679.469
                  21044688.344                          47.400          35.100

 115790716.476 7  90226632.794 7  86467207.744 8  22034201.414
  22034211.699    22034211.785    22034210.941          46.000          47.700
        52.200
 120989457.410 7  94277559.42844                  23023502.711
                  23023515.703                          43.400          24.700

 14  3  3  0 41  0.0000000  0 12G09G16G23G13G30G06G19G08G07G03G27G10
 126494194.918 7  98567009.51443                  24071043.297
                  24071058.871                          42.000          22.300

 117241646.688 7  91357310.04645                  22310300.547
                  22310309.035                          46.200          34.200

 110375849.360 8  86007370.00945                  21003815.375
                  21003821.328                          49.000          32.700

 105378638.641 7  82113360.47046                  20052856.023
                  20052863.109                          44.300          36.200

 126398021.074 6  98492079.648 6  94388237.523 7  24052716.086
  24052728.352    24052728.582    24052728.625          41.400          40.500
        46.300
 116076927.432 7  90449630.30045                  22088665.922
                  22088675.363                          45.600          33.400

 117628466.285 7  91658686.56145                  22383945.359
                  22383951.895                          46.400          30.800

 125494189.509 7  97787795.08343                  23880744.313
                  23880757.727                          42.400          22.000

 112538466.113 8  87692478.149 7                  21415340.867
  21415348.066    21415348.453                          49.400          44.200

 110554559.814 8  86146552.08245                  21037799.023
                  21037807.648                          48.000          35.800

 115782330.996 7  90220098.724 7  86460945.951 8  22032605.852
  22032616.168    22032616.449    22032615.254          45.500          47.700
        51.800
 121017619.749 7  94299504.11444                  23028861.250
                  23028874.867                          43.500          26.000

 14  3  3  0 41 30.0000000  0 12G09G16G23G13G30G06G19G08G07G03G27G10
 126400748.951 6  98494194.69843                  24053260.852
                  24053275.879                          39.800          21.800

 117331700.062 7  91427481.47745                  22327437.266
                  22327445.844                          46.100          34.400

 110443610.385 8  86060170.78545                  21016709.898
                  21016715.242                          48.500          33.200

 105380724.293 7  82114985.65345                  20053252.445
                  20053259.398                          45.000          35.200

 126474886.742 7  98551975.020 6  94445637.232 7  24067343.219
  24067355.375    24067355.816    24067356.039          42.100          39.300
        46.600
 116100833.814 7  90468258.68645                  22093215.367
                  22093225.281                          45.100          34.300

 117549159.962 7  91596889.57645                  22368853.961
                  22368860.836                          46.400          32.100

 125419322.673 7  97729457.45243                  23866498.391
                  23866511.719                          42.700          22.200

 112485705.320 8  87651365.903 7                  21405300.852
  21405308.332    21405308.352                          49.100          44.000

 110519019.731 7  86118858.56845                  21031036.156
                  21031043.949                          47.800          35.300

 115774536.742 7  90214025.336 7  86455125.627 8  22031122.492
  22031132.793    22031132.930    22031132.613          44.400          47.600
        51.900
 121046304.107 7  94321855.58444                  23034319.828
                  23034333.859                          43.700          25.100

 14  3  3  0 42  0.0000000  0 12G09G16G23G13G30G06G19G08G07G03G27G10
 126307328.770 6  98421399.96543                  24035483.922
                  24035497.445                          40.500          20.600

 117421973.110 7  91497824.09745                  22344615.320
                  22344623.684                          46.400          33.500

 110511830.067 8  86113328.97145                  21029691.859
                  21029697.227                          49.000          33.200

 105383363.672 7  82117042.34145                  20053753.898
                  20053761.500                          43.700          35.500

 126551828.234 7  98611929.425 6  94503093.535 7  24081985.055
  24081997.289    24081996.879    24081997.684          43.000          39.100
        47.300
 116125330.231 7  90487346.82745                  22097876.469
                  22097886.469                          44.700          33.700

 117470244.967 7  91535397.53245                  22353836.523
                  22353844.020                          45.800          32.300

 125344487.997 7  97671144.85544                  23852256.867
                  23852270.516                          43.100          24.700

 112433104.324 8  87610378.181 7                  21395290.820
  21395298.621    21395298.523                          49.000          43.600

 110484097.352 7  86091646.40545                  21024390.195
                  21024398.406                          46.700          33.800

 115767335.039 7  90208413.678 8  86449747.803 8  22029752.188
  22029762.453    22029762.723    22029762.465          46.100          48.700
        52.400
 121075509.273 7  94344612.89844                  23039878.305
                  23039891.043                          44.700          26.300

 14  3  3  0 42 30.0000000  0 12G09G16G23G13G30G06G19G08G07G03G27G10
 126213934.533 6  98348625.46243                  24017710.797
                  24017724.309                          38.900          20.100

 117512463.150 7  91568335.80345                  22361834.727
                  22361843.277                          46.300          33.800

 110580506.642 8  86166843.15245                  21042760.477
                  21042766.781                          48.300          33.200

 105386557.473 7  82119531.03945                  20054362.180
                  20054369.664                          43.400          35.500

 126628845.098 7  98671942.552 6  94560606.120 7  24096640.406
  24096653.285    24096653.219    24096653.613          42.600          40.000
        47.400
 116150416.054 7  90506894.25045                  22102650.000
                  22102659.641                          45.100          33.200

 117391724.349 7  91474212.77545                  22338894.430
                  22338902.551                          46.100          31.700

 125269685.562 7  97612857.39444                  23838022.875
                  23838036.645                          44.300          25.600

 112380663.399 8  87569515.200 7                  21385311.695
  21385319.152    21385319.297                          49.200          43.500

 110449794.216 7  86064916.75845                  21017862.180
                  21017870.980                          47.100          34.100

 115760726.303 7  90203264.067 8  86444812.773 8  22028494.508
  22028504.727    22028505.141    22028504.004          45.700          48.100
        52.700
 121105233.637 7  94367774.77844                  23045534.531
                  23045545.395                          44.800          26.000

 14  3  3  0 43  0.0000000  0 12G09G16G23G13G30G06G19G08G07G03G27G10
 126120567.076 6  98275871.86343                  23999944.609
                  23999957.512                          41.500          22.300

 117603167.634 7  91639014.60045                  22379095.469
                  22379104.137                          45.700          33.000

 110649638.871 8  86220712.40045                  21055916.289
                  21055922.938                          48.800          34.400

 105390306.520 7  82122452.38545                  20055075.664
                  20055083.031                          44.500          35.800

 126705937.140 6  98732014.267 6  94618174.865 7  24111310.320
  24111323.188    24111323.453    24111323.203          41.100          41.300
        47.700
 116176090.866 7  90526900.62845                  22107535.977
                  22107545.023                          45.700          33.000

 117313601.615 7  91413338.03645                  22324027.656
                  22324036.016                          45.100          31.900

 125194915.240 7  97554594.96444                  23823794.438
                  23823808.160                          44.700          25.300

 112328383.182 8  87528777.447 7                  21375362.797
  21375371.086    21375371.125                          48.800          43.600

 110416112.002 7  86038670.95945                  21011452.492
                  21011461.512                          46.700          34.800

 115754711.091 7  90198576.941 8  86440320.953 8  22027349.953
  22027360.078    22027360.613    22027359.301          45.400          48.900
        52.300
 121135475.210 7  94391339.62644                  23051289.453
                  23051299.301                          45.400          25.100

 14  3  3  0 43 30.0000000  0 12G09G16G23G13G30G06G19G08G07G03G27G10
 126027226.987 6  98203139.61743                  23982181.266
                  23982194.602                          40.100          21.300

 117694084.444 7  91709858.83845                  22396396.414
                  22396405.422                          45.800          33.700

 110719225.634 8  86274935.84545                  21069157.906
                  21069166.188                          49.000          34.600

 105394611.701 7  82125807.09245                  20055894.766
                  20055902.445                          44.300          35.500

 126783104.486 6  98792144.690 6  94675799.833 8  24125993.875
  24126008.020    24126008.188    24126007.996          41.200          41.600
        48.000
 116202353.580 7  90547365.11145                  22112533.617
                  22112542.395                          45.800          33.500

 117235879.657 7  91352775.59445                  22309237.664
                  22309246.109                          44.900          30.900

 125120177.405 7  97496357.83544                  23809573.078
                  23809586.266                          45.400          25.600

 112276264.444 7  87488165.518 7                  21365444.672
  21365453.516    21365453.734                          47.200          43.800

 110383052.640 7  86012910.49045                  21005161.586
                  21005170.953                          45.500          34.400

 115749290.142 7  90194352.888 7  86436272.909 8  22026318.195
  22026328.211    22026328.488    22026327.531          45.200          47.600
        51.900
 121166232.694 7  94415306.52444                  23057141.914
                  23057152.656                          45.000          25.600

 14  3  3  0 44  0.0000000  0 12G09G16G23G13G30G06G19G08G07G03G27G10
 125933915.056 6  98130429.29443                  23964423.945
                  23964437.637                          40.400          21.800

 117785210.683 7  91780866.26945                  22413737.094
                  22413745.832                          45.500          32.800

 110789265.451 8  86329512.31545                  21082486.367
                  21082494.414                          48.800          34.900

 105399473.413 7  82129595.46245                  20056819.641
                  20056827.426                          42.300          35.000

 126860346.873 7  98852333.542 6  94733480.810 8  24140693.391
  24140706.875    24140706.863    24140707.375          42.200          41.700
        48.400
 116229203.630 7  90568287.28545                  22117643.438
                  22117652.289                          46.400          34.300

 117158561.674 7  91292527.96445                  22294524.609
                  22294531.641                          45.600          31.400

 125045472.421 7  97438146.28744                  23795356.180
                  23795370.453                          44.300          25.700

 112224308.095 7  87447680.132 7                  21355557.633
  21355566.313    21355566.652                          47.200          45.100

 110350617.628 7  85987636.53745                  20998989.602
                  20998998.539                          45.500          34.600

 115744463.965 7  90190592.292 8  86432669.023 8  22025399.859
  22025410.121    22025410.113    22025408.918          45.400          48.200
        51.800
 121197503.812 7  94439673.64244                  23063092.633
                  23063104.461                          44.300          25.300

 14  3  3  0 44 30.0000000  0 13G09G16G23G13G30G06G19G08G07G03G27G10
                                G28
 125840632.176 6  98057741.64143                  23946673.141
                  23946687.137                          40.500          21.700

 117876544.829 7  91852035.72445                  22431117.648
                  22431126.133                          44.900          32.700

 110859757.518 8  86384441.18045                  21095900.445
                  21095907.438                          48.400          34.700

 105404893.757 7  82133819.14245                  20057851.125
                  20057858.488                          44.600          35.200

 126937664.619 6  98912581.109 6  94791218.081 8  24155406.961
  24155419.891    24155419.234    24155421.152          41.600          40.400
        48.500
 116256640.247 7  90589666.49545                  22122864.117
                  22122873.793                          45.600          33.900

 117081651.462 7  91232598.07345                  22279889.016
                  22279895.383                          45.600          32.000

 124970800.885 7  97379960.83544                  23781145.992
                  23781160.012                          43.600          25.600

 112172514.598 7  87407321.641 7                  21345701.313
  21345710.316    21345710.871                          47.400          44.900

 110318808.833 7  85962850.52245                  20992936.523
                  20992945.129                          45.800          34.500

 115740233.525 7  90187295.892 7  86429509.996 8  22024594.797
  22024605.090    22024605.555    22024603.715          46.600          47.800
        51.300
 121229287.690 7  94464440.33444                  23069140.875
                  23069153.285                          42.400          24.500

 129525469.47115                                  24647879.188
                                                        35.200

 14  3  3  0 45  0.0000000  0 13G09G16G23G13G30G06G19G08G07G03G27G10
                                G28
 125747378.140 7  97985076.41043                  23928928.008
                  23928942.090                          42.500          22.800

 117968083.503 7  91923364.54045                  22448536.711
                  22448545.375                          44.200          34.100

 110930699.365 7  86439720.51045                  21109400.266
                  21109405.465                          47.500          33.800

 105410871.386 7  82138477.04245                  20058988.375
                  20058995.590                          44.900          35.500

 127015056.599 6  98972886.527 6  94849010.796 8  24170133.773
  24170146.684    24170145.824    24170148.215          41.100          41.000
        48.500
 116284661.864 7  90611501.53745                  22128196.758
                  22128205.941                          43.700          34.400

 117005151.115 7  91172987.56845                  22265331.031
                  22265338.137                          45.600          31.400

 124896161.993 7  97321800.86043                  23766943.586
                  23766956.027                          44.000          23.900

 112120883.896 8  87367089.997 7                  21335876.383
  21335885.055    21335885.672                          48.000          45.100

 110287626.643 7  85938552.77945                  20987002.688
                  20987011.270                          46.300          35.200

 115736598.396 7  90184463.389 8  86426795.520 8  22023902.898
  22023913.000    22023913.363    22023912.754          45.500          48.000
        52.500
 121261581.445 7  94489604.34544                  23075285.391
                  23075298.734                          42.400          25.200

 129431751.241 6 100855980.71653                  24630045.500
                  24630061.047                          39.700          18.600

 14  3  3  0 45 30.0000000  0 13G09G16G23G13G30G06G19G08G07G03G27G10
                                G28
 125654154.147 7  97912434.58944                  23911187.000
                  23911202.176                          42.300          25.100

 118059824.562 7  91994851.07145                  22465994.266
                  22466003.035                          44.400          32.400

 111002090.341 8  86495349.80245                  21122985.109
                  21122990.121                          49.100          33.300

 105417408.404 7  82143570.84045                  20060232.898
                  20060239.898                          44.700          35.100

 127092523.424 7  99033250.270 7  94906859.378 8  24184876.109
  24184888.473    24184888.066    24184888.988          42.500          42.100
        48.100
 116313268.944 7  90633792.81045                  22133639.836
                  22133649.238                          43.800          33.500

 116929064.534 7  91113699.45945                  22250851.813
                  22250860.602                          44.600          32.100

 124821556.484 7  97263666.88244                  23752745.625
                  23752758.129                          42.100          24.800

 112069417.330 8  87326986.257 7                  21326083.125
  21326091.172    21326091.883                          48.200          44.700

 110257073.499 7  85914745.21845                  20981188.680
                  20981197.367                          46.300          35.300

 115733559.696 7  90182095.628 8  86424526.413 8  22023324.961
  22023335.391    22023334.926    22023334.785          45.400          48.200
        51.800
 121294383.977 7  94515164.77343                  23081527.844
                  23081539.648                          42.800          23.300

 129338195.571 6 100783080.60742                  24612241.961
                  24612259.656                          38.600          17.400

 14  3  3  0 46  0.0000000  0 13G09G16G23G13G30G06G19G08G07G03G27G10
                                G28
 125560960.478 7  97839816.38343                  23893453.352
                  23893467.090                          42.100          22.900

 118151765.327 7  92066493.21545                  22483490.086
                  22483498.973                          45.000          33.300

 111073928.537 8  86551327.58745                  21136655.805
                  21136661.609                          48.700          33.500

 105424504.674 7  82149100.43845                  20061582.625
                  20061590.176                          43.800          35.400

 127170064.507 6  99093671.867 7  94964763.399 7  24199631.258
  24199643.938    24199643.789    24199643.480          41.600          43.300
        47.500
 116342459.517 7  90656538.72745                  22139194.633
                  22139204.758                          44.700          33.300

 116853394.833 7  91054736.18445                  22236452.586
                  22236461.027                          45.500          33.600

 124746984.107 7  97205558.72544                  23738555.234
                  23738567.883                          43.500          24.900

 112018115.161 7  87287010.613 7                  21316320.578
  21316328.137    21316328.680                          47.600          44.700

 110227150.548 7  85891428.69645                  20975494.867
                  20975503.234                          46.800          35.400

 115731117.481 7  90180192.647 8  86422702.736 8  22022859.820
  22022870.426    22022870.691    22022868.914          45.700          49.100
        52.100
 121327692.999 7  94541119.84944                  23087866.164
                  23087877.180                          42.000          24.100

 129244803.272 6 100710307.66442                  24594471.594
                  24594487.875                          40.700          17.800

 14  3  3  0 46 30.0000000  0 13G09G16G23G13G30G06G19G08G07G03G27G10
                                G28
 125467797.388 7  97767222.04443                  23875724.258
                  23875739.211                          42.000          22.200

 118243903.137 7  92138288.88545                  22501023.539
                  22501032.219                          45.000          34.000

 111146211.941 7  86607652.29245                  21150410.422
                  21150417.477                          47.400          34.800

 105432160.725 7  82155066.20645                  20063040.352
                  20063047.723                          44.900          35.800

 127247679.458 6  99154151.029 7  95022722.579 7  24214399.938
  24214413.770    24214414.406    24214413.395          39.900          43.400
        47.400
 116372232.642 7  90679738.59845                  22144860.070
                  22144869.598                          44.700          32.600

 116778144.529 7  90996099.70345                  22222132.547
                  22222141.785                          45.600          33.800

 124672444.837 7  97147476.37944                  23724371.008
                  23724383.773                          44.600          24.800

 111966977.701 8  87247163.329 7                  21306589.102
  21306597.344    21306597.621                          48.200          43.800

 110197859.011 7  85868604.15746                  20969920.281
                  20969929.633                          46.000          36.000

 115729271.922 7  90178754.596 8  86421324.628 8  22022508.305
  22022518.586    22022519.270    22022516.902          43.400          48.600
        51.600
 121361506.537 7  94567468.05443                  23094301.031
                  23094311.250                          42.600          23.600

 129151575.277 6 100637662.92043                  24576729.586
                  24576747.664                          40.200          18.600

 14  3  3  0 47  0.0000000  0 13G09G16G23G13G30G06G19G08G07G03G27G10
                                G28
 125374665.856 6  97694652.32843                  23858002.016
                  23858014.949                          40.800          21.800

 118336235.896 7  92210236.46645                  22518593.969
                  22518602.637                          44.900          33.800

 111218939.743 8  86664323.29845                  21164249.891
                  21164258.148                          48.000          34.000

 105440377.322 7  82161468.77745                  20064603.602
                  20064611.199                          44.900          35.700

 127325368.456 6  99214687.924 7  95080737.123 7  24229184.094
  24229197.695    24229197.852    24229197.953          39.100          43.000
        47.400
 116402587.671 7  90703391.90445                  22150636.367
                  22150645.438                          43.900          32.100

 116703316.970 7  90937792.64545                  22207893.680
                  22207901.086                          46.000          32.700

 124597939.085 7  97089420.13844                  23710193.141
                  23710206.387                          43.800          24.600

 111916006.256 8  87207445.408 7                  21296889.406
  21296897.441    21296897.910                          48.100          44.100

 110169200.559 7  85846272.94445                  20964466.453
                  20964476.207                          44.800          35.600

 115728023.741 7  90177782.030 8  86420392.602 8  22022271.047
  22022281.148    22022281.348    22022280.270          45.000          48.400
        51.600
 121395822.958 7  94594208.15044                  23100831.570
                  23100842.570                          42.300          26.200

 129058513.665 6 100565147.70742                  24559020.078
                  24559038.742                          39.900          17.800

 14  3  3  0 47 30.0000000  0 13G09G16G23G13G30G06G19G08G07G03G27G10
                                G28
 125281566.783 6  97622107.72943                  23840284.133
                  23840298.602                          41.100          19.900

 118428761.192 7  92282334.07045                  22536200.867
                  22536209.723                          45.600          33.900

 111292110.635 8  86721339.58145                  21178174.203
                  21178182.027                          48.000          33.700

 105449155.337 7  82168308.81345                  20066274.219
                  20066281.328                          45.600          35.900

 127403131.425 6  99275282.446 7  95138806.883 7  24243981.805
  24243995.383    24243995.129    24243994.996          39.600          43.200
        47.300
 116433523.889 7  90727498.06545                  22156523.336
                  22156532.633                          43.800          32.100

 116628915.379 7  90879817.51445                  22193735.344
                  22193743.273                          46.700          33.700

 124523467.172 7  97031390.28244                  23696020.938
                  23696033.980                          43.300          26.600

 111865201.424 8  87167857.315 7                  21287221.578
  21287229.766    21287229.855                          48.300          44.400

 110141176.989 7  85824436.44345                  20959133.906
                  20959142.789                          47.000          34.700

 115727373.334 7  90177275.273 8  86419906.973 8  22022147.664
  22022157.574    22022157.289    22022156.914          45.800          48.000
        52.500
 121430640.394 7  94621338.61844                  23107457.047
                  23107469.102                          44.100          26.600

 128965619.072 5 100492762.60342                  24541340.344
                  24541361.363                          35.900          17.800

 14  3  3  0 48  0.0000000  0 13G09G16G23G13G30G06G19G08G07G03G27G10
                                G28
 125188500.761 6  97549589.03743                  23822575.219
                  23822588.176                          40.400          19.900

 118521476.878 7  92354580.04145                  22553844.133
                  22553852.531                          45.700          33.900

 111365723.042 8  86778699.89945                  21192182.070
                  21192190.047                          48.100          33.800

 105458495.794 7  82175587.10745                  20068051.422
                  20068058.586                          45.100          35.900

 127480968.399 6  99335934.620 7  95196931.863 7  24258793.711
  24258807.734    24258808.352    24258806.402          41.100          43.100
        46.300
 116465040.340 7  90752056.36245                  22162520.805
                  22162530.957                          43.200          33.000

 116554943.070 7  90822176.89745                  22179658.797
                  22179666.512                          46.700          34.200

 124449029.366 7  96973386.98344                  23681855.664
                  23681869.832                          43.100          25.500

 111814563.923 8  87128399.596 7                  21277585.461
  21277593.469    21277594.004                          48.100          44.500

 110113789.561 7  85803095.65545                  20953922.688
                  20953930.512                          46.400          35.600

 115727321.179 7  90177234.692 8  86419868.086 8  22022136.820
  22022147.387    22022147.398    22022146.730          45.400          48.200
        51.900
 121465957.155 7  94648858.18044                  23114178.133
                  23114190.480                          44.600          25.900

 128872892.971 7 100420508.89043                  24523697.938
                  24523715.586                          42.000          18.300

 14  3  3  0 48 30.0000000  0 13G09G16G23G13G30G06G19G08G07G03G27G10
                                G28
 125095468.111 6  97477096.25143                  23804870.461
                  23804885.004                          40.200          18.300

 118614380.027 7  92426972.09945                  22571522.969
                  22571531.301                          45.800          34.400

 111439774.828 8  86836402.57345                  21206273.766
                  21206280.824                          48.500          33.500

 105468398.561 7  82183303.56845                  20069935.875
                  20069943.426                          44.800          35.500

 127558878.836 6  99396644.030 7  95255111.705 7  24273619.398
  24273633.145    24273634.172    24273632.047          39.900          42.200
        46.000
 116497135.164 7  90777065.35245                  22168628.391
                  22168637.648                          44.500          32.700

 116481402.915 7  90764873.01545                  22165663.859
                  22165671.441                          45.500          33.500

 124374625.386 7  96915410.07544                  23667697.273
                  23667709.738                          43.200          24.600

 111764093.599 8  87089072.140 7                  21267981.500
  21267989.555    21267990.074                          48.000          44.900

 110087038.781 7  85782250.94745                  20948831.789
                  20948840.434                          47.300          35.800

 115727867.091 7  90177660.125 8  86420275.805 8  22022240.578
  22022250.902    22022251.227    22022250.035          44.600          48.300
        51.900
 121501770.690 7  94676764.83544                  23120993.117
                  23121005.031                          44.500          26.900

 128780336.376 6 100348387.12343                  24506082.813
                  24506101.246                          38.700          18.300

 14  3  3  0 49  0.0000000  0 13G09G16G23G13G30G06G19G08G07G03G27G10
                                G28
 125002469.233 6  97404629.82243                  23787173.813
                  23787188.152                          41.300          18.300

 118707468.261 7  92499508.37045                  22589237.328
                  22589245.453                          45.600          32.900

 111514264.566 8  86894446.51145                  21220449.055
                  21220454.070                          48.200          32.200

 105478863.568 7  82191458.13745                  20071927.203
                  20071934.188                          44.300          35.800

 127636862.153 6  99457410.230 6  95313345.984 7  24288460.367
  24288472.422    24288472.590    24288472.691          39.200          41.300
        46.400
 116529807.743 7  90802524.51345                  22174845.828
                  22174854.938                          44.100          32.600

 116408297.571 7  90707907.93645                  22151752.859
                  22151760.145                          45.300          32.800

 124300255.312 7  96857459.60844                  23653545.227
                  23653556.691                          43.800          24.600

 111713791.159 8  87049875.499 7                  21258409.078
  21258417.750    21258418.199                          48.300          44.800

 110060926.054 7  85761903.40645                  20943862.633
                  20943871.590                          45.800          35.500

 115729011.184 7  90178551.661 8  86421130.213 8  22022458.898
  22022468.309    22022468.477    22022467.574          43.700          48.200
        51.800
 121538078.923 7  94705056.95644                  23127902.586
                  23127913.645                          44.300          25.300

 128687950.418 7 100276398.44343                  24488504.727
                  24488520.527                          43.600          18.600

 14  3  3  0 49 30.0000000  0 13G09G16G23G13G30G06G19G08G07G03G27G10
                                G28
 124909505.390 6  97332190.59943                  23769483.844
                  23769497.449                          40.900          19.000

 118800739.465 7  92572187.22445                  22606985.844
                  22606994.109                          44.600          32.300

 111589191.348 8  86952830.98845                  21234706.336
                  21234711.992                          49.000          32.100

 105489892.547 7  82200052.17445                  20074025.430
                  20074033.602                          44.500          35.700

 127714918.973 7  99518233.704 6  95371635.168 7  24303314.117
  24303326.219    24303325.410    24303327.211          43.000          39.800
        46.300
 116563057.606 7  90828433.51045                  22181172.898
                  22181182.805                          43.700          33.000

 116335630.558 7  90651284.39845                  22137924.758
                  22137932.500                          45.800          33.400

 124225919.684 7  96799535.97543                  23639399.422
                  23639409.969                          43.500          23.000

 111663657.955 8  87010810.737 7                  21248869.344
  21248877.559    21248878.125                          48.600          44.700

 110035453.387 7  85742054.60445                  20939015.102
                  20939024.168                          46.400          35.800

 115730754.170 7  90179909.914 7  86422431.877 8  22022790.281
  22022800.633    22022800.406    22022799.504          42.900          47.700
        52.200
 121574880.584 6  94733733.56844                  23134904.945
                  23134916.313                          41.800          24.600

 128595736.793 6                                  24470953.117
                                                        37.100

 14  3  3  0 50  0.0000000  0 13G09G16G23G13G30G06G19G08G07G03G27G10
                                G28
 124816576.719 7  97259778.84342                  23751800.695
                  23751813.848                          43.200          17.400

 118894190.437 7  92645006.13745                  22624769.195
                  22624777.973                          44.600          31.600

 111664552.695 8  87011554.08845                  21249047.383
                  21249053.555                          48.400          32.300

 105501484.632 7  82209085.00646                  20076231.594
                  20076239.906                          43.700          36.500

 127793048.603 7  99579113.887 6  95429978.729 7  24318181.289
  24318193.621    24318193.262    24318195.414          43.300          39.900
        46.700
 116596882.941 7  90854790.93145                  22187610.008
                  22187619.781                          44.700          32.300

 116263404.430 7  90595004.40945                  22124180.320
                  22124189.004                          45.800          33.200

 124151618.362 7  96741639.07043                  23625260.773
                  23625271.637                          43.600          22.200

 111613694.125 8  86971877.933 7                  21239361.273
  21239369.031    21239370.004                          48.700          45.200

 110010621.440 7  85722705.08745                  20934290.164
                  20934298.016                          46.400          35.400

 115733095.817 7  90181734.621 8  86424180.578 8  22023236.023
  22023245.930    22023245.797    22023244.895          45.900          48.500
        52.200
 121612173.075 7  94762792.65444                  23142001.586
                  23142011.988                          44.100          25.400

 128503696.512 7 100132803.42252                  24453441.633
                  24453453.645                          42.100          17.800

 14  3  3  0 50 30.0000000  0 13G09G16G23G13G30G06G19G08G07G03G27G10
                                G28
 124723684.337 7  97187395.28342                  23734123.266
                  23734136.777                          44.100          16.900

 118987819.562 7  92717963.88445                  22642586.438
                  22642594.711                          45.200          32.400

 111740347.629 8  87070615.06645                  21263470.883
                  21263478.020                          48.900          32.500

 105513641.506 7  82218557.92245                  20078544.594
                  20078552.711                          45.100          35.400

 127871251.357 7  99640051.098 6  95488376.878 7  24333062.914
  24333074.934    24333075.664    24333075.297          42.000          40.100
        46.200
 116631282.909 7  90881596.13745                  22194155.711
                  22194165.301                          43.900          32.100

 116191622.746 7  90539070.75745                  22110520.328
                  22110529.410                          46.500          33.700

 124077351.987 7  96683769.38443                  23611126.852
                  23611138.727                          43.700          23.300

 111563900.931 8  86933078.102 7                  21229885.875
  21229893.539    21229894.211                          49.600          43.900

 109986431.871 7  85703856.12745                  20929687.047
                  20929695.016                          46.100          34.900

 115736036.833 7  90184026.366 7  86426376.850 8  22023795.852
  22023805.578    22023805.750    22023804.617          44.100          46.700
        52.000
 121649954.852 7  94792232.98743                  23149191.281
                  23149201.645                          43.900          23.900

 128411830.887 6 100061220.16642                  24435959.000
                  24435971.113                          41.300          16.300

 14  3  3  0 51  0.0000000  0 13G09G16G23G13G30G06G19G08G07G03G27G10
                                G28
 124630828.779 6  97115040.47742                  23716451.461
                  23716466.504                          41.800          17.400

 119081624.197 7  92791058.38845                  22660437.086
                  22660445.137                          44.400          32.300

 111816574.206 8  87130012.39845                  21277976.250
                  21277983.793                          48.000          33.400

 105526363.256 7  82228470.98445                  20080966.250
                  20080972.762                          43.700          35.400

 127949526.880 6  99701045.051 6  95546829.378 7  24347958.977
  24347971.223    24347971.621    24347969.320          38.700          41.000
        45.700
 116666256.837 7  90908848.57545                  22200810.773
                  22200819.977                          44.300          32.200

 116120288.619 7  90483485.83645                  22096945.773
                  22096954.824                          45.700          33.600

 124003120.599 7  96625926.93044                  23597002.234
                  23597014.141                          46.300          25.300

 111514278.500 7  86894411.331 7                  21220443.313
  21220450.926    21220451.082                          47.300          43.300

 109962885.812 7  85685508.59845                  20925206.148
                  20925214.629                          45.000          35.000

 115739577.120 7  90186785.101 7  86429020.646 8  22024469.398
  22024479.277    22024479.758    22024478.680          46.300          47.800
        52.400
 121688223.647 7  94822052.81043                  23156473.531
                  23156483.797                          43.700          23.000

 128320141.433 6  99989774.09952                  24418509.594
                  24418521.594                          39.600          16.900

 14  3  3  0 51 30.0000000  0 13G09G16G23G13G30G06G19G08G07G03G27G10
                                G28
 124538010.266 7  97042714.49143                  23698790.430
                  23698801.574                          44.500          18.300

 119175601.857 7  92864287.71545                  22678320.117
                  22678328.621                          45.000          32.300

 111893230.669 8  87189744.71645                  21292563.430
                  21292570.746                          48.800          32.500

 105539649.425 7  82238823.87345                  20083494.234
                  20083501.172                          44.700          35.700

 128027874.638 7  99762095.284 6  95605335.810 7  24362867.273
  24362880.027    24362879.996    24362877.930          42.800          39.700
        46.100
 116701802.713 7  90936546.68645                  22207575.242
                  22207584.980                          43.700          32.700

 116049404.293 7  90428251.40445                  22083456.727
                  22083465.477                          45.500          32.900

 123928923.808 7  96568111.40144                  23582882.258
                  23582894.117                          44.700          24.500

 111464827.441 8  86855878.087 7                  21211033.125
  21211040.078    21211040.340                          49.100          43.600

 109939984.125 7  85667663.19245                  20920847.328
                  20920856.711                          44.300          35.000

 115743716.381 7  90190010.561 8  86432111.714 8  22025256.563
  22025267.219    22025267.715    22025266.754          44.700          48.900
        52.300
 121726977.108 7  94852250.29344                  23163848.422
                  23163858.934                          43.700          26.000

 128228628.426 6                                  24401095.477
                                                        38.500

 14  3  3  0 52  0.0000000  0 13G09G16G23G13G30G06G19G08G07G03G27G10
                                G28
 124445229.813 7  96970418.30943                  23681134.508
                  23681147.035                          44.800          21.100

 119269750.581 7  92937650.33045                  22696236.078
                  22696244.453                          45.800          32.500

 111970315.755 8  87249811.01545                  21307232.320
                  21307240.621                          48.000          33.600

 105553501.273 7  82249617.55846                  20086129.992
                  20086137.234                          44.600          36.400

 128106294.935 6  99823201.974 6  95663896.385 7  24377789.938
  24377803.094    24377801.918    24377802.195          40.500          39.500
        46.200
 116737919.571 7  90964689.71945                  22214447.773
                  22214457.445                          44.800          33.600

 115978973.226 7  90373370.16145                  22070054.922
                  22070061.441                          44.600          32.800

 123854762.314 7  96510323.39844                  23568770.297
                  23568781.445                          44.600          24.200

 111415548.893 8  86817479.272 7                  21201655.141
  21201662.449    21201663.063                          49.000          44.100

 109917728.612 7  85650321.28645                  20916612.422
                  20916621.023                          45.000          34.900

 115748455.225 7  90193703.203 8  86435650.498 8  22026159.063
  22026168.473    22026168.977    22026168.074          44.900          48.400
        52.300
 121766213.610 7  94882824.17743                  23171314.680
                  23171326.570                          45.000          23.200

 128137293.664 6  99847280.09552                  24383713.969
                  24383726.387                          38.700          13.900

 14  3  3  0 52 30.0000000  0 13G09G16G23G13G30G06G19G08G07G03G27G10
                                G28
 124352487.976 7  96898152.20843                  23663486.883
                  23663499.363                          44.800          20.900

 119364067.599 7  93011144.08945                  22714184.047
                  22714193.055                          45.500          32.800

 112047827.511 8  87310209.77345                  21321982.867
                  21321990.305                          48.000          34.000

 105567919.053 7  82260852.21746                  20088874.086
                  20088881.309                          44.400          36.300

 128184787.380 6  99884364.883 6  95722510.874 7  24392726.773
  24392739.555    24392737.875    24392739.270          38.900          39.500
        45.700
 116774606.523 7  90993276.97545                  22221429.773
                  22221438.594                          44.300          32.600

 115908998.178 7  90318844.25445                  22056738.633
                  22056744.676                          45.500          33.200

 123780636.432 7  96452563.14643                  23554664.234
                  23554675.152                          44.600          23.200

 111366443.084 8  86779215.071 7                  21192310.375
  21192318.148    21192318.988                          48.000          44.000

 109896119.681 7  85633483.22445                  20912500.523
                  20912509.684                          45.000          35.900

 115753793.484 7  90197862.954 8  86439636.931 8  22027174.445
  22027184.902    22027185.023    22027183.363          45.600          49.200
        51.600
 121805930.749 7  94913772.60644                  23178872.391
                  23178884.961                          44.300          24.700

 128046138.451 6  99776250.23142                  24366367.172
                  24366377.180                          37.900          16.300

 14  3  3  0 53  0.0000000  0 13G09G16G23G13G30G06G19G08G07G03G27G10
                                G28
 124259785.587 7  96825916.82643                  23645844.789
                  23645858.461                          43.700          23.200

 119458550.489 7  93084767.10545                  22732163.727
                  22732172.348                          45.400          32.700

 112125764.244 7  87370939.66645                  21336813.375
                  21336819.441                          47.800          32.200

 105582902.684 7  82272527.79846                  20091725.398
                  20091732.574                          45.200          36.100

 128263351.751 6  99945583.928 6  95781179.130 7  24407677.672
  24407689.668    24407689.582    24407689.684          39.300          41.600
        46.200
 116811861.915 7  91022307.18345                  22228519.172
                  22228527.418                          45.400          33.900

 115839482.212 7  90264676.08845                  22043510.359
                  22043517.234                          46.800          33.600

 123706546.277 7  96394830.73444                  23540564.953
                  23540575.578                          44.100          25.000

 111317510.871 8  86741086.125 7                  21182998.742
  21183006.906    21183007.297                          48.100          44.200

 109875158.226 7  85617149.68846                  20908512.000
                  20908521.195                          45.800          36.200

 115759731.129 7  90202489.716 8  86444070.938 8  22028304.508
  22028314.262    22028314.977    22028312.727          45.000          49.200
        51.900
 121846126.306 7  94945093.79744                  23186521.961
                  23186532.730                          46.000          25.300

 127955163.106 6  99705360.75942                  24349055.453
                  24349066.121                          39.300          15.600

 14  3  3  0 53 30.0000000  0 13G09G16G23G13G30G06G19G08G07G03G27G10
                                G28
 124167123.587 7  96753712.98043                  23628211.734
                  23628226.020                          42.700          22.600

 119553197.136 7  93158517.72445                  22750174.297
                  22750183.215                          45.600          32.700

 112204124.531 8  87431999.58345                  21351724.945
                  21351730.266                          48.200          32.800

 105598453.030 7  82284644.97446                  20094684.281
                  20094691.656                          44.500          36.300

 128341988.136 6 100006859.043 7  95839901.091 7  24422642.234
  24422654.367    24422655.258    24422654.012          41.300          42.000
        45.800
 116849684.891 7  91051779.66545                  22235716.570
                  22235725.516                          45.800          34.100

 115770428.361 7  90210868.03245                  22030369.883
                  22030377.613                          46.600          33.800

 123632492.133 7  96337126.37643                  23526471.656
                  23526482.836                          44.500          23.800

 111268753.215 7  86703093.203 7                  21173721.102
  21173728.500    21173729.395                          47.500          44.500

 109854845.697 7  85601321.80945                  20904646.539
                  20904655.746                          44.700          35.500

 115766268.361 7  90207583.698 8  86448952.696 8  22029548.406
  22029557.875    22029558.219    22029557.258          45.900          48.900
        52.100
 121886798.280 7  94976786.22644                  23194261.680
                  23194272.195                          45.200          24.300

 127864369.523 6  99634612.72042                  24331778.398
                  24331787.742                          38.600          15.600

 14  3  3  0 54  0.0000000  0 13G09G16G23G13G30G06G19G08G07G03G27G10
                                G28
 124074502.468 7  96681540.94843                  23610585.867
                  23610600.266                          42.200          22.500

 119648005.230 7  93232394.14545                  22768216.039
                  22768223.965                          45.500          32.300

 112282906.581 7  87493388.15945                  21366716.797
                  21366722.016                          47.900          32.700

 105614570.052 7  82297203.72245                  20097750.469
                  20097758.332                          43.900          35.700

 128420696.305 6 100068190.054 7  95898676.623 7  24437619.133
  24437631.539    24437632.965    24437631.250          41.100          42.400
        46.100
 116888073.927 7  91081693.22945                  22243022.500
                  22243031.012                          45.500          33.800

 115701839.372 7  90157422.17845                  22017317.172
                  22017325.387                          46.200          33.500

 123558473.828 7  96279449.97644                  23512387.063
                  23512398.320                          45.100          25.700

 111220170.528 8  86665236.618 7                  21164475.656
  21164483.391    21164483.801                          48.100          44.900

 109835182.919 7  85586000.21745                  20900904.586
                  20900913.324                          47.400          35.800

 115773405.138 7  90213144.897 8  86454282.170 8  22030906.461
  22030916.039    22030915.520    22030915.379          45.500          48.600
        52.300
 121927944.664 7  95008848.34344                  23202090.891
                  23202101.234                          44.400          24.900

 127773758.643 6  99564007.08942                  24314536.133
                  24314545.043                          40.000          15.600

 14  3  3  0 54 30.0000000  0 13G09G16G23G13G30G06G19G08G07G03G27G10
                                G28
 123981922.776 6  96609401.23643                  23592968.547
                  23592982.859                          41.400          23.000

 119742972.301 7  93306394.45245                  22786287.469
                  22786295.379                          46.000          31.700

 112362108.258 7  87555103.73045                  21381787.930
                  21381795.012                          47.400          33.000

 105631254.164 7  82310204.37145                  20100925.820
                  20100932.691                          44.200          35.200

 128499476.191 6 100129576.975 6  95957505.750 7  24452609.414
  24452622.516    24452622.426    24452622.352          38.400          41.200
        46.300
 116927028.162 7  91112047.21145                  22250434.883
                  22250444.066                          44.700          34.800

 115633718.435 7  90104341.01245                  22004354.172
                  22004362.172                          43.900          33.700

 123484492.165 7  96221802.12844                  23498309.305
                  23498319.969                          45.100          25.400

 111171763.739 7  86627517.101 7                  21155263.852
  21155272.426    21155273.156                          47.600          45.100

 109816171.290 7  85571186.03946                  20897286.625
                  20897295.242                          46.300          36.000

 115781141.498 7  90219173.267 8  86460059.364 8  22032378.656
  22032388.438    22032388.469    22032387.453          45.700          49.000
        52.100
 121969563.329 7  95041278.46043                  23210010.180
                  23210020.703                          44.200          22.500

 127683331.863 6  99493544.89042                  24297328.102
                  24297338.434                          40.600          15.600

 14  3  3  0 55  0.0000000  0 13G09G16G23G13G30G06G19G08G07G03G27G10
                                G28
 123889385.119 7  96537294.30743                  23575359.188
                  23575372.555                          43.000          22.500

 119838096.133 7  93380516.92045                  22804388.563
                  22804397.133                          45.500          32.000

 112441728.486 7  87617145.43645                  21396938.828
                  21396947.930                          45.900          32.700

 105648505.623 7  82323647.08145                  20104208.422
                  20104215.719                          44.900          35.700

 128578327.319 6 100191019.428 6  96016388.125 7  24467615.406
  24467627.289    24467627.023    24467627.242          39.200          41.300
        47.100
 116966545.945 7  91142840.30845                  22257954.469
                  22257964.023                          45.700          34.900

 115566068.026 7  90051626.49745                  21991480.461
                  21991488.082                          46.300          33.400

 123410547.117 7  96164182.78744                  23484238.211
                  23484248.738                          46.100          27.100

 111123533.238 7  86589934.948 7                  21146085.758
  21146094.074    21146095.008                          47.200          45.500

 109797811.414 7  85556879.69846                  20893793.484
                  20893802.219                          47.000          36.000

 115789477.175 7  90225668.638 8  86466284.112 8  22033964.594
  22033974.891    22033975.246    22033974.109          46.100          49.600
        52.900
 122011652.078 7  95074074.89344                  23218019.820
                  23218030.055                          44.500          24.700

 127593090.047 6  99423226.77042                  24280155.180
                  24280165.098                          40.200          17.400

 14  3  3  0 55 30.0000000  0 13G09G16G23G13G30G06G19G08G07G03G27G10
                                G28
 123796890.753 7  96465221.06643                  23557757.859
                  23557769.105                          42.000          22.000

 119933374.574 7  93454759.84745                  22822519.227
                  22822527.953                          45.500          31.100

 112521765.533 7  87679511.94645                  21412169.820
                  21412179.098                          46.700          34.300

 105666324.887 7  82337532.23846                  20107599.273
                  20107607.230                          44.800          36.300

 128657250.247 6 100252517.789 7  96075324.059 7  24482633.180
  24482646.750    24482647.098    24482646.203          40.800          42.400
        45.500
 117006626.137 7  91174071.64645                  22265581.617
                  22265590.801                          45.500          34.500

 115498891.559 7  89999281.30845                  21978697.250
                  21978704.539                          46.700          34.000

 123336638.867 7  96106592.11044                  23470173.156
                  23470184.496                          45.100          27.800

 111075480.340 7  86552491.197 7                  21136941.766
  21136950.207    21136950.879                          47.300          44.600

 109780104.839 7  85543082.43346                  20890423.867
                  20890433.109                          46.600          36.500

 115798412.523 7  90232631.287 8  86472956.659 8  22035664.586
  22035675.063    22035675.406    22035674.152          44.600          49.700
        52.500
 122054208.675 7  95107235.87643                  23226118.242
                  23226129.719                          42.700          22.800

 127503034.877 6  99353054.11442                  24263017.648
                  24263028.828                          41.300          16.300

 14  3  3  0 56  0.0000000  0 13G09G16G23G13G30G06G19G08G07G03G27G10
                                G28
 123704440.195 7  96393181.92543                  23540164.656
                  23540177.586                          42.700          23.000

 120028805.297 7  93529121.44445                  22840679.406
                  22840687.902                          45.000          31.600

 112602217.427 7  87742201.72045                  21427479.961
                  21427487.973                          47.900          34.300

 105684712.133 7  82351859.98746                  20111098.000
                  20111106.555                          44.900          36.300

 128736244.405 6 100314071.651 6  96134313.173 7  24497665.422
  24497678.922    24497680.230    24497678.457          41.300          41.800
        46.200
 117047267.507 7  91205740.27245                  22273315.398
                  22273324.082                          45.400          34.800

 115432191.716 7  89947307.52345                  21966005.109
                  21966011.598                          46.800          34.700

 123262767.694 7  96049030.32744                  23456116.023
                  23456126.637                          45.000          26.700

 111027605.393 7  86515186.113 7                  21127831.227
  21127839.289    21127840.188                          47.800          45.200

 109763051.771 7  85529794.39946                  20887178.578
                  20887186.672                          46.800          36.100

 115807947.231 7  90240060.955 8  86480076.764 8  22037479.125
  22037489.379    22037489.313    22037487.941          44.900          49.600
        52.000
 122097230.676 7  95140759.55843                  23234304.695
                  23234317.918                          43.700          23.300

 127413167.135 7  99283027.48742                  24245915.914
                  24245927.664                          42.100          16.900

 14  3  3  0 56 30.0000000  0 13G09G16G23G13G30G06G19G08G07G03G27G10
                                G28
 123612034.101 7  96321177.46243                  23522580.359
                  23522592.453                          43.100          23.200

 120124385.651 7  93603599.63345                  22858867.805
                  22858876.523                          45.800          31.900

 112683082.415 8  87805213.36245                  21442867.266
                  21442874.758                          48.300          33.700

 105703667.289 7  82366630.27346                  20114704.984
                  20114713.156                          44.100          36.500

 128815309.605 6 100375680.905 6  96193355.373 7  24512710.547
  24512724.070    24512724.484    24512723.594          37.800          41.400
        45.700
 117088468.293 7  91237844.81045                  22281155.164
                  22281164.645                          43.200          33.000

 115365971.157 7  89895707.19145                  21953403.398
                  21953410.320                          47.000          34.900

 123188933.850 7  95991497.62544                  23442065.820
                  23442075.809                          45.300          24.100

 110979909.064 7  86478020.217 7                  21118754.953
  21118762.910    21118763.723                          47.700          45.600

 109746653.011 7  85517016.21045                  20884057.898
                  20884065.688                          46.600          35.600

 115818081.003 7  90247957.446 8  86487644.244 8  22039407.789
  22039417.398    22039417.750    22039416.555          47.300          49.300
        52.100
 122140715.962 6  95174644.19843                  23242580.023
                  23242593.168                          41.700          23.300

 127323487.598 7  99213147.60743                  24228852.445
                  24228862.621                          44.100          19.300

 14  3  3  0 57  0.0000000  0 13G09G16G23G13G30G06G19G08G07G03G27G10
                                G28
 123519672.715 7  96249207.78744                  23505004.305
                  23505017.242                          42.300          24.500

 120220113.274 7  93678192.58245                  22877084.398
                  22877092.773                          46.400          31.800

 112764358.347 8  87868545.22045                  21458334.070
                  21458339.406                          48.800          32.700

 105723190.244 7  82381842.98945                  20118420.391
                  20118428.336                          44.300          35.400

 128894445.329 6 100437345.120 6  96252450.280 7  24527770.281
  24527782.898    24527781.777    24527782.348          40.600          38.600
        46.100
 117130226.880 7  91270383.99345                  22289101.313
                  22289110.656                          44.600          33.900

 115300232.722 7  89844482.52945                  21940894.078
                  21940900.316                          46.800          33.600

 123115137.203 7  95933993.92644                  23428022.102
                  23428032.711                          43.400          26.100

 110932392.225 7  86440994.182 7                  21109713.086
  21109721.199    21109721.672                          47.600          45.700

 109730909.625 7  85504748.69846                  20881061.711
                  20881069.992                          46.000          36.600

 115828813.440 7  90256320.414 8  86495658.783 8  22041450.422
  22041459.715    22041460.496    22041459.129          46.500          49.500
        52.400
 122184662.278 7  95208888.09543                  23250942.281
                  23250953.473                          43.600          21.700

 127233997.416 7  99143415.24343                  24211822.891
                  24211832.582                          42.700          18.600

 14  3  3  0 57 30.0000000  0 13G09G16G23G13G30G06G19G08G07G03G27G10
                                G28
 123427357.198 7  96177273.85743                  23487436.672
                  23487450.090                          42.100          23.600

 120315985.967 7  93752898.58545                  22895328.461
                  22895336.984                          46.200          32.400

 112846043.260 7  87932195.77845                  21473877.938
                  21473883.270                          47.500          32.300

 105743281.189 7  82397498.29146                  20122243.656
                  20122250.824                          44.400          36.500

 128973651.658 7 100499064.285 6  96311597.843 7  24542842.703
  24542855.473    24542853.848    24542854.770          42.100          39.800
        46.200
 117172541.988 7  91303356.83245                  22297153.773
                  22297162.383                          45.100          33.200

 115234978.971 7  89793635.53645                  21928476.250
                  21928483.020                          46.400          34.300

 123041378.076 7  95876519.43744                  23413986.047
                  23413996.082                          43.800          25.400

 110885055.262 7  86404108.301 7                  21100705.406
  21100712.730    21100713.535                          47.500          45.600

 109715822.422 7  85492992.48346                  20878191.289
                  20878198.824                          45.800          36.700

 115840144.428 7  90265149.792 8  86504120.271 8  22043606.313
  22043615.941    22043615.980    22043615.605          45.700          49.200
        52.700
 122229067.244 7  95243489.34143                  23259392.773
                  23259402.043                          43.400          22.200

 127144697.626 6  99073831.17942                  24194827.930
                  24194838.324                          41.900          17.400

 14  3  3  0 58  0.0000000  0 13G09G16G23G13G30G06G19G08G07G03G27G10
                                G28
 123335088.324 7  96105376.26444                  23469879.188
                  23469891.836                          42.000          25.100

 120412001.715 7  93827716.03745                  22913599.047
                  22913607.520                          47.300          31.800

 112928136.043 7  87996164.15345                  21489499.773
                  21489506.254                          47.600          33.100

 105763940.575 7  82413596.52846                  20126175.422
                  20126182.488                          44.800          36.100

 129052928.628 7 100560838.526 6  96370798.136 7  24557929.859
  24557940.859    24557941.359    24557941.285          42.000          41.300
        45.800
 117215412.431 7  91336762.40645                  22305311.539
                  22305320.934                          45.900          33.800

 115170212.991 7  89743168.64745                  21916151.695
                  21916158.898                          45.800          34.400

 122967657.037 7  95819074.67644                  23399956.469
                  23399968.320                          43.000          25.300

 110837899.376 7  86367363.526 7                  21091732.148
  21091739.004    21091739.613                          47.900          45.400

 109701392.233 7  85481748.24246                  20875445.219
                  20875453.250                          47.000          37.000

 115852073.937 7  90274445.573 8  86513028.721 8  22045876.461
  22045886.234    22045886.105    22045885.789          46.600          48.400
        52.500
 122273928.852 7  95278446.44743                  23267929.258
                  23267938.566                          42.800          22.000

 127055589.636 6  99004396.73542                  24177870.781
                  24177880.504                          39.400          14.800

 14  3  3  0 58 30.0000000  0 13G09G16G23G13G30G06G19G08G07G03G27G10
                                G28
 123242867.025 7  96033515.77643                  23452328.891
                  23452341.262                          42.800          23.200

 120508158.383 7  93902643.32545                  22931897.430
                  22931906.164                          46.600          32.800

 113010634.907 8  88060448.96145                  21505199.023
                  21505206.121                          48.100          31.900

 105785169.028 7  82430138.20946                  20130214.492
                  20130222.238                          45.500          36.200

 129132276.275 6 100622667.895 6  96430051.271 7  24573027.523
  24573041.266    24573041.773    24573041.172          38.400          41.700
        45.800
 117258836.799 7  91370599.61545                  22313575.234
                  22313584.352                          45.800          33.300

 115105937.951 7  89693084.30445                  21903920.352
                  21903927.590                          47.200          33.800

 122893974.680 7  95761660.05244                  23385936.000
                  23385947.668                          43.700          27.200

 110790925.464 8  86330760.550 7                  21082792.469
  21082800.133    21082800.660                          48.500          45.500

 109687620.013 7  85471016.70346                  20872823.836
                  20872832.719                          46.900          36.500

 115864602.083 7  90284207.798 8  86522384.196 8  22048261.086
  22048270.289    22048270.703    22048269.742          47.900          49.100
        52.700
 122319244.953 7  95313757.72843                  23276552.484
                  23276562.949                          43.500          22.300

 126966675.015 6  98935112.94942                  24160950.914
                  24160961.602                          40.200          15.600

 14  3  3  0 59  0.0000000  0 13G09G16G23G13G30G06G19G08G07G03G27G10
                                G28
 123150693.834 7  95961692.73144                  23434789.078
                  23434801.055                          42.200          25.000

 120604453.645 7  93977678.59645                  22950222.008
                  22950230.059                          46.400          32.300

 113093537.536 7  88125048.41345                  21520975.016
                  21520983.391                          47.800          33.800

 105806965.884 7  82447122.79646                  20134362.336
                  20134370.074                          45.400          36.500

 129211694.168 6 100684552.044 6  96489356.892 7  24588140.563
  24588153.531    24588153.781    24588153.590          37.800          41.600
        45.300
 117302813.534 7  91404867.23045                  22321943.883
                  22321952.539                          45.800          33.500

 115042156.182 7  89643384.33545                  21891783.039
                  21891789.398                          45.500          33.900

 122820330.756 7  95704275.37344                  23371922.125
                  23371934.207                          43.900          27.200

 110744133.834 7  86294299.624 7                  21073888.148
  21073895.828    21073896.250                          47.900          45.400

 109674506.384 7  85460798.33846                  20870328.570
                  20870337.000                          46.300          36.900

 115877728.161 7  90294435.951 8  86532186.200 8  22050758.789
  22050768.301    22050769.035    22050766.375          47.300          49.500
        51.900
 122365012.990 7  95349421.13143                  23285262.539
                  23285273.121                          43.800          22.900

 126877954.258 6  98865980.22142                  24144067.898
                  24144078.734                          39.200          16.900

 14  3  3  0 59 30.0000000  0 13G09G16G23G13G30G06G19G08G07G03G27G10
                                G28
 123058569.669 7  95889907.89344                  23417258.547
                  23417270.832                          42.700          25.800

 120700884.976 7  94052819.88745                  22968572.148
                  22968580.801                          46.100          31.400

 113176842.261 8  88189961.16245                  21536827.234
                  21536834.828                          49.100          32.700

 105829331.240 7  82464550.37946                  20138618.617
                  20138626.008                          46.500          36.900

 129291182.319 6 100746490.841 6  96548714.903 7  24603266.773
  24603279.676    24603279.227    24603278.980          40.100          39.800
        45.600
 117347340.890 7  91439563.91345                  22330417.008
                  22330426.023                          45.800          33.600

 114978870.842 7  89594071.18045                  21879739.727
                  21879746.648                          44.900          33.400

 122746725.676 7  95646920.94044                  23357914.992
                  23357928.207                          43.100          27.900

 110697525.481 8  86257981.513 7                  21065018.695
  21065026.184    21065026.746                          48.300          45.600

 109662052.010 7  85451093.69146                  20867958.969
                  20867966.859                          46.800          36.300

 115891452.008 7  90305129.885 8  86542434.576 8  22053369.656
  22053379.270    22053379.578    22053377.738          46.600          48.700
        52.300
 122411230.546 7  95385434.83043                  23294057.336
                  23294068.176                          43.900          23.300

 126789428.493 6  98796999.36443                  24127221.898
                  24127232.859                          39.000          19.600

 14  3  3  1  0  0.0000000  4  6
DSRC                                                        MARKER NUMBER
DSRC (COGO code)                                            COMMENT
   0.000      (antenna height)                              COMMENT
 +39.99147598 (latitude)                                    COMMENT
-105.26107939 (longitude)                                   COMMENT
1655.057      (elevation)                                   COMMENT
 14  3  3  1  0  0.0000000  0 13G09G16G23G13G30G06G19G08G07G03G27G10
                                G28
 122966494.972 7  95818161.58644                  23399736.883
                  23399749.094                          42.500          26.900

 120797450.155 7  94128065.46645                  22986947.922
                  22986956.477                          46.500          32.400

 113260547.071 7  88255185.65545                  21552755.250
                  21552761.707                          47.500          31.300

 105852265.111 7  82482420.94746                  20142982.563
                  20142990.117                          46.900          37.200

 129370740.385 6 100808484.077 6  96608125.104 7  24618406.258
  24618419.273    24618418.055    24618417.805          40.800          40.000
        45.500
 117392417.685 7  91474688.72045                  22338994.922
                  22339003.758                          46.300          33.200

 114916084.595 7  89545146.95445                  21867791.883
                  21867799.070                          46.000          34.500

 122673159.760 7  95589597.00244                  23343914.945
                  23343928.320                          42.300          26.500

 110651100.993 7  86221806.672 7                  21056184.766
  21056192.504    21056192.734                          47.300          46.000

 109650257.311 7  85441903.07046                  20865713.820
                  20865722.352                          46.400          36.500

 115905773.140 7  90316289.244 8  86553128.974 8  22056094.945
  22056104.629    22056104.410    22056103.742          47.600          49.100
        52.600
 122457895.271 7  95421796.95043                  23302937.063
                  23302947.988                          42.400          22.300

 126701098.771 6  98728171.30142                  24110413.438
                  24110423.789                          41.100          17.400

 14  3  3  1  0 30.0000000  0 13G09G16G23G13G30G06G19G08G07G03G27G10
                                G28
 122874470.971 7  95746454.80744                  23382225.984
                  23382238.090                          43.700          26.400

 120894147.195 7  94203413.80045                  23005348.656
                  23005357.832                          46.600          32.500

 113344650.446 7  88320720.72445                  21568759.719
                  21568765.211                          47.800          30.600

 105875767.872 7  82500734.81246                  20147455.078
                  20147462.387                          45.900          36.900

 129450368.415 6 100870531.893 6  96667587.576 7  24633558.945
  24633571.555    24633570.559    24633571.719          40.900          39.400
        46.400
 117438042.102 7  91510240.24345                  22347676.609
                  22347686.207                          46.200          33.700

 114853799.574 7  89496613.27145                  21855939.539
                  21855947.293                          44.900          34.400

 122599633.492 7  95532303.98444                  23329924.102
                  23329936.473                          43.400          27.700

 110604861.414 7  86185775.912 7                  21047385.375
  21047392.930    21047393.344                          47.400          45.700

 109639123.084 7  85433227.09245                  20863594.766
                  20863603.672                          46.400          35.800

 115920691.469 7  90327913.967 8  86564269.335 8  22058933.984
  22058943.574    22058943.910    22058942.891          47.500          49.100
        52.200
 122505004.973 7  95458505.80243                  23311902.242
                  23311911.930                          43.300          22.500

 126612966.185 6  98659496.93642                  24093641.852
                  24093653.703                          40.600          16.900

 14  3  3  1  1  0.0000000  0 13G09G16G23G13G30G06G19G08G07G03G27G10
                                G28
 122782498.512 7  95674788.15244                  23364723.938
                  23364736.398                          44.200          24.800

 120990973.977 7  94278863.22845                  23023774.281
                  23023783.074                          46.300          32.600

 113429150.207 7  88386564.67244                  21584839.727
                  21584844.176                          47.500          29.600

 105899839.592 7  82519492.01746                  20152035.742
                  20152042.891                          46.000          36.200

 129530066.331 6 100932634.149 6  96727102.236 7  24648724.953
  24648737.707    24648737.371    24648739.875          41.100          39.600
        46.800
 117484213.193 7  91546217.74245                  22356462.398
                  22356472.152                          45.800          33.100

 114792018.970 7  89448472.64145                  21844182.758
                  21844190.484                          45.800          35.100

 122526147.000 7  95475041.96544                  23315939.367
                  23315951.566                          43.600          26.900

 110558807.549 7  86149889.851 7                  21038621.367
  21038629.582    21038629.961                          47.100          46.100

 109628649.995 7  85425066.28746                  20861602.242
                  20861610.645                          46.800          36.600

 115936206.626 7  90340003.737 8  86575855.377 8  22061886.047
  22061896.105    22061896.660    22061894.703          45.800          49.700
        52.300
 122552557.217 7  95495559.50843                  23320951.406
                  23320961.645                          44.700          22.500

 126525032.013 6  98590977.13942                  24076907.922
                  24076920.266                          39.800          17.400

 14  3  3  1  1 30.0000000  0 13G09G16G23G13G30G06G19G08G07G03G27G10
                                G28
 122690578.068 7  95603162.03644                  23347231.500
                  23347244.832                          42.900          26.600

 121087927.939 7  94354411.76945                  23042224.063
                  23042232.523                          45.200          32.000

 113514044.582 7  88452716.12544                  21600994.742
                  21600999.813                          47.800          29.800

 105924479.904 7  82538692.28846                  20156724.914
                  20156732.125                          45.700          36.300

 129609833.748 6 100994790.532 6  96786668.799 7  24663904.336
  24663916.621    24663916.871    24663919.320          41.800          39.500
        46.900
 117530928.626 7  91582619.41645                  22365352.516
                  22365361.496                          45.600          32.800

 114730745.237 7  89400726.98045                  21832523.438
                  21832530.590                          46.200          35.500

 122452700.474 7  95417811.08444                  23301963.789
                  23301973.520                          44.300          26.600

 110512939.872 7  86114148.880 7                  21029893.391
  21029901.133    21029901.613                          47.300          46.100

 109618838.141 7  85417420.74546                  20859735.313
                  20859743.992                          47.000          37.400

 115952317.912 7  90352558.030 8  86587886.586 8  22064951.727
  22064961.770    22064962.184    22064960.285          45.700          48.900
        52.100
 122600549.394 7  95532956.01543                  23330082.891
                  23330094.688                          43.100          21.800

 126437296.915 6  98522612.53342                  24060211.742
                  24060224.355                          40.500          16.900

 14  3  3  1  2  0.0000000  0 13G09G16G23G13G30G06G19G08G07G03G27G10
                                G28
 122598710.801 7  95531577.36143                  23329749.867
                  23329762.324                          42.400          22.600

 121185006.929 7  94430057.71445                  23060697.430
                  23060705.922                          45.400          30.000

 113599331.621 8  88519173.54145                  21617223.875
                  21617230.715                          48.100          31.700

 105949688.876 7  82558335.63746                  20161522.133
                  20161529.289                          46.900          36.300

 129689670.651 6 101057001.067 6  96846287.251 7  24679096.211
  24679108.938    24679109.242    24679109.109          39.300          40.700
        46.100
 117578186.995 7  91619444.15245                  22374345.477
                  22374354.414                          46.000          34.500

 114669981.374 7  89353378.61645                  21820960.000
                  21820967.465                          45.600          34.300

 122379294.104 7  95360611.50344                  23287994.242
                  23288003.691                          43.900          25.700

 110467259.480 7  86078553.847 7                  21021200.531
  21021208.434    21021208.660                          47.200          46.200

 109609688.443 8  85410291.17546                  20857994.023
                  20858002.559                          48.500          36.600

 115969025.131 7  90365576.690 8  86600362.806 8  22068131.102
  22068141.238    22068141.148    22068140.070          45.800          49.500
        52.100
 122648979.408 7  95570693.66043                  23339299.008
                  23339308.984                          43.200          21.300

 126349762.227 6  98454404.06642                  24043554.945
                  24043567.414                          40.500          17.400

 14  3  3  1  2 30.0000000  0 13G09G16G23G13G30G06G19G08G07G03G27G10
                                G28
 122506897.088 7  95460034.41143                  23312278.313
                  23312290.410                          42.300          22.500

 121282208.765 7  94505799.41145                  23079193.875
                  23079202.789                          44.900          30.800

 113685009.278 7  88585935.34545                  21633527.891
                  21633535.742                          47.800          31.400

 105975466.190 7  82578421.89346                  20166426.195
                  20166434.547                          45.900          36.900

 129769576.612 6 101119265.494 6  96905957.284 7  24694301.555
  24694315.082    24694315.723    24694312.367          36.500          41.600
        44.900
 117625986.783 7  91656690.78345                  22383441.563
                  22383451.090                          46.000          34.400

 114609729.748 7  89306429.40845                  21809493.828
                  21809501.230                          45.400          34.800

 122305928.120 7  95303443.39344                  23274033.547
                  23274042.395                          45.300          26.300

 110421766.731 7  86043105.013 7                  21012543.508
  21012551.340    21012551.738                          47.500          46.200

 109601201.599 7  85403678.10446                  20856378.609
                  20856387.172                          47.000          36.500

 115986327.584 7  90379059.142 8  86613283.505 8  22071423.383
  22071433.633    22071434.148    22071432.602          45.800          49.500
        52.500
 122697844.553 6  95608770.38043                  23348597.188
                  23348607.027                          41.700          20.600

 126262428.306 6  98386351.93142                  24026935.438
                  24026947.008                          40.900          16.300

 14  3  3  1  3  0.0000000  0 13G09G16G23G13G30G06G19G08G07G03G27G10
                                G28
 122415138.147 7  95388534.15444                  23294817.219
                  23294827.871                          43.100          24.700

 121379531.368 7  94581635.20144                  23097713.938
                  23097722.230                          45.000          29.900

 113771075.911 7  88653000.23245                  21649905.406
                  21649913.625                          46.600          31.600

 106001812.249 7  82598951.31246                  20171440.195
                  20171447.504                          45.200          36.200

 129849551.921 6 101181583.960 7  96965679.124 7  24709521.047
  24709535.082    24709536.406    24709532.230          36.500          42.000
        45.200
 117674326.235 7  91694357.90845                  22392640.461
                  22392648.961                          46.200          33.700

 114549993.453 7  89259881.74345                  21798127.023
                  21798133.438                          46.300          35.200

 122232603.233 7  95246307.30744                  23260080.492
                  23260090.121                          44.900          27.900

 110376462.983 8  86007803.462 7                  21003922.430
  21003930.008    21003930.441                          48.200          46.200

 109593378.226 7  85397582.00246                  20854889.594
                  20854898.672                          46.300          36.900

 116004225.195 7  90393005.377 8  86626648.664 8  22074829.867
  22074839.238    22074839.773    22074837.879          47.100          49.800
        52.200
 122747142.788 7  95647184.60043                  23357978.742
                  23357988.262                          43.300          20.600

 126175296.780 6  98318457.53042                  24010353.703
                  24010365.723                          40.400          16.300

 14  3  3  1  3 30.0000000  0 13G09G16G23G13G30G06G19G08G07G03G27G10
                                G28
 122323434.532 7  95317077.00343                  23277366.383
                  23277377.988                          43.500          22.900

 121476972.718 7  94657563.52445                  23116256.266
                  23116265.395                          45.200          30.400

 113857529.296 7  88720366.50245                  21666357.156
                  21666364.953                          45.600          31.500

 106028726.735 7  82619923.66146                  20176562.164
                  20176569.035                          45.400          36.500

 129929596.369 6 101243956.243 6  97025452.549 7  24724752.000
  24724765.941    24724766.234    24724766.336          38.800          40.000
        45.500
 117723203.953 7  91732444.48045                  22401941.367
                  22401949.910                          46.600          32.700

 114490774.499 7  89213737.21545                  21786858.258
                  21786864.750                          46.200          35.100

 122159319.955 7  95189203.59444                  23246134.875
                  23246146.012                          44.700          28.900

 110331348.959 8  85972649.740 7                  20995337.391
  20995344.984    20995345.402                          48.300          45.700

 109586218.469 7  85392003.01446                  20853527.211
                  20853536.297                          46.800          37.100

 116022717.247 7  90407414.822 8  86640457.726 8  22078348.758
  22078358.457    22078358.605    22078357.176          47.800          49.500
        52.100
 122796871.566 7  95685934.31643                  23367442.188
                  23367452.285                          43.500          21.800

 126088368.868 6  98250721.80343                  23993812.688
                  23993823.441                          41.500          18.600

 14  3  3  1  4  0.0000000  0 13G09G16G23G13G30G06G19G08G07G03G27G10
                                G28
 122231787.020 7  95245663.56044                  23259926.227
                  23259937.250                          44.200          24.700

 121574530.576 7  94733582.62245                  23134821.492
                  23134830.012                          45.600          30.800

 113944367.534 7  88788032.64545                  21682882.320
                  21682889.043                          46.300          31.900

 106056209.000 7  82641338.43346                  20181791.891
                  20181798.309                          45.500          36.700

 130009709.533 6 101306382.025 6  97085277.272 7  24739997.891
  24740010.465    24740009.555    24740013.117          38.900          38.200
        45.700
 117772617.884 7  91770948.86745                  22411344.391
                  22411353.031                          45.700          33.700

 114432075.324 7  89167997.70145                  21775688.133
                  21775694.098                          46.600          35.900

 122086078.199 7  95132132.24344                  23232196.891
                  23232209.234                          44.200          29.400

 110286425.199 8  85937644.270 7                  20986789.188
  20986796.020    20986796.301                          48.700          46.300

 109579722.626 7  85386941.37346                  20852291.523
                  20852299.672                          46.900          37.300

 116041803.045 7  90422286.917 8  86654710.159 8  22081980.297
  22081990.016    22081990.633    22081989.148          46.800          49.000
        52.500
 122847028.066 7  95725017.29443                  23376987.117
                  23376996.672                          42.400          21.800

 126001644.772 7  98183144.88843                  23977310.680
                  23977321.340                          43.700          18.600

 14  3  3  1  4 30.0000000  0 13G09G16G23G13G30G06G19G08G07G03G27G10
                                G28
 122140196.319 7  95174294.41844                  23242496.938
                  23242508.887                          44.300          27.000

 121672202.233 7  94809690.40645                  23153408.109
                  23153416.797                          46.100          31.200

 114031588.179 7  88855996.75845                  21699479.992
                  21699486.000                          47.000          32.600

 106084258.684 7  82663195.34346                  20187129.594
                  20187136.434                          45.600          37.700

 130089891.000 6 101368861.054 6  97145153.049 7  24755255.352
  24755268.809    24755267.809    24755268.848          37.800          40.400
        45.600
 117822566.056 7  91809869.54645                  22420849.195
                  22420858.160                          46.900          33.600

 114373898.690 7  89122665.35945                  21764616.922
                  21764624.016                          47.000          35.500

 122012877.891 7  95075093.17244                  23218267.023
                  23218280.074                          44.800          29.200

 110241692.137 8  85902787.395 7                  20978276.789
  20978283.820    20978284.113                          49.100          46.200

 109573891.100 7  85382397.37746                  20851181.867
                  20851189.180                          46.600          36.500

 116061481.855 7  90437621.092 8  86669405.422 8  22085725.047
  22085734.680    22085734.973    22085733.137          47.300          49.300
        52.300
 122897609.603 7  95764431.50143                  23386611.805
                  23386623.227                          42.900          22.500

 125915125.725 7  98115727.76843                  23960846.070
                  23960858.750                          42.800          19.000

 14  3  3  1  5  0.0000000  0 13G09G16G23G13G30G06G19G08G07G03G27G10
                                G28
 122048663.653 7  95102970.45344                  23225077.953
                  23225091.234                          43.600          26.700

 121769986.021 7  94885885.57145                  23172016.195
                  23172024.289                          46.800          31.500

 114119189.715 7  88924257.66745                  21716150.102
                  21716155.609                          47.000          32.400

 106112876.321 7  82685494.82046                  20192575.102
                  20192582.746                          44.700          37.100

 130170141.029 6 101431393.565 6  97205080.019 7  24770528.055
  24770540.398    24770540.270    24770537.910          39.400          41.300
        44.400
 117873047.365 7  91849205.64845                  22430455.086
                  22430463.980                          46.900          33.100

 114316247.460 7  89077742.43245                  21753646.516
                  21753653.902                          46.300          35.000

 121939719.709 7  95018086.93744                  23204345.375
                  23204358.113                          44.800          28.600

 110197151.065 8  85868080.129 7                  20969800.602
  20969807.992    20969808.004                          48.800          46.000

 109568724.496 7  85378371.51146                  20850198.484
                  20850206.832                          47.000          37.200

 116081753.512 7  90453417.247 8  86684543.405 8  22089582.211
  22089592.473    22089592.375    22089590.828          46.700          48.900
        52.100
 122948614.243 7  95804175.32443                  23396317.570
                  23396328.309                          43.000          22.300

 125828812.868 7  98048471.24943                  23944420.867
                  23944433.859                          44.200          21.800

 14  3  3  1  5 30.0000000  0 13G09G16G23G13G30G06G19G08G07G03G27G10
                                G28
 121957189.926 7  95031692.44544                  23207670.625
                  23207683.746                          43.200          26.200

 121867879.836 7  94962166.46945                  23190644.117
                  23190652.789                          46.600          30.200

 114207170.346 7  88992813.97545                  21732892.805
                  21732898.160                          47.400          31.500

 106142061.895 7  82708236.83746                  20198128.844
                  20198136.359                          44.700          37.100

 130250459.872 6 101493979.641 6  97265058.300 7  24785811.227
  24785824.027    24785824.191    24785823.355          39.000          40.200
        45.200
 117924060.167 7  91888955.90345                  22440162.977
                  22440171.898                          46.800          32.800

 114259124.182 7  89033230.87945                  21742775.797
                  21742782.977                          46.400          34.400

 121866604.207 7  94961113.95244                  23190432.188
                  23190443.961                          44.900          28.000

 110152803.300 8  85833523.475 7                  20961361.148
  20961368.426    20961368.531                          48.700          46.400

 109564223.126 7  85374863.98746                  20849341.117
                  20849350.516                          46.100          37.900

 116102617.457 7  90469674.901 8  86700123.669 8  22093552.344
  22093562.332    22093562.449    22093561.258          46.900          49.500
        52.400
 123000039.482 7  95844246.92943                  23406103.492
                  23406114.383                          43.200          21.800

 125742707.342 6  97981376.32143                  23928034.398
                  23928048.301                          41.300          20.400

 14  3  3  1  6  0.0000000  0 13G09G16G23G13G30G06G19G08G07G03G27G10
                                G28
 121865775.989 7  94960461.05244                  23190276.313
                  23190288.285                          42.600          25.800

 121965881.897 7  95038531.72144                  23209293.242
                  23209301.617                          46.500          29.800

 114295528.123 7  89061664.16045                  21749706.594
                  21749712.414                          47.500          32.400

 106171815.151 7  82731421.20646                  20203790.711
                  20203798.566                          45.500          36.400

 130330847.239 6 101556619.060 6  97325087.784 7  24801107.797
  24801120.594    24801120.188    24801122.988          38.100          38.800
        46.300
 117975602.591 7  91929118.85345                  22449970.992
                  22449979.918                          46.300          33.300

 114202531.435 7  88989132.72845                  21732006.109
                  21732012.715                          46.400          34.200

 121793532.006 7  94904174.71144                  23176526.617
                  23176537.480                          45.800          27.700

 110108649.499 8  85799117.972 7                  20952959.258
  20952966.906    20952967.121                          48.900          46.300

 109560387.424 7  85371875.17446                  20848612.273
                  20848619.750                          46.100          37.400

 116124073.307 7  90486393.768 8  86716145.928 8  22097635.391
  22097645.449    22097645.816    22097644.035          46.800          49.700
        51.900
 123051883.146 7  95884644.57543                  23415969.281
                  23415980.543                          43.600          22.300

 125656810.285 6  97914443.83743                  23911688.633
                  23911701.938                          41.000          20.100

 14  3  3  1  6 30.0000000  0 13G09G16G23G13G30G06G19G08G07G03G27G10
                                G28
 121774422.295 6  94889276.56244                  23172890.695
                  23172904.488                          41.900          25.500

 122063989.506 7  95114979.20744                  23227962.453
                  23227970.621                          46.400          28.600

 114384260.903 7  89130806.56145                  21766592.141
                  21766598.980                          47.400          32.800

 106202135.767 7  82755047.68446                  20209560.258
                  20209568.105                          44.700          36.900

 130411302.608 6 101619311.552 6  97385168.113 7  24816418.852
  24816430.773    24816429.785    24816433.348          38.000          39.900
        45.800
 118027672.712 7  91969692.99745                  22459879.445
                  22459888.535                          46.000          33.100

 114146471.493 7  88945449.77345                  21721338.391
                  21721344.863                          46.300          34.200

 121720503.041 7  94847269.14644                  23162629.664
                  23162639.359                          45.300          26.700

 110064690.005 8  85764863.874 7                  20944593.328
  20944601.090    20944601.500                          48.800          46.400

 109557217.464 7  85369405.12446                  20848008.875
                  20848016.535                          47.000          37.000

 116146119.935 7  90503573.018 8  86732609.382 8  22101830.844
  22101840.684    22101840.902    22101838.652          46.800          48.600
        51.900
 123104142.239 7  95925365.94844                  23425913.656
                  23425925.141                          43.900          24.800

 125571122.165 7  97847674.14143                  23895382.734
                  23895395.313                          42.200          19.900

 14  3  3  1  7  0.0000000  0 13G09G16G23G13G30G06G19G08G07G03G27G10
                                G28
 121683129.834 7  94818139.78344                  23155518.578
                  23155531.117                          42.900          24.900

 122162200.515 7  95191507.27044                  23246651.352
                  23246659.461                          46.200          29.300

 114473366.116 7  89200239.16945                  21783547.734
                  21783555.141                          47.200          32.800

 106233022.629 7  82779115.37246                  20215438.344
                  20215445.199                          45.100          37.000

 130491825.824 6 101682056.921 6  97445299.093 7  24831742.125
  24831753.758    24831754.633    24831754.266          40.000          40.900
        44.500
 118080268.482 7  92010676.73745                  22469887.781
                  22469897.707                          46.000          33.300

 114090946.800 7  88902183.90645                  21710772.859
                  21710779.367                          47.100          35.800

 121647517.714 7  94790397.58244                  23148740.984
                  23148750.359                          45.700          27.700

 110020925.718 8  85730761.895 7                  20936265.305
  20936273.055    20936273.027                          49.000          46.300

 109554713.358 7  85367453.91946                  20847532.094
                  20847540.273                          47.300          36.400

 116168756.604 7  90521212.013 8  86749513.436 8  22106138.680
  22106147.910    22106148.309    22106146.879          46.800          48.700
        52.000
 123156814.035 7  95966408.89943                  23435936.477
                  23435948.078                          43.000          23.600

 125485643.791 6  97781067.95843                  23879116.367
                  23879128.594                          40.800          18.600

 14  3  3  1  7 30.0000000  0 13G09G16G23G13G30G06G19G08G07G03G27G10
                                G28
 121591899.550 7  94747051.47044                  23138158.359
                  23138170.363                          43.400          26.700

 122260513.131 7  95268114.52144                  23265359.664
                  23265367.152                          45.300          28.300

 114562842.170 8  89269960.73045                  21800574.383
                  21800581.906                          48.600          32.400

 106264476.044 7  82803624.52346                  20221423.617
                  20221430.398                          44.700          37.100

 130572416.781 6 101744855.085 6  97505480.602 7  24847077.875
  24847090.137    24847090.492    24847088.543          40.800          40.600
        44.500
 118133388.278 7  92052068.80945                  22479996.766
                  22480005.766                          46.200          34.000

 114035959.684 7  88859336.90346                  21700308.883
                  21700316.367                          46.500          36.300

 121574576.538 7  94733560.43144                  23134860.852
                  23134870.406                          46.400          27.900

 109977357.677 8  85696812.843 7                  20927975.023
  20927982.547    20927982.469                          49.400          46.200

 109552875.173 8  85366021.60446                  20847182.320
                  20847190.359                          48.100          36.700

 116191982.732 7  90539310.339 8  86766857.671 8  22110557.977
  22110568.199    22110568.770    22110567.516          47.500          49.400
        52.900
 123209896.332 7  96007771.70144                  23446038.297
                  23446050.570                          43.400          24.000

 125400376.286 6  97714625.99542                  23862890.406
                  23862901.066                          41.100          17.400

 14  3  3  1  8  0.0000000  0 13G09G16G23G13G30G06G19G08G07G03G27G10
                                G28
 121500732.541 7  94676012.45244                  23120809.094
                  23120820.824                          43.900          25.400

 122358925.449 7  95344799.44944                  23284087.016
                  23284095.320                          45.100          28.200

 114652687.037 7  89339969.69645                  21817670.758
                  21817678.840                          47.200          31.400

 106296496.124 7  82828575.26446                  20227516.898
                  20227523.758                          44.400          37.000

 130653075.683 6 101807706.121 6  97565712.837 7  24862426.383
  24862439.813    24862438.648    24862439.629          38.600          38.200
        45.400
 118187030.362 7  92093867.86945                  22490204.523
                  22490213.305                          46.800          33.600

 113981513.278 7  88816911.22246                  21689948.172
                  21689955.984                          47.500          36.100

 121501679.979 7  94676758.05844                  23120988.734
                  23120998.781                          46.400          28.700

 109933986.878 8  85663017.489 7                  20919722.195
  20919729.277    20919729.453                          49.400          45.800

 109551703.581 7  85365108.71546                  20846959.234
                  20846967.223                          47.000          37.100

 116215797.795 7  90557867.564 8  86784641.688 8  22115089.906
  22115099.918    22115100.176    22115099.273          46.500          48.800
        52.700
 123263386.507 7  96049452.35244                  23456216.586
                  23456229.723                          43.900          24.800

 125315320.860 6  97648349.34543                  23846704.672
                  23846714.156                          41.300          18.300

 14  3  3  1  8 30.0000000  0 13G09G16G23G13G30G06G19G08G07G03G27G10
                                G28
 121409629.772 7  94605023.50544                  23103473.008
                  23103485.156                          43.000          26.200

 122457435.086 7  95421560.18644                  23302832.773
                  23302840.934                          44.800          29.400

 114742898.768 7  89410264.52645                  21834838.180
                  21834844.988                          47.500          31.900

 106329081.999 7  82853966.86946                  20233717.906
                  20233725.113                          44.100          37.700

 130733802.244 6 101870609.865 6  97625995.650 7  24877789.000
  24877801.313    24877800.016    24877804.105          36.600          37.800
        46.200
 118241193.048 7  92136072.56945                  22500510.984
                  22500520.059                          45.600          32.800

 113927609.392 7  88774908.30146                  21679690.555
                  21679697.113                          46.800          36.000

 121428828.370 7  94619990.71144                  23107125.531
                  23107135.969                          46.500          29.300

 109890814.345 8  85629376.624 7                  20911506.586
  20911513.430    20911513.590                          50.000          46.800

 109551198.522 7  85364715.19846                  20846863.234
                  20846871.637                          47.500          37.100

 116240201.066 7  90576883.137 8  86802864.947 8  22119733.555
  22119743.559    22119743.555    22119742.242          47.500          48.400
        52.700
 123317282.161 7  96091448.96744                  23466473.445
                  23466485.559                          44.700          26.900

 125230478.435 6  97582238.66942                  23830559.469
                  23830567.984                          41.900          17.800

 14  3  3  1  9  0.0000000  0 14G09G16G23G13G30G06G19G08G07G03G27G10
                                G28G05
 121318591.899 7  94534085.12544                  23086148.992
                  23086160.480                          43.300          26.800

 122556039.895 7  95498395.09044                  23321596.258
                  23321605.414                          43.800          29.700

 114833475.039 7  89480843.42345                  21852074.031
                  21852081.004                          46.800          31.600

 106362233.211 7  82879799.00246                  20240025.547
                  20240033.898                          45.200          37.400

 130814596.107 6 101933566.125 6  97686328.777 7  24893163.461
  24893176.379    24893176.672    24893178.125          37.600          40.000
        46.000
 118295874.410 7  92178681.43145                  22510915.938
                  22510925.926                          45.900          33.500

 113874250.308 7  88733329.88445                  21669536.422
                  21669542.449                          46.500          34.500

 121356021.957 7  94563258.56344                  23093270.898
                  23093281.934                          46.900          29.100

 109847840.380 8  85595890.490 7                  20903328.609
  20903335.891    20903335.887                          50.200          46.800

 109551360.056 8  85364841.10446                  20846893.617
                  20846902.223                          48.100          37.500

 116265191.447 7  90596356.216 8  86821526.655 8  22124489.328
  22124499.363    22124499.328    22124497.781          47.200          48.400
        52.700
 123371580.130 7  96133759.02944                  23476805.727
                  23476817.969                          42.900          25.000

 125145849.419 6  97516294.22042                  23814454.172
                  23814462.938                          41.800          16.900

 132084921.65616 102923323.45616                  25134903.117
  25134926.660                                          36.800          37.200

 14  3  3  1  9 30.0000000  0 14G09G16G23G13G30G06G19G08G07G03G27G10
                                G28G05
 121227619.897 7  94463198.11044                  23068837.539
                  23068848.777                          42.600          26.500

 122654737.884 7  95575302.59744                  23340378.125
                  23340386.902                          44.500          29.100

 114924413.917 7  89551704.85645                  21869379.133
                  21869386.137                          46.400          30.400

 106395949.360 7  82906071.33546                  20246442.086
                  20246449.691                          44.800          37.600

 130895457.342 6 101996574.919 6  97746712.159 7  24908549.516
  24908564.008    24908565.824    24908563.230          38.800          39.400
        44.400
 118351072.237 7  92221692.74645                  22521420.023
                  22521429.820                          46.300          33.400

 113821438.961 7  88692178.30045                  21659486.773
                  21659492.410                          46.500          34.400

 121283261.120 7  94506561.94644                  23079424.359
                  23079435.520                          46.800          28.600

 109805066.265 8  85562560.084 7                  20895189.133
  20895196.297    20895196.660                          49.800          46.800

 109552188.411 8  85365486.61746                  20847051.609
                  20847059.156                          48.100          37.000

 116290768.377 7  90616286.333 8  86840626.356 8  22129355.898
  22129365.766    22129366.035    22129364.547          46.000          48.100
        52.600
 123426277.990 7  96176380.73843                  23487214.055
                  23487226.273                          43.700          23.900

 125061434.875 7  97450516.94743                  23798390.961
                  23798400.273                          43.100          19.300

 132050338.353 5 102896375.465 6                  25128321.555
  25128360.875    25128334.594                          35.400          37.300

 14  3  3  1 10  0.0000000  0 14G09G16G23G13G30G06G19G08G07G03G27G10
                                G28G05
 121136714.863 6  94392363.26544                  23051537.578
                  23051550.133                          41.500          24.400

 122753527.341 7  95652281.37945                  23359177.008
                  23359185.969                          44.500          30.400

 115015713.008 7  89622846.98544                  21886752.781
                  21886759.246                          46.900          28.700

 106430230.453 7  82932783.89246                  20252965.719
                  20252972.637                          47.000          36.500

 130976385.773 6 102059636.028 6  97807145.695 7  24923951.742
  24923962.832    24923964.211    24923962.203          40.900          36.900
        44.700
 118406785.158 7  92265105.42945                  22532022.305
                  22532031.641                          45.700          34.000

 113769177.434 7  88651455.14645                  21649541.086
                  21649547.816                          45.900          33.600

 121210546.092 7  94449901.00644                  23065587.602
                  23065598.422                          47.100          28.300

 109762492.919 8  85529386.125 7                  20887086.961
  20887094.691    20887095.211                          48.800          47.400

 109553683.212 8  85366651.44246                  20847336.289
                  20847343.781                          49.100          37.500

 116316931.093 7  90636672.899 8  86860163.502 8  22134334.711
  22134344.234    22134344.797    22134342.902          46.800          49.100
        52.500
 123481373.422 7  96219312.23944                  23497698.063
                  23497710.969                          42.600          24.700

 124977236.099 7  97384907.77143                  23782368.602
                  23782378.410                          42.200          18.300

 132016254.214 6 102869822.43516                  25121834.766
  25121876.031    25121849.363                          37.200          36.600

 14  3  3  1 10 30.0000000  0 14G09G16G23G13G30G06G19G08G07G03G27G10
                                G28G05
 121045877.426 6  94321581.07244                  23034251.500
                  23034264.422                          40.500          24.700

 122852405.941 7  95729329.63544                  23377993.023
                  23378001.578                          44.600          29.300

 115107370.491 7  89694268.38445                  21904194.703
                  21904200.594                          46.200          30.400

 106465075.913 7  82959936.20846                  20259596.414
                  20259603.043                          46.300          37.300

 131057381.194 6 102122749.295 5  97867629.266 7  24939363.680
  24939373.254    24939373.043    24939378.125          39.900          31.300
        46.200
 118463010.898 7  92308917.71045                  22542721.156
                  22542730.930                          45.000          33.700

 113717467.851 7  88611162.05345                  21639700.773
                  21639707.766                          45.900          34.900

 121137877.568 7  94393276.32544                  23051758.844
                  23051769.777                          46.600          28.600

 109720120.816 8  85496368.976 7                  20879023.898
  20879031.484    20879032.234                          48.200          47.200

 109555844.894 8  85368335.91446                  20847747.500
                  20847755.469                          48.200          37.200

 116343678.533 7  90657515.106 8  86880137.296 8  22139425.063
  22139434.473    22139434.727    22139433.180          47.200          49.100
        52.500
 123536863.516 7  96262551.26944                  23508258.023
                  23508270.746                          42.900          25.300

 124893253.767 7  97319467.25943                  23766387.117
                  23766397.465                          42.500          19.600

 131982669.308 6 102843667.46515                  25115443.828
  25115479.387    25115459.699                          37.700          34.000

 14  3  3  1 11  0.0000000  0 14G09G16G23G13G30G06G19G08G07G03G27G10
                                G28G05
 120955108.821 6  94250852.51344                  23016978.781
                  23016991.707                          41.100          25.000

 122951371.652 7  95806445.75244                  23396825.508
                  23396833.984                          43.800          29.400

 115199384.233 7  89765967.37145                  21921704.516
                  21921710.531                          46.600          30.200

 106500485.154 7  82987527.84346                  20266334.578
                  20266341.445                          46.400          37.300

 131138443.570 6 102185914.726 5  97928162.879 7  24954788.195
  24954801.395    24954798.828    24954804.145          37.300          35.200
        46.500
 118519747.531 7  92353128.10545                  22553517.609
                  22553527.504                          44.700          33.200

 113666312.983 7  88571301.19045                  21629967.109
                  21629973.781                          46.600          35.100

 121065256.041 7  94336688.27644                  23037939.430
                  23037950.066                          45.900          28.200

 109677951.384 8  85463509.758 7                  20870999.063
  20871007.016    20871007.508                          48.300          47.300

 109558673.672 8  85370540.17746                  20848285.734
                  20848294.172                          48.100          38.300

 116371010.013 7  90678812.424 8  86900547.219 8  22144626.023
  22144635.621    22144635.406    22144634.563          47.300          49.200
        52.500
 123592746.051 7  96306096.07044                  23518893.172
                  23518904.520                          45.000          26.800

 124809488.678 6  97254195.96743                  23750446.641
                  23750458.023                          41.800          21.100

 131949584.763 6 102817816.68742                  25109147.875
                  25109164.355                          37.500          15.600

 14  3  3  1 11 30.0000000  0 14G09G16G23G13G30G06G19G08G07G03G27G10
                                G28G05
 120864409.752 7  94180178.11744                  22999720.258
                  22999732.816                          42.100          26.100

 123050422.703 7  95883628.38344                  23415674.219
                  23415682.727                          42.500          28.900

 115291751.888 7  89837942.16744                  21939281.133
                  21939287.777                          45.900          29.300

 106536457.883 7  83015558.54946                  20273179.719
                  20273187.281                          45.600          37.100

 131219572.374 6 102249132.067 6  97988746.143 7  24970227.266
  24970242.133    24970241.492    24970241.539          37.200          40.400
        44.600
 118576993.099 7  92397735.04545                  22564411.227
                  22564420.715                          45.500          33.100

 113615714.681 7  88531874.03845                  21620338.039
                  21620345.480                          47.300          35.400

 120992681.493 7  94280136.84444                  23024128.961
                  23024138.328                          46.000          27.100

 109635985.266 8  85430808.965 7                  20863013.367
  20863021.203    20863021.340                          48.100          47.100

 109562169.071 7  85373263.91046                  20848950.898
                  20848958.488                          46.800          37.600

 116398924.351 7  90700563.904 8  86921392.397 8  22149937.734
  22149947.020    22149947.176    22149945.980          47.100          48.900
        52.400
 123649017.974 7  96349944.33043                  23529600.023
                  23529611.637                          43.500          23.200

 124725941.570 6  97189094.57943                  23734548.766
                  23734558.969                          41.700          19.300

 131917001.294 5 102792416.29015                  25102947.570
  25102962.438    25102963.977                          35.400          33.100

 14  3  3  1 12  0.0000000  0 14G09G16G23G13G30G06G19G08G07G03G27G10
                                G28G05
 120773780.971 6  94109558.45744                  22982473.414
                  22982486.285                          41.900          24.900

 123149556.517 7  95960875.50044                  23434539.039
                  23434546.965                          42.600          28.800

 115384471.447 7  89910191.15045                  21956925.367
                  21956931.551                          46.400          31.400

 106572993.199 7  83044027.64246                  20280132.570
                  20280139.867                          45.900          38.300

 131300767.595 6 102312401.104 6  98049378.926 7  24985677.961
  24985693.465    24985695.242    24985688.543          37.600          40.300
        42.300
 118634745.489 7  92442736.94245                  22575401.680
                  22575410.594                          46.000          33.700

 113565675.375 7  88492882.46245                  21610815.688
                  21610822.270                          47.400          34.800

 120920154.483 7  94223622.45144                  23010327.305
                  23010336.734                          46.500          28.500

 109594223.057 8  85398267.057 7                  20855066.563
  20855073.520    20855074.094                          48.300          47.100

 109566330.769 7  85376506.83346                  20849742.266
                  20849750.844                          46.300          37.800

 116427420.608 7  90722768.810 8  86942672.118 8  22155360.305
  22155370.453    22155370.707    22155369.512          46.800          49.600
        53.000
 123705676.595 7  96394093.84843                  23540382.359
                  23540391.645                          42.400          22.200

 124642613.279 7  97124163.67843                  23718690.750
                  23718701.539                          42.000          20.600

 131884919.796 5 102767417.748 5                  25096840.930
  25096859.500    25096858.105                          33.700          35.600

 14  3  3  1 12 30.0000000  0 14G09G16G23G13G30G06G19G08G07G03G27G10
                                G28G05
 120683223.966 7  94038994.72643                  22965240.297
                  22965252.727                          42.800          23.600

 123248771.489 7  96038185.87044                  23453418.078
                  23453427.363                          42.600          28.100

 115477540.935 7  89982712.82445                  21974635.992
                  21974642.781                          46.600          31.300

 106610090.682 7  83072934.79146                  20287191.617
                  20287199.438                          46.800          37.600

 131382029.506 6 102375722.033 6  98110061.422 7  25001139.883
  25001154.301    25001155.781    25001153.129          36.400          36.800
        43.400
 118693003.174 7  92488132.57145                  22586487.844
                  22586496.504                          45.400          32.500

 113516197.355 7  88454328.25145                  21601400.570
                  21601405.590                          46.700          34.700

 120847675.791 7  94167145.71444                  22996535.078
                  22996544.742                          46.700          28.000

 109552666.558 8  85365885.435 7                  20847158.234
  20847165.859    20847166.199                          48.900          47.000

 109571159.367 7  85380269.41146                  20850661.125
                  20850669.973                          46.700          37.300

 116456498.245 7  90745426.734 8  86964385.981 8  22160893.336
  22160903.082    22160903.355    22160902.102          45.800          49.200
        52.700
 123762719.632 7  96438542.96243                  23551237.391
                  23551246.027                          42.700          22.800

 124559504.980 6  97059404.22343                  23702876.164
                  23702887.750                          41.800          20.100

 131853341.203 6 102742811.116 5                  25090832.719
  25090851.820    25090847.797                          38.700          35.200

 14  3  3  1 13  0.0000000  0 14G09G16G23G13G30G06G19G08G07G03G27G10
                                G28G05
 120592739.252 7  93968487.33043                  22948022.477
                  22948033.371                          43.400          22.900

 123348065.547 6  96115557.85444                  23472313.875
                  23472321.867                          41.400          29.700

 115570957.918 7  90055505.27445                  21992412.930
                  21992419.785                          46.600          31.400

 106647750.121 7  83102279.82146                  20294358.141
                  20294365.508                          45.900          37.600

 131463357.436 5 102439094.416 6  98170793.364 7  25016617.633
  25016630.641    25016629.352    25016632.855          32.400          37.100
        44.100
 118751763.747 7  92533920.04945                  22597669.180
                  22597678.242                          45.700          32.500

 113467282.932 7  88416213.21045                  21592092.672
                  21592098.813                          47.600          35.400

 120775245.583 7  94110706.74444                  22982751.469
                  22982761.941                          45.800          27.200

 109511315.609 8  85333663.987 7                  20839289.656
  20839296.898    20839297.289                          48.600          47.200

 109576654.603 7  85384551.44746                  20851706.578
                  20851715.195                          45.500          37.500

 116486155.969 7  90768536.691 8  86986533.022 8  22166536.781
  22166546.383    22166546.406    22166545.508          46.400          48.400
        52.000
 123820143.786 7  96483289.08543                  23562164.781
                  23562174.953                          43.300          23.400

 124476617.245 6  96994816.60143                  23687103.805
                  23687113.918                          41.600          21.500

 131822266.023 6 102718596.784 5                  25084919.570
  25084941.086    25084934.676                          38.900          33.000

 14  3  3  1 13 30.0000000  0 14G09G16G23G13G30G06G19G08G07G03G27G10
                                G28G05
 120502327.796 7  93898037.00644                  22930817.031
                  22930827.711                          43.500          24.700

 123447436.747 7  96192989.94244                  23491223.242
                  23491231.699                          42.900          27.500

 115664720.290 7  90128566.84045                  22010255.406
                  22010262.203                          46.700          32.600

 106685970.615 7  83132062.03946                  20301631.297
                  20301637.766                          46.900          37.600

 131544751.223 6 102502518.231 6  98231574.566 7  25032107.508
  25032122.500    25032121.781    25032123.348          37.600          41.200
        45.500
 118811025.262 7  92580097.88945                  22608946.086
                  22608954.941                          44.400          32.800

 113418934.089 7  88378538.87046                  21582891.805
                  21582899.559                          47.100          36.900

 120702864.255 7  94054305.84944                  22968977.523
                  22968988.809                          45.000          27.600

 109470171.128 8  85301603.432 7                  20831460.148
  20831467.098    20831467.316                          48.200          47.300

 109582816.103 7  85389352.65046                  20852879.563
                  20852887.445                          47.600          37.600

 116516392.777 7  90792097.879 8  87009112.508 8  22172290.852
  22172300.098    22172300.254    22172298.707          45.100          48.700
        52.000
 123877946.516 7  96528330.16444                  23573164.133
                  23573175.504                          42.900          24.800

 124393950.653 6  96930401.36743                  23671370.234
                  23671382.250                          41.500          20.900

 131791695.008 6 102694786.53742                  25079102.555
                  25079116.480                          38.400          15.600

 14  3  3  1 14  0.0000000  0 14G09G16G23G13G30G06G19G08G07G03G27G10
                                G28G05
 120411991.115 7  93827644.96944                  22913626.625
                  22913636.730                          43.800          25.000

 123546883.366 7  96270480.80444                  23510147.766
                  23510155.254                          42.400          28.500

 115758826.167 7  90201896.07445                  22028162.602
                  22028170.191                          47.000          32.300

 106724752.139 7  83162281.40346                  20309011.250
                  20309017.402                          47.500          37.500

 131626211.467 6 102565993.742 6  98292405.255 7  25047609.836
  25047624.281    25047625.758    25047622.285          39.400          41.300
        44.100
 118870786.137 7  92626664.82945                  22620318.547
                  22620327.781                          45.300          32.300

 113371153.048 7  88341306.97046                  21573799.391
                  21573806.574                          47.000          36.500

 120630532.782 7  93997943.79544                  22955212.961
                  22955224.445                          44.400          27.900

 109429235.042 7  85269705.252 7                  20823670.219
  20823677.242    20823677.777                          47.800          47.600

 109589643.889 7  85394673.04446                  20854178.766
                  20854186.914                          47.800          37.400

 116547208.083 7  90816109.856 8  87032123.995 8  22178155.094
  22178163.953    22178164.363    22178162.875          46.800          48.300
        51.900
 123936125.617 7  96573664.49544                  23584235.039
                  23584248.230                          43.200          25.300

 124311506.783 6  96866159.63943                  23655682.078
                  23655693.379                          40.500          20.600

 131761629.140 6 102671480.99014                  25073381.602
  25073428.172    25073393.551                          37.000          29.700

 14  3  3  1 14 30.0000000  0 14G09G16G23G13G30G06G19G08G07G03G27G10
                                G28G05
 120321729.965 7  93757311.78744                  22896450.594
                  22896460.508                          43.900          24.300

 123646403.256 7  96348028.77344                  23529085.469
                  23529093.328                          43.400          26.900

 115853273.378 7  90275491.28445                  22046135.430
                  22046143.031                          46.500          31.000

 106764093.653 7  83192937.13746                  20316497.094
                  20316504.766                          46.800          37.600

 131707737.671 6 102629520.652 6  98353285.093 7  25063121.453
  25063135.105    25063136.258    25063130.500          37.800          37.900
        43.100
 118931043.990 7  92673619.02545                  22631784.633
                  22631794.316                          44.900          32.100

 113323942.338 7  88304519.49746                  21564815.391
                  21564821.660                          47.500          36.100

 120558251.015 7  93941620.48144                  22941457.898
                  22941470.191                          44.600          27.900

 109388507.999 8  85237969.977 7                  20815919.852
  20815927.246    20815927.574                          49.100          47.600

 109597137.759 7  85400512.46646                  20855604.547
                  20855613.109                          47.200          37.200

 116578600.680 7  90840571.657 8  87055566.548 8  22184128.969
  22184137.906    22184137.996    22184137.270          45.500          48.100
        51.900
 123994678.192 7  96619289.90044                  23595376.594
                  23595390.512                          42.900          25.500

 124229286.090 6  96802091.78443                  23640036.617
                  23640047.129                          41.700          21.700

 131732069.166 6 102648351.15415                  25067755.188
  25067775.582    25067768.980                          38.900          35.900

 14  3  3  1 15  0.0000000  0 14G09G16G23G13G30G06G19G08G07G03G27G10
                                G28G05
 120231545.034 7  93687037.98844                  22879289.109
                  22879300.105                          43.800          26.500

 123745994.465 7  96425632.32244                  23548037.289
                  23548044.914                          44.200          28.400

 115948059.462 7  90349350.54745                  22064172.555
                  22064179.512                          46.200          30.200

 106803994.709 7  83224028.88846                  20324089.992
                  20324098.660                          47.200          38.400

 131789329.390 5 102693098.487 4  98414213.933 7  25078644.445
  25078655.352    25078657.426    25078661.277          30.300          26.800
        44.300
 118991796.971 7  92720959.02645                  22643345.383
                  22643354.711                          44.500          32.400

 113277303.818 7  88268177.89046                  21555940.773
                  21555946.613                          46.200          36.200

 120486019.567 7  93885336.37244                  22927713.500
                  22927725.383                          45.100          29.100

 109347990.557 8  85206398.020 7                  20808209.625
  20808216.906    20808217.426                          48.300          47.400

 109605297.465 7  85406870.71846                  20857157.523
                  20857165.754                          46.900          37.300

 116610569.401 7  90865482.370 8  87079439.310 8  22190212.078
  22190221.707    22190221.500    22190220.191          46.200          48.800
        51.900
 124053601.633 7  96665204.26144                  23606589.680
                  23606603.379                          43.400          25.400

 124147289.444 7  96738198.53843                  23624432.898
                  23624443.367                          43.200          21.700

 131703015.416 6 102625711.939 6                  25062226.422
  25062253.441    25062240.219                          39.000          38.600

 14  3  3  1 15 30.0000000  0 14G09G16G23G13G30G06G19G08G07G03G27G10
                                G28G05
 120141437.311 7  93616824.34444                  22862141.633
                  22862153.875                          43.500          25.600

 123845654.989 7  96503289.86444                  23567001.203
                  23567010.578                          43.900          27.700

 116043182.021 7  90423471.97645                  22082274.117
                  22082280.488                          47.000          31.500

 106844454.169 7  83255555.76246                  20331789.930
                  20331797.891                          47.300          38.900

 131870986.397 6 102756727.352 6  98475191.640 7  25094187.227
  25094200.383    25094197.305    25094204.617          36.000          38.000
        47.000
 119053042.765 7  92768683.04245                  22655000.477
                  22655009.012                          44.600          31.900

 113231239.393 7  88232283.60646                  21547174.297
                  21547180.961                          46.300          36.000

 120413838.938 7  93829091.85945                  22913977.852
                  22913989.500                          45.300          30.200

 109307683.553 8  85174990.040 7                  20800539.281
  20800546.715    20800547.059                          48.800          47.500

 109614122.683 7  85413747.54946                  20858836.477
                  20858844.898                          47.500          36.700

 116643113.032 7  90890841.074 8  87103741.417 8  22196405.102
  22196414.324    22196414.891    22196412.699          45.800          48.900
        51.500
 124112892.902 7  96711405.26943                  23617873.281
                  23617885.652                          43.400          23.600

 124065517.117 7  96674480.06243                  23608871.297
                  23608883.141                          42.700          22.300

 131674468.649 6 102603404.80816                  25056793.281
  25056815.680    25056807.465                          37.000          37.300

 14  3  3  1 16  0.0000000  0 14G09G16G23G13G30G06G19G08G07G03G27G10
                                G28G05
 120051407.915 7  93546671.72644                  22845009.180
                  22845021.066                          42.600          28.300

 123945382.771 7  96580999.82744                  23585979.352
                  23585988.191                          44.400          28.800

 116138639.036 7  90497854.04045                  22100438.688
                  22100444.965                          46.900          30.200

 106885471.486 7  83287517.30746                  20339595.281
                  20339602.148                          47.800          37.700

 131952708.899 6 102820407.234 7  98536218.175 7  25109741.031
  25109755.469    25109756.098    25109755.906          40.600          42.900
        46.800
 119114779.387 7  92816789.53245                  22666748.391
                  22666757.164                          43.900          31.500

 113185751.345 7  88196838.43846                  21538518.328
                  21538524.969                          47.800          36.500

 120341709.657 7  93772887.36944                  22900251.820
                  22900262.875                          44.800          29.400

 109267588.334 8  85143747.086 7                  20792909.000
  20792916.211    20792916.723                          48.300          47.500

 109623612.890 8  85421142.56446                  20860642.539
                  20860650.602                          48.700          37.900

 116676230.645 7  90916647.018 8  87128472.135 8  22202707.000
  22202716.383    22202716.758    22202715.215          46.400          49.500
        51.900
 124172549.382 7  96757890.85443                  23629224.570
                  23629236.414                          42.800          22.600

 123983970.405 6  96610937.40343                  23593353.258
                  23593364.500                          40.800          22.200

 131646429.554 6 102581556.268 5                  25051458.109
  25051493.773    25051472.500                          37.800          34.600

 14  3  3  1 16 30.0000000  0 14G09G16G23G13G30G06G19G08G07G03G27G10
                                G28G05
 119961457.976 7  93476581.03144                  22827892.898
                  22827904.238                          42.400          27.000

 124045176.101 7  96658760.86344                  23604969.281
                  23604978.676                          42.700          28.000

 116234428.342 7  90572495.03345                  22118667.055
                  22118673.008                          46.300          30.000

 106927046.415 7  83319913.35746                  20347506.227
                  20347513.148                          47.200          37.200

 132034496.623 6 102884137.972 7  98597293.407 7  25125302.539
  25125319.520    25125321.102    25125314.055          38.400          42.200
        44.400
 119177004.590 7  92865276.70945                  22678589.586
                  22678598.805                          43.300          30.900

 113140841.877 7  88161844.14546                  21529972.414
                  21529978.305                          47.100          37.100

 120269632.293 7  93716723.33744                  22886535.555
                  22886546.648                          42.800          29.700

 109227705.796 7  85112669.863 7                  20785319.797
  20785326.750    20785327.113                          47.000          47.000

 109633767.961 8  85429055.64846                  20862574.781
                  20862583.285                          48.100          37.700

 116709921.094 7  90942899.344 8  87153630.612 8  22209118.539
  22209127.652    22209127.742    22209126.316          46.300          49.100
        52.100
 124232568.436 6  96804658.92943                  23640645.117
                  23640655.648                          41.600          21.500

 123902650.022 6  96547571.11743                  23577878.594
                  23577890.023                          41.300          22.000

 131618898.641 6 102560103.845 4                  25046219.836
  25046233.598    25046233.203                          39.300          27.600

 14  3  3  1 17  0.0000000  0 14G09G16G23G13G30G06G19G08G07G03G27G10
                                G28G05
 119871588.186 7  93406552.78644                  22810790.469
                  22810801.863                          43.000          26.400

 124145032.670 6  96736571.16144                  23623971.695
                  23623980.918                          41.300          28.000

 116330547.431 7  90647393.01145                  22136957.961
                  22136964.930                          46.000          31.100

 106969177.316 7  83352742.64546                  20355523.953
                  20355530.504                          47.000          37.500

 132116348.872 6 102947919.061 5  98658416.848 7  25140878.656
  25140893.117    25140891.516    25140885.699          37.700          34.500
        43.200
 119239715.943 7  92914142.72445                  22690523.039
                  22690532.398                          43.300          31.800

 113096512.545 7  88127301.89546                  21521537.039
                  21521543.191                          46.500          37.500

 120197606.718 7  93660599.64644                  22872830.219
                  22872840.313                          43.800          29.900

 109188036.304 7  85081758.637 7                  20777770.945
  20777777.344    20777778.086                          47.900          47.000

 109644586.986 7  85437486.10446                  20864633.820
                  20864641.953                          47.800          37.900

 116744182.807 7  90969596.798 8  87179215.694 8  22215637.484
  22215647.066    22215647.117    22215644.809          47.800          49.300
        51.600
 124292946.548 7  96851706.78043                  23652135.461
                  23652144.855                          43.200          22.600

 123821556.350 7  96484381.47643                  23562447.047
                  23562457.328                          42.900          22.000

 131591876.320 6 102539047.725 5                  25041077.930
  25041088.680    25041091.098                          40.700          30.600

